# LAS format log file from PETREL
# Project units are specified as depth units
#==================================================================
~Version information
VERS.   2.0:
WRAP.   NO:
#==================================================================
~Well
STRT .m      2949.7507324 :
STOP .m      3605.5278320 :
STEP .m     0.00000000 :
NULL .        -999.250000 :
COMP.           : COMPANY
WELL.  35/9-10 S   : WELL
FLD.            : FIELD
LOC.            : LOCATION
SRVC.           : SERVICE COMPANY
DATE.  2018-09-11 14:49:01   : Log Export Date {yyyy-MM-dd HH:mm:ss}
PROV.           : PROVINCE
UWI.   35/9-10 S   : UNIQUE WELL ID
API.            : API NUMBER
#==================================================================
~Curve
DEPT .m                   : DEPTH
Lithology_geolink ._      : Lithology_geolink
CALI .in                  : CALI
BS .in                    : BS
ROP .m/h                  : ROP
DRHO .g/cm3               : DRHO
THOR .ppm                 : THOR
NPHI .m3/m3               : NPHI
RHOB .g/cm3               : RHOB
PEF .b/e                  : PEF
GR .gAPI                  : GR
URAN .ppm                 : URAN
DTC .us/ft                : DTC
DTS .us/ft                : DTS
RDEP .ohm.m               : RDEP
RMED .ohm.m               : RMED
~Parameter
#==================================================================
~Ascii
# ...
 3466.8437500 6.0000000000 8.5645999908 8.5000000000 84.286834717 0.0674000010 12.777899742 0.2958999872 2.6083943844 6.7953634262 110.60903168 1.6778999567 80.141578674 139.76138306 6.0554537773 5.8275780678
 3466.9960938 6.0000000000 8.5645999908 8.5000000000 86.917732239 0.0650999993 12.865699768 0.2887000144 2.6041138172 6.8471341133 108.55858612 1.5908999443 80.047294617 140.03990173 5.8765754700 5.6568493843
 3467.1486816 6.0000000000 8.5645999908 8.5000000000 91.257484436 0.0623999983 13.008000374 0.2879999876 2.5966119766 6.7686262131 106.91373444 1.4491000175 79.859886169 140.31695557 5.5553145409 5.3561816216
 3467.3010254 6.0000000000 8.5645999908 8.5000000000 101.88124847 0.0564000010 13.128499985 0.2865999937 2.5887126923 6.6268272400 112.90887451 1.3292000294 79.262359619 142.81388855 5.3033037186 5.1265678406
 3467.4533691 6.0000000000 8.5645999908 8.5000000000 108.18348694 0.0548000000 13.427599907 0.2825999856 2.5938916206 6.6062331200 114.07743835 1.1914000511 79.152984619 143.28144836 5.1730999947 5.0166997910
 3467.6057129 6.0000000000 8.5645999908 8.5000000000 106.27747345 0.0577000007 13.868200302 0.2748999894 2.6126399040 6.6619210243 110.92731476 1.0151000023 79.428504944 145.08610535 5.1300001144 4.9938001633
 3467.7583008 6.0000000000 8.5645999908 8.5000000000 98.066978455 0.0610999987 14.132100105 0.2761000097 2.6192893982 6.7287926674 109.68757629 0.8967999816 80.248298645 146.90638733 5.1744999886 5.0545997620
 3467.9106445 6.0000000000 8.5645999908 8.5000000000 92.340866089 0.0647000000 14.070300102 0.2946000099 2.6184015274 6.7892031670 110.95156860 0.8694999814 81.057609558 150.78457642 5.3551001549 5.2465000153
 3468.0629883 6.0000000000 8.5645999908 8.5000000000 94.823432922 0.0636000037 13.755100250 0.3046999872 2.6135079861 6.7591481209 110.36374664 0.9004999995 81.607719421 151.54101563 5.6651000977 5.5637001991
 3468.2153320 6.0000000000 8.5645999908 8.5000000000 94.677642822 0.0614000000 13.299900055 0.3001999855 2.6076185703 6.7562088966 105.95933533 0.9646000862 82.106887817 151.06632996 6.0099000931 5.9134998322
 3468.3679199 6.0000000000 8.5645999908 8.5000000000 92.035743713 0.0630000010 12.887599945 0.2980000079 2.6082987785 6.8194985390 100.26342010 1.0210000277 81.533241272 150.63478088 6.1982998848 6.1050000191
 3468.5202637 6.0000000000 8.5501003265 8.5000000000 88.525642395 0.0684999973 12.564499855 0.3070000112 2.6111955643 6.8897876740 98.357841492 1.0664999485 81.043991089 150.69050598 6.1371998787 6.0480999947
 3468.6726074 6.0000000000 8.5645999908 8.5000000000 86.790832520 0.0680000037 12.348600388 0.3082999885 2.6114995480 6.8537583351 99.667991638 1.1310000420 80.790214539 150.93931580 5.9918999672 5.9085001945
 3468.8249512 6.0000000000 8.5537004471 8.5000000000 87.188011169 0.0671000034 12.261300087 0.3052999973 2.6114001274 6.8575940132 99.419105530 1.1773999929 80.842918396 150.88438416 5.8979001045 5.8182001114
 3468.9772949 6.0000000000 8.5501003265 8.5000000000 88.386245728 0.0648000017 12.351599693 0.2912000120 2.6117987633 6.8582978249 98.103721619 1.1721999645 80.717697144 150.52993774 5.7992000580 5.7228999138
 3469.1298828 6.0000000000 8.5645999908 8.5000000000 89.189666748 0.0639000013 12.496399879 0.2887000144 2.6127982140 6.8168663979 98.387138367 1.1775000095 80.561752319 149.78131104 5.5911998749 5.5213999748
 3469.2822266 6.0000000000 8.5645999908 8.5000000000 94.635292053 0.0619999990 12.658100128 0.2969999909 2.6139981747 6.6712336540 100.01608276 1.2031999826 79.810600281 148.78958130 5.2252001762 5.1658000946
 3469.4345703 6.0000000000 8.5501003265 8.5000000000 97.366363525 0.0603000000 12.957200050 0.2984000146 2.6128017902 6.6453409195 101.73654938 1.1521999836 79.768867493 147.85910034 4.8077998161 4.7593998909
 3469.5869141 6.0000000000 8.5645999908 8.5000000000 93.622268677 0.0564000010 13.345999718 0.2815999985 2.6105074883 6.7913312912 101.89958954 1.0399999619 79.788940430 147.43754578 4.5707001686 4.5289998055
 3469.7395020 6.0000000000 8.5645999908 8.5000000000 91.733001709 0.0582000017 13.566200256 0.2825999856 2.6149928570 6.9541397095 100.10089111 0.9449999928 79.761444092 147.39875793 4.5960001945 4.5560002327
 3469.8918457 6.0000000000 8.5239000320 8.5000000000 75.262657166 0.0425000004 13.620100021 0.3073999882 2.6228873730 3.8099472523 99.215217590 0.8687999845 79.478645325 147.35626221 4.7628998756 4.7217001915
 3470.0441895 6.0000000000 8.5181999207 8.5000000000 67.002716064 0.0355999991 13.568400383 0.3221000135 2.6130158901 3.9185175896 100.16007996 0.8235999942 79.348808289 147.85180664 4.9760999680 4.9319000244
 3470.1965332 6.0000000000 8.5179996490 8.5000000000 85.751441956 0.0285000000 13.446999550 0.3409999907 2.6090128422 3.8862044811 100.41419220 0.8611000180 79.318000793 148.45297241 5.3520998955 5.3008999825
 3470.3491211 6.0000000000 8.5258998871 8.5000000000 95.207359314 0.0153000001 13.205200195 0.3479999900 2.6031095982 3.7381374836 99.016342163 0.9750000238 79.388282776 150.80322266 5.8951997757 5.8305001259
 3470.5014648 6.0000000000 8.5275001526 8.5000000000 77.367897034 0.0016000000 12.936900139 0.3296000063 2.5973093510 3.6340665817 97.617141724 1.0802999735 79.549148560 152.75227356 6.2480001450 6.1700000763
 3470.6538086 6.0000000000 8.5278997421 8.5000000000 68.411972046 -0.003100000 12.818099976 0.3138000071 2.5950036049 3.6651499271 97.842231750 1.1428999901 79.852516174 153.68560791 6.2372999191 6.1515002251
 3470.8061523 6.0000000000 8.5399999619 8.5000000000 69.350830078 -0.000900000 12.803700447 0.3147999942 2.5890095234 3.7926955223 98.643119812 1.1721999645 80.401718140 153.92411804 6.0562000275 5.9663000107
 3470.9584961 6.0000000000 8.5522003174 8.5000000000 69.828201294 0.0057000001 12.873999596 0.3143999875 2.5816235542 3.9914624691 98.752159119 1.1624000072 81.121986389 153.69345093 5.7765002251 5.6835999489
 3471.1110840 6.0000000000 8.5511999130 8.5000000000 83.167243958 0.0122999996 13.198900223 0.3104999959 2.5807013512 4.2640638351 98.648666382 1.1053999662 81.922721863 154.17094421 5.3797001839 5.2888998985
 3471.2634277 6.0000000000 8.5422000885 8.5000000000 89.857406616 0.0154999997 13.753899574 0.3206000030 2.5867903233 4.5007209778 98.848182678 1.0012999773 82.695663452 154.49728394 4.9637999535 4.8787999153
 3471.4157715 6.0000000000 8.5371999741 8.5000000000 94.349105835 0.0137000000 14.249199867 0.3440999985 2.5900948048 4.5537157059 99.720504761 0.9108999968 83.301033020 154.69209290 4.6449999809 4.5665998459
 3471.5681152 6.0000000000 8.5343999863 8.5000000000 96.593215942 0.0097000012 14.491700172 0.3585000038 2.5850162506 4.4442520142 101.31947327 0.9078999758 83.643005371 155.37249756 4.5054001808 4.4306998253
 3471.7207031 6.0000000000 8.5277996063 8.5000000000 93.439132690 0.0074999998 14.457400322 0.3535000086 2.5781109333 4.2790646553 102.34106445 0.9737999439 83.763206482 155.72323608 4.5490999222 4.4755997658
 3471.8730469 6.0000000000 8.5243997574 8.5000000000 91.019950867 0.0107000005 14.215900421 0.3427999914 2.5838906765 4.1160612106 102.09000397 1.0490000248 83.850372314 155.91958618 4.6677999496 4.5966000557
 3472.0253906 6.0000000000 8.5284996033 8.5000000000 90.182434082 0.0143999998 13.867699623 0.3296000063 2.5926859379 3.9395828247 100.51153564 1.1029000282 83.369361877 155.94485474 4.7474999428 4.6819000244
 3472.1777344 6.0000000000 8.5384998322 8.5000000000 89.139823914 0.0167999994 13.550999641 0.3204999864 2.5965876579 3.7836995125 98.477119446 1.1490999460 82.412864685 158.10096741 4.7533001900 4.6940999031
 3472.3303223 6.0000000000 8.5495004654 8.5000000000 88.927177429 0.0190999992 13.321100235 0.3260000050 2.5981974602 3.6914472580 99.085815430 1.1806000471 81.655410767 160.70443726 4.7364997864 4.6876001358
 3472.4826660 6.0000000000 8.5535001755 8.5000000000 86.171424866 0.0234999992 13.246800423 0.3391000032 2.6086831093 3.6222109795 102.41785431 1.1993000507 81.568138123 162.64587402 4.8162999153 4.7775998116
 3472.6350098 6.0000000000 8.5528001785 8.5000000000 83.621215820 0.0243999995 13.277799606 0.3395000100 2.6194825172 3.5014936924 103.03811646 1.2137000561 82.485923767 163.08229065 5.0204000473 4.9920001030
