# LAS format log file from PETREL
# Project units are specified as depth units
#==================================================================
~Version information
VERS.   2.0:
WRAP.   NO:
#==================================================================
~Well
STRT .m      1725.0000000 :
STOP .m      3754.9504395 :
STEP .m     0.00000000 :
NULL .        -999.250000 :
COMP.           : COMPANY
WELL.  35/9-6 S   : WELL
FLD.            : FIELD
LOC.            : LOCATION
SRVC.           : SERVICE COMPANY
DATE.  2018-09-11 14:49:02   : Log Export Date {yyyy-MM-dd HH:mm:ss}
PROV.           : PROVINCE
UWI.   35/9-6 S   : UNIQUE WELL ID
API.            : API NUMBER
#==================================================================
~Curve
DEPT .m                   : DEPTH
Lithology_geolink ._      : Lithology_geolink
CALI .in                  : CALI
DRHO .g/cm3               : DRHO
NPHI .m3/m3               : NPHI
RHOB .g/cm3               : RHOB
PEF .b/e                  : PEF
GR .gAPI                  : GR
DTC .us/ft                : DTC
RDEP .ohm.m               : RDEP
RMIC .ohm.m               : RMIC
RMED .ohm.m               : RMED
~Parameter
#==================================================================
~Ascii
# ...
 2941.3500977 13.000000000 8.5424995422 0.0060928455 0.1393000036 2.5980999470 4.5539999008 48.413322449 75.359100342 5.5576000214 5.8940000534 5.6687002182
 2941.5000000 13.000000000 8.5350999832 0.0064993487 0.1444000006 2.5736000538 4.6475000381 48.460300446 76.038200378 6.1929998398 5.9844999313 6.1891999245
 2941.6501465 13.000000000 8.5276002884 0.0054017887 0.1492999941 2.5911002159 4.7123999596 49.395500183 76.428703308 5.9924998283 5.5288000107 5.9032001495
 2941.8000488 13.000000000 8.5350999832 0.0014000000 0.1437000036 2.5978000164 4.7288999557 51.423198700 76.318000793 5.4833002090 5.2139000893 5.4387001991
 2941.9499512 13.000000000 8.5499000549 0.0020999999 0.1350000054 2.5885000229 4.7513999939 55.222698212 76.291290283 5.0062999725 4.9615001678 5.0022001266
 2942.1000977 13.000000000 8.5350999832 0.0059000002 0.1404000074 2.6033999920 4.8688001633 56.771301270 75.874908447 5.3677000999 5.2632999420 5.3498001099
 2942.2500000 13.000000000 8.5388002396 0.0082000000 0.1555999964 2.6029000282 4.9264001846 56.200199127 76.102600098 3.9907000065 5.5053000450 4.3309001923
 2942.4001465 13.000000000 8.5499000549 0.0156999994 0.1660999954 2.6243999004 4.9486999512 55.178398132 76.737098694 2.6542000771 5.3362002373 3.2822000980
 2942.5500488 13.000000000 8.5350999832 0.0167999994 0.1570000052 2.5569999218 4.9217000008 53.677898407 77.499801636 5.3099980354 4.3017487526 5.0714273453
 2942.7001953 13.000000000 8.5276002884 0.0168999992 0.1450092793 2.5879116058 5.0082998276 52.043998718 78.741500854 5.8577332497 3.8414084911 5.5764274597
 2942.8500977 13.000000000 8.5201997757 0.0137000000 0.1507269889 2.5950090885 5.0261998177 51.708400726 80.252006531 3.6095895767 4.3385891914 3.8156919479
 2943.0002441 13.000000000 8.4941997528 0.0115999999 0.1673262268 2.6005618572 4.8789000511 54.197299957 80.818298340 3.3579423428 5.3137240410 3.8108456135
 2943.1501465 13.000000000 8.5053997040 0.0126000000 0.1834030896 2.5772082806 4.9313998222 58.358001709 80.859100342 3.5674140453 4.8985252380 3.8996334076
 2943.3002930 13.000000000 8.5128002167 0.0146000003 0.1853014529 2.5823125839 5.0009999275 59.803699493 81.034103394 3.3300287724 4.4220976830 3.6127405167
 2943.4501953 13.000000000 8.5053997040 0.0219000001 0.1862064898 2.5901560783 5.0623464584 62.154899597 81.606269836 3.1019876003 4.0529146194 3.3308556080
 2943.6000977 13.000000000 8.5053997040 0.0268918704 0.1902000010 2.6245000362 5.0296998024 64.161132813 83.004310608 2.8487999439 4.0619997978 3.1807999611
 2943.7500000 13.000000000 8.5165004730 0.0227068402 0.1923000067 2.5927000046 4.6455001831 66.198699951 84.415405273 3.0594999790 3.7465999126 3.2600998878
 2943.8999023 13.000000000 8.5053997040 0.0135299191 0.1873999983 2.5731000900 4.7230000496 65.914703369 85.400100708 3.1452999115 3.5385000706 3.2655999660
 2944.0500488 13.000000000 8.4941997528 0.0050138435 0.1840000004 2.5613999367 4.6170997620 64.856498718 86.286399841 3.2764000893 3.5462999344 3.3705999851
 2944.1999512 13.000000000 8.4979000092 0.0017000000 0.1860000044 2.5504999161 4.4869999886 60.613498688 87.115600586 3.1675999165 3.5480000973 3.2815001011
 2944.3500977 13.000000000 8.4830999374 0.0024999999 0.1875000000 2.5562996864 4.6069002151 54.663700104 87.569396973 3.0406000614 3.5822999477 3.1863999367
 2944.5000000 13.000000000 8.4979000092 0.0035999999 0.1738999933 2.5613000393 4.5405001640 50.915500641 87.572303772 3.0144000053 3.6723001003 3.1819000244
 2944.6501465 13.000000000 8.4941997528 0.0035999999 0.1523000002 2.5639998913 4.5847997665 49.589401245 87.041099548 3.1749000549 4.0131001472 3.3778998852
 2944.8000488 13.000000000 8.4905004501 0.0016000000 0.1362999976 2.5833001137 4.4696998596 48.469299316 85.711601257 4.3380999565 4.7996997833 4.4544000626
 2944.9501953 13.000000000 8.4941997528 0.0005000000 0.1293959320 2.5913994312 4.3463001251 47.158298492 83.969100952 5.4426107407 5.6287460327 5.4934368134
 2945.1000977 13.000000000 8.5053997040 -0.000200000 0.1269053668 2.5911037922 4.2933998108 47.796298981 81.075103760 5.1425619125 6.0859584808 5.3320531845
 2945.2502441 13.000000000 8.4941997528 0.0002000000 0.1302043945 2.5932562351 4.3804998398 49.119201660 78.985801697 5.0574703217 5.9371428490 5.2416596413
 2945.4001465 13.000000000 8.4979000092 0.0011000000 0.1329102367 2.5664255619 4.5125999451 51.882999420 77.920410156 4.9157519341 5.7168221474 5.0934247971
 2945.5502930 13.000000000 8.5128002167 0.0000000000 0.1392218322 2.5820708275 4.6979999542 55.615001678 78.131500244 4.4549422264 4.8083019257 4.4933156967
 2945.7001953 13.000000000 8.5276002884 0.0007000000 0.1526205242 2.5641992092 4.4480409622 60.933399200 78.807098389 3.5607650280 4.0732707977 3.6443495750
 2945.8498535 13.000000000 8.5721998215 0.0139567479 0.1651999950 2.5638000965 4.5345001221 64.044456482 79.707611084 3.1714999676 3.8103001118 3.3069000244
 2946.0000000 13.000000000 8.5871000290 0.0251817591 0.1652999967 2.5938000679 4.3731999397 65.445137024 81.308403015 3.0441000462 3.9479000568 3.2634999752
 2946.1499023 13.000000000 8.5721998215 0.0270938221 0.1560000032 2.6020998955 4.3947000504 66.283996582 83.125099182 3.0360000134 4.0103001595 3.2799999714
 2946.3000488 13.000000000 8.5871000290 0.0151195442 0.1589999944 2.5878999233 4.2782001495 63.764099121 84.311004639 2.9282999039 4.0145001411 3.1949000359
 2946.4499512 13.000000000 8.5611000061 0.0049999999 0.1638000011 2.5736000538 4.1786999702 59.037998199 83.811500549 3.0594000816 4.2284002304 3.3206000328
 2946.6000977 13.000000000 8.5573997498 0.0003000000 0.1632999927 2.5541999340 4.0206999779 56.995800018 83.337600708 4.3003001213 4.8025999069 4.4052000046
 2946.7500000 13.000000000 8.5721998215 -0.002700000 0.1641000062 2.5757999420 4.0118999481 57.120899200 83.064201355 4.6979999542 5.2706999779 4.8161001205
 2946.9001465 13.000000000 8.5573997498 -0.002400000 0.1615999937 2.5750999451 3.9679999352 57.548400879 82.367996216 4.8594999313 4.9391999245 4.8983998299
 2947.0500488 13.000000000 8.5648002625 0.0003000000 0.1515000015 2.5550000668 3.9302000999 55.639900208 81.746803284 3.5178999901 4.5643000603 3.6986999512
 2947.2001953 13.000000000 8.5648002625 0.0026000000 0.1406999975 2.5631000996 3.9597001076 54.278598785 81.268798828 3.7133998871 4.5444998741 3.8401000500
 2947.3500977 13.000000000 8.5648002625 0.0077000000 0.1332053691 2.6031975746 4.2899999619 54.397098541 80.751701355 4.0782322884 5.2148728371 4.2651615143
 2947.5002441 13.000000000 8.5871000290 0.0081000002 0.1365154684 2.6017208099 4.0767002106 54.353698730 79.546600342 4.7121200562 5.1359190941 4.7941317558
 2947.6501465 13.000000000 8.5944995880 0.0108000003 0.1460247487 2.6144716740 4.1684999466 55.835201263 78.679710388 4.7870612144 4.7179756165 4.7535052299
 2947.8002930 13.000000000 8.5797004700 0.0292000007 0.1612468362 2.5971508026 3.8466999531 59.337898254 78.566596985 5.6166620255 4.3345870972 5.4266347885
 2947.9501953 13.000000000 8.5944995880 0.0471000001 0.1756197214 2.6126737595 3.7920999527 64.132499695 79.767601013 4.1330628395 4.0843400955 4.0878338814
 2948.1003418 13.000000000 8.5944995880 0.0485000014 0.1876843870 2.5964488983 3.6793138981 68.722198486 81.769699097 3.6780042648 3.4340493679 3.6154305935
 2948.2500000 13.000000000 8.5871000290 0.0254376214 0.1828999966 2.5501000881 3.5610001087 68.694244385 85.279502869 2.6679000854 3.2346000671 2.7665998936
 2948.3999023 13.000000000 8.6056995392 0.0062624393 0.1712000072 2.5230998993 3.4465999603 64.137496948 88.162994385 2.1968998909 3.1763999462 2.3982999325
 2948.5500488 13.000000000 8.5721998215 0.0008087947 0.1668999940 2.5176000595 3.5418000221 59.355400085 89.859588623 2.6229999065 3.5123000145 2.8008000851
 2948.6999512 13.000000000 8.5721998215 0.0003016260 0.1684000045 2.5399000645 3.6612999439 55.756000519 90.447502136 2.7535998821 3.1700000763 2.8324000835
 2948.8500977 13.000000000 8.5721998215 0.0006000000 0.1691000015 2.5378000736 3.6535999775 56.072299957 90.398300171 2.6942999363 3.1008999348 2.7767999172
