# LAS format log file from PETREL
# Project units are specified as depth units
#==================================================================
~Version information
VERS.   2.0:
WRAP.   NO:
#==================================================================
~Well
STRT .m      1725.0000000 :
STOP .m      3754.9504395 :
STEP .m     0.00000000 :
NULL .        -999.250000 :
COMP.           : COMPANY
WELL.  35/9-6 S   : WELL
FLD.            : FIELD
LOC.            : LOCATION
SRVC.           : SERVICE COMPANY
DATE.  2018-09-11 14:49:02   : Log Export Date {yyyy-MM-dd HH:mm:ss}
PROV.           : PROVINCE
UWI.   35/9-6 S   : UNIQUE WELL ID
API.            : API NUMBER
#==================================================================
~Curve
DEPT .m                   : DEPTH
Lithology_geolink ._      : Lithology_geolink
CALI .in                  : CALI
DRHO .g/cm3               : DRHO
NPHI .m3/m3               : NPHI
RHOB .g/cm3               : RHOB
PEF .b/e                  : PEF
GR .gAPI                  : GR
DTC .us/ft                : DTC
RDEP .ohm.m               : RDEP
RMIC .ohm.m               : RMIC
RMED .ohm.m               : RMED
~Parameter
#==================================================================
~Ascii
# ...
 3339.1501465 7.0000000000 8.4979000092 -0.001500000 0.2420855314 2.6026802063 3.2139000893 111.35130310 83.537300110 9.1640281677 11.185489655 9.6651802063
 3339.3002930 7.0000000000 8.5053997040 -0.000500000 0.2331942916 2.5905132294 3.3011169434 112.20700073 83.519104004 11.207225800 10.319746017 11.310678482
 3339.4501953 7.0000000000 8.4997997284 -0.000100000 0.2296942919 2.5985131264 3.2502169609 110.98259735 83.135101318 11.038825035 10.532445908 11.236378670
 3339.6003418 7.0000000000 8.4941997528 0.0004000000 0.2262055278 2.6065232754 3.1996269226 109.75810242 82.751098633 10.866543770 10.740528107 11.157758713
 3339.7502441 7.0000000000 8.4941997528 0.0013000000 0.2279052138 2.6137316227 3.2696335316 107.99549866 82.399993896 9.6238651276 9.4613256454 9.7661695480
 3339.8999023 7.0000000000 8.4979000092 0.0038915446 0.2310999930 2.6331000328 3.5353000164 106.40548706 81.476501465 9.9704999924 9.1707000732 9.9315004349
 3340.0500488 7.0000000000 8.4905004501 0.0080931596 0.2283000052 2.6426999569 3.6796998978 107.05269623 80.973396301 9.3611001968 8.8823003769 9.2304000854
 3340.1999512 7.0000000000 8.4979000092 0.0074022766 0.2291000038 2.6356999874 3.4839999676 105.50810242 81.000900269 9.3731002808 8.7786998749 9.4454002380
 3340.3500977 7.0000000000 8.4830999374 0.0033066776 0.2327000052 2.6221001148 3.5134999752 104.93080139 81.179199219 9.1224002838 9.2257995605 9.0879001617
 3340.5000000 7.0000000000 8.4979000092 -0.000700000 0.2386000007 2.6094999313 3.5146000385 104.47059631 81.267097473 11.535099983 9.6998996735 11.207900047
 3340.6501465 7.0000000000 8.4979000092 -0.000200000 0.2274000049 2.6315999031 3.5618999004 107.30380249 81.156402588 11.285300255 9.7871999741 11.035499573
 3340.8000488 7.0000000000 8.4718999863 0.0018000000 0.2229000032 2.6306002140 3.3031001091 108.33589935 81.008598328 9.2923002243 10.648799896 9.4561004639
 3340.9501953 7.0000000000 8.4905004501 0.0031000001 0.2224999964 2.6166000366 3.1561000347 107.46029663 80.816101074 10.133500099 10.828000069 10.150500298
 3341.1000977 7.0000000000 8.4905004501 0.0034000000 0.2279040664 2.6188788414 3.2204000950 105.56320190 80.489898682 11.862219810 11.443716049 11.714134216
 3341.2502441 7.0000000000 8.4905004501 0.0013000000 0.2304112315 2.6058268547 3.2516999245 103.64270020 79.778701782 9.8457288742 9.6698999405 9.7070550919
 3341.4001465 7.0000000000 8.4941997528 -0.000200000 0.2373073250 2.6222934723 3.2788000107 104.21690369 79.120697021 8.5771245956 7.7080869675 8.3314657211
 3341.5502930 7.0000000000 8.5165004730 -0.001900000 0.2418016195 2.6184134483 3.4344000816 104.79190063 78.823303223 9.2120504379 7.7023558617 8.8068246841
 3341.7001953 7.0000000000 8.4905004501 -0.002200000 0.2422952801 2.6225309372 3.5030128956 105.30580139 78.634498596 11.371648788 8.3640470505 10.621582985
 3341.8503418 7.0000000000 8.4608001709 -0.001600000 0.2393694371 2.6414153576 3.8165125847 103.77850342 78.671791077 10.544237137 8.9456844330 10.060282707
 3342.0002441 7.0000000000 8.4830999374 -0.002800000 0.2299741060 2.6154930592 3.5441966057 101.71399689 78.893402100 10.894128799 9.2474899292 10.393175125
 3342.1503906 7.0000000000 8.4830999374 -0.002800000 0.2140837461 2.6113042831 3.3579907417 100.52210236 79.344909668 11.707173347 9.4280996323 11.113099098
 3342.3000488 7.0000000000 8.5053997040 -0.002999674 0.2090999931 2.6126000881 3.2938001156 102.63674927 80.234802246 11.239199638 10.378000259 11.020799637
 3342.4499512 7.0000000000 8.4941997528 0.0096587008 0.2145999968 2.6314001083 3.3375999928 105.99770355 80.740310669 11.902999878 10.227399826 11.544899940
 3342.6000977 7.0000000000 8.4905004501 0.0142925084 0.2276999950 2.6310999393 3.4519999027 108.62310028 80.555900574 11.515500069 10.209500313 11.152299881
 3342.7500000 7.0000000000 8.5053997040 0.0146000003 0.2400999963 2.6296000481 3.3554999828 109.09709930 79.462097168 11.338899612 10.416000366 11.040100098
 3342.9001465 7.0000000000 8.4830999374 0.0034000000 0.2635999918 2.5966999531 3.4360001087 106.16799927 78.079704285 13.088199615 10.859999657 12.498200417
 3343.0500488 7.0000000000 8.4941997528 -0.000200000 0.2721999884 2.6064999104 3.6173000336 104.42289734 77.646301270 12.429100037 10.420599937 11.892800331
 3343.2001953 7.0000000000 8.5165004730 0.0016000000 0.2662000060 2.6419000626 3.6203999519 102.10050201 78.579200745 6.9700999260 6.1508002281 6.7385997772
 3343.3500977 7.0000000000 8.5053997040 0.0033000000 0.2497999966 2.5973999500 3.3722999096 104.63629913 80.488800049 5.7108683586 5.3890323639 5.6386923790
 3343.5002441 7.0000000000 8.4941997528 0.0043000001 0.2347791791 2.6231250763 3.4289000034 106.56880188 82.579803467 7.9024410248 5.2920455933 8.2116832733
 3343.6501465 7.0000000000 8.5201997757 0.0046999999 0.2284013033 2.6308002472 3.4360001087 109.32420349 84.649398804 9.2319965363 7.1459126472 9.1860446930
 3343.8002930 7.0000000000 8.5276002884 0.0027000001 0.2292377353 2.6309015751 3.4314000607 109.29840088 86.052291870 8.6113290787 7.6442193985 8.3503055573
 3343.9501953 7.0000000000 8.5276002884 0.0035000001 0.2408216596 2.6313953400 3.5454494953 108.65570068 85.308601379 6.8435025215 7.6818814278 6.8818230629
 3344.1003418 7.0000000000 8.5165004730 0.0038000001 0.2540850341 2.6284654140 3.4530510902 107.19069672 83.248802185 7.4565920830 8.3429107666 7.5076680183
 3344.2502441 7.0000000000 8.5276002884 0.0040000002 0.2494794875 2.6484858990 3.4073293209 107.52919769 81.297798157 7.0857763290 7.7640380859 7.0989475250
 3344.4003906 7.0000000000 8.5201997757 0.0024000001 0.2368466705 2.6398618221 3.3648216724 109.15409851 80.599128723 6.7066159248 7.9096894264 6.7626948357
 3344.5502930 7.0000000000 8.5053997040 -0.000200000 0.2204892635 2.6283972263 3.5873236656 111.00779724 80.730369568 7.6932077408 7.8826532364 7.4986410141
 3344.6999512 7.0000000000 8.4941997528 0.0072756098 0.2138999999 2.7492001057 4.3987998962 109.95680237 80.894699097 8.2497997284 12.083600044 8.7497997284
 3344.8500977 7.0000000000 8.4905004501 0.0152869709 0.2178999931 2.7367999554 4.4531002045 109.21340179 80.705299377 7.1122999191 13.107500076 8.0917997360
 3345.0000000 7.0000000000 8.5053997040 0.0129039092 0.2304999977 2.6394000053 3.8348000050 107.71520233 80.484901428 8.2962999344 13.026100159 9.1562004089
 3345.1501465 7.0000000000 8.5201997757 0.0037000000 0.2384999990 2.6222000122 3.7490000725 107.10880280 79.748497009 8.9288997650 9.4715003967 8.9909000397
 3345.3000488 7.0000000000 8.5165004730 -0.005200000 0.2433999926 2.6031999588 3.5332000256 107.18219757 79.384201050 8.2945995331 9.0352001190 8.4186000824
 3345.4501953 7.0000000000 8.4941997528 -0.002100000 0.2458000034 2.6231999397 3.5715999603 106.67549896 79.753601074 7.3849000931 7.8920998573 7.4629001617
 3345.6000977 7.0000000000 8.4905004501 0.0043000001 0.2433000058 2.6503000259 3.7202000618 106.49030304 80.227996826 5.9918999672 6.0346999168 5.9500999451
 3345.7502441 7.0000000000 8.5128002167 0.0062000002 0.2354837358 2.7135219574 4.1767997742 107.04879761 80.480796814 5.6321644783 5.2419490814 5.5124354362
 3345.9001465 7.0000000000 8.5499000549 0.0038000001 0.2304967344 2.6588749886 3.8921999931 111.42009735 80.536499023 5.4051218033 3.8778243065 5.1542258263
 3346.0502930 7.0000000000 8.5128002167 -0.000400000 0.2284804881 2.6436131001 3.6422998905 116.56639862 80.497100830 4.4380111694 3.8914918900 4.3119854927
 3346.2001953 7.0000000000 8.5053997040 -0.001600000 0.2224931568 2.6169981956 3.5613999367 118.51249695 80.407897949 4.5945467949 3.4917795658 4.3995299339
 3346.3503418 7.0000000000 8.4979000092 -0.000700000 0.2183224410 2.6159965992 3.6138579845 118.48310089 80.380599976 4.5049066544 4.2766776085 4.4213933945
 3346.5002441 7.0000000000 8.5053997040 -0.001700000 0.2252104282 2.6455864906 3.6622481346 116.45300293 80.343299866 5.8290247917 4.4560737610 5.5265631676
 3346.6503906 7.0000000000 8.4905004501 -0.002200000 0.2316204906 2.6371006966 3.6306133270 115.92489624 79.811302185 8.3527774811 5.9728651047 7.8298072815
