# LAS format log file from PETREL
# Project units are specified as depth units
#==================================================================
~Version information
VERS.   2.0:
WRAP.   NO:
#==================================================================
~Well
STRT .m      1725.0000000 :
STOP .m      3754.9504395 :
STEP .m     0.00000000 :
NULL .        -999.250000 :
COMP.           : COMPANY
WELL.  35/9-6 S   : WELL
FLD.            : FIELD
LOC.            : LOCATION
SRVC.           : SERVICE COMPANY
DATE.  2018-09-11 14:49:02   : Log Export Date {yyyy-MM-dd HH:mm:ss}
PROV.           : PROVINCE
UWI.   35/9-6 S   : UNIQUE WELL ID
API.            : API NUMBER
#==================================================================
~Curve
DEPT .m                   : DEPTH
Lithology_geolink ._      : Lithology_geolink
CALI .in                  : CALI
DRHO .g/cm3               : DRHO
NPHI .m3/m3               : NPHI
RHOB .g/cm3               : RHOB
PEF .b/e                  : PEF
GR .gAPI                  : GR
DTC .us/ft                : DTC
RDEP .ohm.m               : RDEP
RMIC .ohm.m               : RMIC
RMED .ohm.m               : RMED
~Parameter
#==================================================================
~Ascii
# ...
 1992.7501221 13.000000000 12.146499634  -999.250000 0.3488999903 2.3557000160  -999.250000 105.79250336 115.02660370 1.1650803089 1.0012909174 1.1279848814
 1992.9001465 13.000000000 12.073299408  -999.250000 0.3462011218 2.3614537716  -999.250000 97.103302002 115.59619904 1.1529803276 0.9956671000 1.1186567545
 1993.0499268 13.000000000 12.177700996  -999.250000 0.3468999863 2.3331000805  -999.250000 91.157745361 116.54512787 1.1409000158 0.9754999876 1.0921000242
 1993.1999512 13.000000000 12.168498993  -999.250000 0.3343999982 2.3441998959  -999.250000 98.683769226 118.04937744 1.1397000551 0.9735000134 1.0889999866
 1993.3499756 13.000000000 12.197401047  -999.250000 0.3346999884 2.3443999290  -999.250000 105.05751038 120.21710205 1.1584000587 0.9668999910 1.1040999889
 1993.5000000 13.000000000 12.180199623  -999.250000 0.3436000049 2.3468999863  -999.250000 105.18160248 121.00070190 1.1441999674 0.9710999727 1.0723999739
 1993.6500244 13.000000000 12.162299156  -999.250000 0.3407000005 2.3533000946  -999.250000 100.49199677 121.19239807 1.1366000175 0.9745000005 1.0774999857
 1993.8000488 13.000000000 12.171400070  -999.250000 0.3398999870 2.3561000824  -999.250000 97.507003784 120.30310059 1.1290999651 0.9778000116 1.0770000219
 1993.9500732 13.000000000 12.131798744  -999.250000 0.3429013193 2.3555994034  -999.250000 104.79170227 121.10539246 1.1333957911 0.9574841261 1.0845774412
 1994.1000977 13.000000000 12.162599564  -999.250000 0.3445057869 2.3548099995  -999.250000 104.92220306 120.90489960 1.1282972097 0.9380127788 1.0569065809
 1994.2500000 13.000000000 12.175999641  -999.250000 0.3515999913 2.3671998978  -999.250000 100.11771393 119.33636475 1.1248999834 0.9537000060 1.0649000406
 1994.4000244 13.000000000 12.229100227  -999.250000 0.3555000126 2.3701000214  -999.250000 108.36078644 117.72930145 1.1236000061 0.9700000286 1.0654000044
 1994.5500488 13.000000000 12.191999435  -999.250000 0.3519000113 2.3564000130  -999.250000 90.512939453 116.22149658 1.2460000515 1.0070999861 1.1405999660
 1994.7000732 13.000000000 12.172100067  -999.250000 0.3422000110 2.3480999470  -999.250000 87.824996948 111.32109833 1.3108999729 1.0839999914 1.2393000126
 1994.8500977 13.000000000 12.172299385  -999.250000 0.3343999982 2.3842999935  -999.250000 92.094703674 108.58570099 1.4595999718 1.2066999674 1.4287999868
 1995.0000000 13.000000000 12.100199699  -999.250000 0.3357000053 2.5306999683  -999.250000 99.355400085 108.26020813 1.3384000063 1.2374999523 1.3102999926
 1995.1500244 13.000000000 12.436400414  -999.250000 0.3370941281 2.5128319263  -999.250000 103.36199951 108.06199646 1.1679990292 1.0592676401 1.1416957378
 1995.3000488 13.000000000 12.302600861  -999.250000 0.3298977315 2.4290473461  -999.250000 100.35119629 110.89949799 1.1668041945 1.0195616484 1.1363900900
 1995.4499512 13.000000000 12.166099548  -999.250000 0.3271000087 2.3642001152  -999.250000 106.26078796 114.55722809 1.1719000340 0.9724000096 1.1241999865
 1995.5999756 13.000000000 12.145199776  -999.250000 0.3310999870 2.3331000805  -999.250000 107.54515839 117.54057312 1.1635999680 0.9725999832 1.1090999842
 1995.7500000 13.000000000 12.189599991  -999.250000 0.3531999886 2.3440999985  -999.250000 96.877891541 118.21520233 1.1876000166 0.9793000221 1.1252000332
 1995.9000244 13.000000000 12.205400467  -999.250000 0.3657999933 2.3531999588  -999.250000 97.362800598 118.41870117 1.1886999607 1.0012999773 1.1299999952
 1996.0500488 13.000000000 12.211600304  -999.250000 0.3332000077 2.3540000916  -999.250000 107.17330170 118.81680298 1.1632000208 1.0022000074 1.0966999531
 1996.2000732 13.000000000 12.137900352  -999.250000 0.3352999985 2.3452000618  -999.250000 116.81719971 119.25379944 1.1586999893 0.9894000292 1.0713000298
 1996.3500977 13.000000000 12.166000366  -999.250000 0.3342992067 2.3478021622  -999.250000 112.80100250 119.37169647 1.1543965340 0.9967058301 1.0787060261
 1996.5000000 13.000000000 12.194199562  -999.250000 0.3332999945 2.3503999710  -999.250000 108.78816223 119.48950195 1.1502000093 1.0039000511 1.0860999823
 1996.6500244 13.000000000 12.232000351  -999.250000 0.3420000076 2.3605999947  -999.250000 105.30023956 119.37789154 1.1578999758 0.9955000281 1.1096999645
 1996.8000488 13.000000000 12.291399956  -999.250000 0.3436999917 2.3735001087  -999.250000 101.58292389 117.43088531 1.1792000532 1.0410000086 1.1361000538
 1996.9499512 13.000000000 12.256200790  -999.250000 0.3447000086 2.3714001179  -999.250000 94.936096191 116.13150024 1.2122000456 1.0303000212 1.1612000465
 1997.0999756 13.000000000 12.172599792  -999.250000 0.3486999869 2.3749001026  -999.250000 96.598396301 115.02829742 1.2273999453 1.0498000383 1.1675000191
 1997.2500000 13.000000000 12.221300125  -999.250000 0.3458000124 2.3868999481  -999.250000 95.436698914 114.06849670 1.2010999918 1.0228999853 1.1362999678
 1997.4000244 13.000000000 12.233400345  -999.250000 0.3370999992 2.3784000874  -999.250000 102.23699951 113.36779785 1.2218261957 1.0098150969 1.1542445421
 1997.5500488 13.000000000 12.208600044  -999.250000 0.3387010396 2.4054067135  -999.250000 93.322898865 114.10440063 1.2539875507 1.0284141302 1.2089875937
 1997.6999512 13.000000000 12.210101128  -999.250000 0.3400000036 2.4135999680  -999.250000 87.050903320 114.00887299 1.2388000488 1.0458999872 1.1937999725
 1997.8499756 13.000000000 12.262000084  -999.250000 0.3125999868 2.3821001053  -999.250000 88.081649780 113.30457306 1.2640999556 1.0296000242 1.2138999701
 1998.0000000 13.000000000 12.315500259  -999.250000 0.3204999864 2.4072999954  -999.250000 94.458206177 113.21820068 1.2631000280 1.0348999500 1.2213000059
 1998.1500244 13.000000000 12.259400368  -999.250000 0.3307999969 2.3954999447  -999.250000 98.255996704 114.98359680 1.2827999592 1.0383000374 1.2628999949
 1998.3000488 13.000000000 12.250699997  -999.250000 0.3258000016 2.3831999302  -999.250000 98.218002319 115.89430237 1.2093000412 0.9939000010 1.2014000416
 1998.4500732 13.000000000 12.243498802  -999.250000 0.3499000072 2.3687000275  -999.250000 100.65879822 116.61609650 1.1541999578 0.9627000093 1.1346999407
 1998.6000977 13.000000000 12.235899925  -999.250000 0.3282999992 2.3554000854  -999.250000 99.436698914 117.01010132 1.1705986261 0.9544776678 1.1246017218
 1998.7501221 13.000000000 12.285400391  -999.250000 0.3742938936 2.3431084156  -999.250000 100.01470184 118.18329620 1.1688896418 0.9269964695 1.1265746355
 1998.8999023 13.000000000 12.245100021  -999.250000 0.3668000102 2.3533999920  -999.250000 96.233665466 118.98070526 1.1561000347 0.9226999879 1.0953999758
 1999.0499268 13.000000000 12.208299637  -999.250000 0.3700000048 2.3496000767  -999.250000 97.381713867 118.69776917 1.1664999723 0.9312000275 1.1022000313
 1999.1999512 13.000000000 12.286398888  -999.250000 0.3580999970 2.3468000889  -999.250000 109.98865509 118.68730164 1.1568000317 1.0081000328 1.1213999987
 1999.3499756 13.000000000 12.239299774  -999.250000 0.3628999889 2.3482999802  -999.250000 106.90399933 116.59850311 1.1412999630 0.9593999982 1.1002999544
 1999.5000000 13.000000000 12.258799553  -999.250000 0.3553999960 2.3424999714  -999.250000 105.84529877 115.24870300 1.1283999681 0.9108999968 1.0802999735
 1999.6500244 13.000000000 12.255599976  -999.250000 0.3391000032 2.3422999382  -999.250000 95.372901917 115.53669739 1.1420999765 0.9251999855 1.0793999434
 1999.8000488 13.000000000 12.285901070  -999.250000 0.3368999958 2.3601000309  -999.250000 92.923599243 114.32019806 1.1604634523 0.9482607841 1.0897619724
 1999.9500732 13.000000000 12.224699974  -999.250000 0.3377030194 2.3627014160  -999.250000 91.487098694 113.33820343 1.2383497953 1.0229430199 1.1659556627
 2000.0999756 13.000000000 12.169799805  -999.250000 0.3413999975 2.3645000458  -999.250000 92.208709717 112.38867188 1.2996000051 1.0757999420 1.2343000174
 2000.2500000 13.000000000 12.283699036  -999.250000 0.3461000025 2.4054999352  -999.250000 88.064674377 110.69937897 1.3461999893 1.0983999968 1.2860000134
