# LAS format log file from PETREL
# Project units are specified as depth units
#==================================================================
~Version information
VERS.   2.0:
WRAP.   NO:
#==================================================================
~Well
STRT .m      1725.0000000 :
STOP .m      3754.9504395 :
STEP .m     0.00000000 :
NULL .        -999.250000 :
COMP.           : COMPANY
WELL.  35/9-6 S   : WELL
FLD.            : FIELD
LOC.            : LOCATION
SRVC.           : SERVICE COMPANY
DATE.  2018-09-11 14:49:02   : Log Export Date {yyyy-MM-dd HH:mm:ss}
PROV.           : PROVINCE
UWI.   35/9-6 S   : UNIQUE WELL ID
API.            : API NUMBER
#==================================================================
~Curve
DEPT .m                   : DEPTH
Lithology_geolink ._      : Lithology_geolink
CALI .in                  : CALI
DRHO .g/cm3               : DRHO
NPHI .m3/m3               : NPHI
RHOB .g/cm3               : RHOB
PEF .b/e                  : PEF
GR .gAPI                  : GR
DTC .us/ft                : DTC
RDEP .ohm.m               : RDEP
RMIC .ohm.m               : RMIC
RMED .ohm.m               : RMED
~Parameter
#==================================================================
~Ascii
# ...
 2528.2502441 13.000000000 12.233400345 0.0219999999 0.2863856554 2.4318196774  -999.250000 92.060997009 96.997901917 1.7024941444 1.1249955893 1.5899875164
 2528.3999023 13.000000000 12.195099831 0.0404698700 0.2775999904 2.4440000057  -999.250000 95.118209839 96.569992065 1.7602000237 1.1835999489 1.6435999870
 2528.5500488 13.000000000 12.124800682 0.0286193490 0.2763999999 2.4270000458  -999.250000 95.374084473 96.497299194 1.7605999708 1.1684999466 1.6748000383
 2528.6999512 13.000000000 12.113300323 0.0226097722 0.2660999894 2.4212000370  -999.250000 98.697700500 94.915397644 1.8006999493 1.3191000223 1.6614999771
 2528.8500977 13.000000000 12.154500961 0.0276917070 0.2606000006 2.4305000305  -999.250000 100.94450378 95.868598938 1.8284000158 1.2625999451 1.6813999414
 2529.0000000 13.000000000 12.153200150 0.0328915343 0.2576000094 2.4398999214  -999.250000 87.806503296 97.449897766 1.8664000034 1.3772000074 1.6936999559
 2529.1501465 13.000000000 12.189599991 0.0236000009 0.2569000125 2.4321999550  -999.250000 88.987396240 97.094200134 1.9257999659 1.4007999897 1.7602000237
 2529.3000488 13.000000000 12.156000137 0.0315000005 0.2899000049 2.4412000179  -999.250000 93.828697205 96.263999939 1.8367999792 1.3717000484 1.7321000099
 2529.4499512 13.000000000 12.099100113 0.0219999999 0.2373999953 2.4481000900  -999.250000 83.569198608 96.157203674 1.8338999748 1.4471000433 1.7280999422
 2529.6000977 13.000000000 12.119299889 0.0122999996 0.2624000013 2.4928998947  -999.250000 90.270896912 96.988098145 1.7421000004 1.2956999540 1.6039999723
 2529.7500000 13.000000000 12.200100899 0.0114000002 0.2714000046 2.5120000839  -999.250000 92.622802734 97.341697693 1.6743999720 1.1949000359 1.5224000216
 2529.9001465 13.000000000 12.280799866 0.0104000000 0.2804000080 2.5309998989  -999.250000 94.974700928 97.695297241 1.6066000462 1.0942000151 1.4407000542
 2530.0500488 13.000000000 12.286600113 0.0233999994 0.2856999934 2.4986999035  -999.250000 97.140098572 98.282203674 1.6826990843 1.1261146069 1.5507111549
 2530.2001953 13.000000000 12.273900032 0.0399999991 0.2558151484 2.4659788609  -999.250000 100.02980042 98.771392822 1.6822054386 1.1350723505 1.5577005148
 2530.3500977 13.000000000 12.213100433 0.0395000018 0.2651304007 2.4528925419  -999.250000 102.23400116 97.961601257 1.7467200756 1.1182250977 1.6192190647
 2530.5002441 13.000000000 12.194800377 0.0397000015 0.2837926745 2.4482500553  -999.250000 98.342399597 95.841796875 1.6977112293 1.1951024532 1.5694693327
 2530.6501465 13.000000000 12.373900414 0.0328000002 0.2793235779 2.4178214073  -999.250000 94.707099915 96.863296509 1.7045513391 1.2578686476 1.5506602526
 2530.8000488 13.000000000 12.157799721 0.0720360950 0.2937999964 2.4923999310  -999.250000 93.306884766 98.394088745 1.6747000217 1.2386000156 1.5262999535
 2530.9499512 13.000000000 12.117600441 0.0246773604 0.2942999899 2.4391000271  -999.250000 95.677230835 98.969001770 1.7022999525 1.2932000160 1.5298000574
 2531.1000977 13.000000000 12.170499802 0.0244003255 0.3084000051 2.4296998978  -999.250000 96.557998657 100.30220032 1.7132999897 1.3315000534 1.5339000225
 2531.2500000 13.000000000 12.218999863 0.0206061900 0.2897000015 2.4165999889  -999.250000 106.67269897 100.04660034 1.7402000427 1.1575000286 1.6358000040
 2531.3999023 13.000000000 12.203800201 0.0306000002 0.2739999890 2.4288001060  -999.250000 91.161102295 98.241897583 1.7489000559 1.1823999882 1.6177999973
 2531.5500488 13.000000000 12.193600655 0.0318000019 0.2745000124 2.4361999035  -999.250000 99.608398438 98.212600708 1.7755999565 1.2102999687 1.6124999523
 2531.6999512 13.000000000 12.202799797 0.0340999998 0.2689000070 2.4354000092  -999.250000 101.27739716 98.558700562 1.8126000166 1.2831000090 1.6442999840
 2531.8500977 13.000000000 12.158100128 0.0212999992 0.2615999877 2.4270999432  -999.250000 92.320503235 99.120895386 1.8207999468 1.3176000118 1.6507999897
 2532.0000000 13.000000000 12.192600250 0.0260000005 0.2572000027 2.4321999550  -999.250000 88.731300354 99.391998291 1.8386000395 1.2845000029 1.6755000353
 2532.1501465 13.000000000 12.176400185 0.0296999998 0.2619000077 2.4384000301  -999.250000 86.795402527 98.561203003 1.8222999573 1.3579000235 1.6330000162
 2532.3000488 13.000000000 12.275799751 0.0370999984 0.2578999996 2.4509999752  -999.250000 99.588401794 97.814689636 1.7546000481 1.3782000542 1.5767999887
 2532.4501953 13.000000000 12.175299644 0.0467999987 0.2716164589 2.4608001709  -999.250000 97.816902161 97.818099976 1.7381768227 1.4031496048 1.5718021393
 2532.6000977 13.000000000 12.207899094 0.0384999998 0.2816907167 2.4610054493  -999.250000 93.370903015 98.603797913 1.7239410877 1.1270732880 1.5730428696
 2532.7502441 13.000000000 12.194800377 0.0342000015 0.2759941220 2.4643561840  -999.250000 90.044799805 97.952301025 1.6877608299 1.1106349230 1.5378842354
 2532.9001465 13.000000000 12.172299385 0.0304000005 0.2724021077 2.4374039173  -999.250000 85.874702454 98.382705688 1.6636495590 1.0707104206 1.4668362141
 2533.0500488 13.000000000 12.213300705 0.0379876420 0.2736999989 2.4398000240  -999.250000 99.061126709 97.768997192 1.6326999664 1.0771000385 1.4277000427
 2533.1999512 13.000000000 12.197799683 0.0397970676 0.2702000141 2.4386000633  -999.250000 94.053604126 99.044700623 1.6310000420 1.0777000189 1.4861999750
 2533.3498535 13.000000000 12.201000214 0.0380058512 0.2872999907 2.4354999065  -999.250000 93.834297180 99.274688721 1.6565999985 1.0475000143 1.5170999765
 2533.5000000 13.000000000 12.199299812 0.0373011418 0.3046000004 2.4333999157  -999.250000 95.178398132 99.177299500 1.6511000395 1.0932999849 1.5142999887
 2533.6499023 13.000000000 12.227101326 0.0325156078 0.2811999917 2.4472000599  -999.250000 98.444198608 96.408897400 1.7007999420 1.1246000528 1.5672999620
 2533.8000488 13.000000000 12.509200096 0.0348000005 0.2727999985 2.4923999310  -999.250000 97.677101135 95.629302979 1.7209999561 1.1546000242 1.5899000168
 2533.9499512 13.000000000 12.434100151 0.0386000015 0.2806000113 2.4600000381  -999.250000 91.632499695 96.344703674 1.6689000130 1.1748000383 1.5530999899
 2534.1000977 13.000000000 12.177599907 0.0372000001 0.2754999995 2.4482998848  -999.250000 88.003196716 99.030410767 1.6122000217 1.0721999407 1.4904999733
 2534.2500000 13.000000000 12.067999840 0.0351999998 0.2739000022 2.4547998905  -999.250000 85.995796204 101.57180023 1.5950000286 1.0875999928 1.4830000401
 2534.4001465 13.000000000 12.210800171 0.0298999995 0.2958999872 2.4433000088  -999.250000 91.525398254 101.98480225 1.6254999638 1.0808000565 1.4577000141
 2534.5500488 13.000000000 12.237700462 0.0324000008 0.2840000093 2.4435000420  -999.250000 94.972198486 102.01419830 1.6268999577 1.0996999741 1.4709999561
 2534.7001953 13.000000000 12.222000122 0.0423000008 0.2549000084 2.4521000385  -999.250000 101.76309967 102.02149963 1.6139999628 1.2041000128 1.4151999950
 2534.8500977 13.000000000 12.215399742 0.0419999994 0.2865622640 2.4533960819  -999.250000 97.843696594 101.72740173 1.6871285439 1.2514907122 1.5342204571
 2535.0002441 13.000000000 12.247699738 0.0395000018 0.2633830607 2.4510009289  -999.250000 96.386001587 101.53189850 1.7658135891 1.1843101978 1.7307372093
 2535.1501465 13.000000000 12.273099899 0.0416000001 0.2530398965 2.4516322613  -999.250000 93.408996582 100.71429443 1.6512838602 1.1292982101 1.5693686008
 2535.3002930 13.000000000 12.295901299 0.0551000014 0.2775335014 2.4712543488  -999.250000 91.120697021 100.48179626 1.5191349983 1.1282783747 1.3664929867
 2535.4499512 13.000000000 12.297499657 0.0465140082 0.2878000140 2.4572999477  -999.250000 96.536865234 99.427314758 1.6217999458 1.1523000002 1.4563000202
 2535.5998535 13.000000000 12.334500313 0.0478954464 0.3005999923 2.4500999451  -999.250000 92.183631897 100.00779724 1.6554000378 1.1446000338 1.5160000324
 2535.7500000 13.000000000 12.346199989 0.0555874594 0.3077999949 2.4519000053  -999.250000 94.965499878 100.26180267 1.6725000143 1.1332000494 1.5829999447
