# LAS format log file from PETREL
# Project units are specified as depth units
#==================================================================
~Version information
VERS.   2.0:
WRAP.   NO:
#==================================================================
~Well
STRT .m      1725.0000000 :
STOP .m      3754.9504395 :
STEP .m     0.00000000 :
NULL .        -999.250000 :
COMP.           : COMPANY
WELL.  35/9-6 S   : WELL
FLD.            : FIELD
LOC.            : LOCATION
SRVC.           : SERVICE COMPANY
DATE.  2018-09-11 14:49:02   : Log Export Date {yyyy-MM-dd HH:mm:ss}
PROV.           : PROVINCE
UWI.   35/9-6 S   : UNIQUE WELL ID
API.            : API NUMBER
#==================================================================
~Curve
DEPT .m                   : DEPTH
Lithology_geolink ._      : Lithology_geolink
CALI .in                  : CALI
DRHO .g/cm3               : DRHO
NPHI .m3/m3               : NPHI
RHOB .g/cm3               : RHOB
PEF .b/e                  : PEF
GR .gAPI                  : GR
DTC .us/ft                : DTC
RDEP .ohm.m               : RDEP
RMIC .ohm.m               : RMIC
RMED .ohm.m               : RMED
~Parameter
#==================================================================
~Ascii
# ...
 2130.4499512 13.000000000 12.078400612  -999.250000 0.2542999983 2.3661999702  -999.250000 110.67828369 112.12100220 1.4496999979 1.1231000423 1.3885999918
 2130.6000977 13.000000000 12.105999947  -999.250000 0.2685000002 2.3596999645  -999.250000 95.347396851 111.86430359 1.4502999783 1.1068999767 1.3867000341
 2130.7500000 13.000000000 12.084900856  -999.250000 0.2639000118 2.3654999733  -999.250000 100.26429749 110.25710297 1.4953999519 1.1194000244 1.4462000132
 2130.9001465 13.000000000 12.055100441  -999.250000 0.2561999857 2.3654000759  -999.250000 92.790802002 108.80359650 1.4184000492 1.1054999828 1.3523999453
 2131.0500488 13.000000000 12.069001198  -999.250000 0.2476000041 2.3550000191  -999.250000 90.241600037 108.08129883 1.3933964968 1.0855844021 1.3442108631
 2131.2001953 13.000000000 12.093799591  -999.250000 0.2580925226 2.3602085114  -999.250000 97.745399475 108.00240326 1.3913333416 1.0759980679 1.3508917093
 2131.3500977 13.000000000 12.151700020  -999.250000 0.2535169125 2.3655068874  -999.250000 99.058998108 108.09459686 1.4118187428 1.0748251677 1.3458131552
 2131.5000000 13.000000000 12.181799889  -999.250000 0.2639000118 2.3698000908  -999.250000 92.710334778 108.19783783 1.4233000278 1.0902999640 1.3538999557
 2131.6499023 13.000000000 12.227199554  -999.250000 0.2547000051 2.3589999676  -999.250000 94.161315918 108.69000244 1.4797999859 1.1365000010 1.3983000517
 2131.8000488 13.000000000 12.195300102  -999.250000 0.2450000048 2.3698999882  -999.250000 94.734901428 108.54010010 1.4859000444 1.1368999481 1.4150999784
 2131.9499512 13.000000000 12.189299583  -999.250000 0.2393999994 2.3689000607  -999.250000 100.96160126 108.56950378 1.4867999554 1.1370999813 1.4230999947
 2132.1000977 13.000000000 12.200799942  -999.250000 0.2415000051 2.3729000092  -999.250000 97.758697510 108.05319977 1.5240999460 1.1432000399 1.4634000063
 2132.2500000 13.000000000 12.206300735  -999.250000 0.2363000065 2.3722999096  -999.250000 94.153198242 108.05989838 1.5338000059 1.1862000227 1.4780999422
 2132.4001465 13.000000000 12.274299622  -999.250000 0.2338076383 2.3712282181  -999.250000 96.415199280 108.01319885 1.5395436287 1.1776745319 1.5034463406
 2132.5500488 13.000000000 12.328399658  -999.250000 0.2384999990 2.3884999752  -999.250000 101.95780182 106.83219910 1.5663000345 1.1619999409 1.5319000483
 2132.6999512 13.000000000 12.231800079  -999.250000 0.2379000038 2.3845000267  -999.250000 98.151100159 105.67578125 1.5924999714 1.1727999449 1.5381000042
 2132.8500977 13.000000000 12.322400093  -999.250000 0.2328000069 2.3729000092  -999.250000 95.312500000 106.10900116 1.6030000448 1.1779999733 1.5449999571
 2133.0000000 13.000000000 12.294400215  -999.250000 0.2325000018 2.3840000629  -999.250000 98.912498474 106.10119629 1.6076999903 1.1800999641 1.5647000074
 2133.1501465 13.000000000 12.225199699  -999.250000 0.2380000055 2.3803999424  -999.250000 101.58809662 105.53099823 1.5930999517 1.2179000378 1.5518000126
 2133.3000488 13.000000000 12.221699715  -999.250000 0.2450000048 2.3717000484  -999.250000 107.75360107 104.93489838 1.5820000172 1.2077000141 1.5154000521
 2133.4501953 13.000000000 12.264900208  -999.250000 0.2358118892 2.3732008934  -999.250000 92.495796204 105.98580170 1.5919363499 1.2193026543 1.5315489769
 2133.6000977 13.000000000 12.213700294  -999.250000 0.2430908978 2.3738038540  -999.250000 99.441200256 106.24369812 1.6142412424 1.2208836079 1.5616472960
 2133.7500000 13.000000000 12.261799812  -999.250000 0.2374999970 2.3761000633  -999.250000 99.368400574 107.08300018 1.6396000385 1.2108000517 1.5907000303
 2133.8999023 13.000000000 12.372900009  -999.250000 0.2365999967 2.3833999634  -999.250000 100.78199768 107.51959229 1.6545000076 1.2109999657 1.6258000135
 2134.0500488 13.000000000 12.228399277  -999.250000 0.2371000051 2.3884000778  -999.250000 102.41950226 107.88569641 1.6346000433 1.2562999725 1.5449999571
 2134.1999512 13.000000000 12.180701256  -999.250000 0.2259999961 2.3856000900  -999.250000 100.64320374 107.41480255 1.6312999725 1.2209000587 1.5731999874
 2134.3500977 13.000000000 12.230199814  -999.250000 0.2431000024 2.3840999603  -999.250000 95.966499329 106.54049683 1.6066000462 1.2122000456 1.5774999857
 2134.5000000 13.000000000 12.298399925  -999.250000 0.2435999960 2.3835999966  -999.250000 107.67559814 106.21250153 1.5990999937 1.2503000498 1.5789999962
 2134.6501465 13.000000000 12.252300262  -999.250000 0.2452933341 2.3788022995  -999.250000 94.833297729 106.24120331 1.6141853333 1.2760120630 1.5879241228
 2134.8000488 13.000000000 12.253001213  -999.250000 0.2412000000 2.3801999092  -999.250000 95.925003052 106.43830109 1.6052000523 1.2220000029 1.5413000584
 2134.9499512 13.000000000 12.327799797  -999.250000 0.2333000004 2.3661000729  -999.250000 90.513511658 106.97322845 1.5989999771 1.2371000051 1.5424000025
 2135.1000977 13.000000000 12.340099335  -999.250000 0.2345000058 2.3714001179  -999.250000 98.705101013 106.96360016 1.5613000393 1.2102999687 1.4421999454
 2135.2500000 13.000000000 12.315601349  -999.250000 0.2405000031 2.3843998909  -999.250000 99.135299683 107.32730103 1.5736000538 1.1956000328 1.4881999493
 2135.4001465 13.000000000 12.322400093  -999.250000 0.2351000011 2.3835999966  -999.250000 96.041099548 106.96040344 1.5992000103 1.2120000124 1.5224000216
 2135.5500488 13.000000000 12.293999672  -999.250000 0.2276999950 2.3879001141  -999.250000 104.75930023 106.83319855 1.6308000088 1.2029999495 1.5522999763
 2135.6999512 13.000000000 12.260700226  -999.250000 0.2203000039 2.3919999599  -999.250000 105.27940369 107.01500702 1.6405999660 1.2378000021 1.5780999660
 2135.8500977 13.000000000 12.256200790  -999.250000 0.2266677916 2.3870961666  -999.250000 106.03140259 107.03720093 1.6401540041 1.2691463232 1.5815099478
 2136.0000000 13.000000000 12.250399590  -999.250000 0.2069000006 2.3847999573  -999.250000 98.512603760 107.66089630 1.6733000278 1.2976000309 1.5875999928
 2136.1499023 13.000000000 12.239600182  -999.250000 0.2081999928 2.3873000145  -999.250000 100.25895691 108.32621765 1.6593999863 1.2778999805 1.5807000399
 2136.3000488 13.000000000 12.238300323  -999.250000 0.2567000091 2.3873000145  -999.250000 98.223701477 108.32969666 1.6250000000 1.2259000540 1.5719000101
 2136.4499512 13.000000000 12.300999641  -999.250000 0.3197000027 2.3793001175  -999.250000 94.483489990 108.11169434 1.6168999672 1.2244000435 1.5532000065
 2136.6000977 13.000000000 12.234101295  -999.250000 0.3106999993 2.3843998909  -999.250000 82.941200256 107.70829773 1.6057000160 1.2620999813 1.4867000580
 2136.7500000 13.000000000 12.213100433  -999.250000 0.3404000103 2.3882000446  -999.250000 89.083000183 106.96559906 1.5920000076 1.2149000168 1.5161000490
 2136.9001465 13.000000000 12.165699959  -999.250000 0.3242999911 2.3866999149  -999.250000 89.860198975 108.01821136 1.6280170679 1.2351562977 1.5149013996
 2137.0500488 13.000000000 12.212100029  -999.250000 0.2939999998 2.3866999149  -999.250000 100.17530060 108.89550018 1.6384999752 1.2697000504 1.5157999992
 2137.2001953 13.000000000 12.327899933  -999.250000 0.3029258549 2.3869051933  -999.250000 104.61150360 108.07399750 1.6234819889 1.2710385323 1.5116055012
 2137.3500977 13.000000000 12.235300064  -999.250000 0.3188000023 2.3901000023  -999.250000 99.721099854 107.17430115 1.6124000549 1.2332999706 1.5149999857
 2137.5000000 13.000000000 12.189000130  -999.250000 0.3174999952 2.3879001141  -999.250000 101.89884949 106.77490234 1.5877000093 1.2216999531 1.4991999865
 2137.6499023 13.000000000 12.217399597  -999.250000 0.3197000027 2.3873999119  -999.250000 104.78440094 106.27179718 1.5140999556 1.2079000473 1.4551000595
 2137.8000488 13.000000000 12.255400658  -999.250000 0.3063000143 2.3896999359  -999.250000 104.16500092 105.59670258 1.5027999878 1.1950000525 1.4387999773
 2137.9499512 13.000000000 12.325099945  -999.250000 0.3009000123 2.3873999119  -999.250000 95.952499390 105.79260254 1.5075000525 1.1955000162 1.4316999912
