# LAS format log file from PETREL
# Project units are specified as depth units
#==================================================================
~Version information
VERS.   2.0:
WRAP.   NO:
#==================================================================
~Well
STRT .m      2535.9846191 :
STOP .m      3240.0725098 :
STEP .m     0.00000000 :
NULL .        -999.250000 :
COMP.           : COMPANY
WELL.  35/9-8   : WELL
FLD.            : FIELD
LOC.            : LOCATION
SRVC.           : SERVICE COMPANY
DATE.  2018-09-11 14:49:02   : Log Export Date {yyyy-MM-dd HH:mm:ss}
PROV.           : PROVINCE
UWI.   35/9-8   : UNIQUE WELL ID
API.            : API NUMBER
#==================================================================
~Curve
DEPT .m                   : DEPTH
Lithology_geolink ._      : Lithology_geolink
CALI .in                  : CALI
BS .in                    : BS
ROP .m/h                  : ROP
DRHO .g/cm3               : DRHO
THOR .ppm                 : THOR
NPHI .m3/m3               : NPHI
RHOB .g/cm3               : RHOB
PEF .b/e                  : PEF
GR .gAPI                  : GR
URAN .ppm                 : URAN
DTC .us/ft                : DTC
DTS .us/ft                : DTS
RDEP .ohm.m               : RDEP
RMIC .ohm.m               : RMIC
RMED .ohm.m               : RMED
~Parameter
#==================================================================
~Ascii
# ...
 3004.0048828 6.0000000000 8.5530996323 8.5000000000 35.793636322 -0.005100000 8.1471004486 0.2910000086 2.5480999947 3.2781000137 118.49859619 5.3383998871 79.642700195 145.86219788 11.952899933 11.599278450 12.129899979
 3004.1574707 6.0000000000 8.5642995834 8.5000000000 35.837596893 -0.003400000 7.8776001930 0.2894000113 2.5467998981 3.3745000362 117.16929626 5.5008001328 79.941902161 146.82710266 11.776300430 12.147317886 12.023500443
 3004.3098145 6.0000000000 8.5669002533 8.5000000000 36.166339874 -0.001300000 7.6892004013 0.2770999968 2.5483000278 3.4172999859 114.32910156 5.5329999924 80.165603638 147.90840149 11.752499580 12.402501106 12.054300308
 3004.4621582 6.0000000000 8.5668001175 8.5000000000 36.406822205 0.0015000000 7.7140002251 0.2703999877 2.5532999039 3.4504001141 113.22239685 5.4169998169 80.322898865 148.74899292 11.864100456 12.527999878 12.182399750
 3004.6145020 6.0000000000 8.5647001266 8.5000000000 36.632873535 0.0040000002 8.0034999847 0.2768999934 2.5571000576 3.5139000416 114.03230286 5.2073001862 80.482902527 149.25860596 11.925200462 12.590485573 12.258099556
 3004.7670898 6.0000000000 8.5516996384 8.5000000000 36.618110657 0.0044000000 8.5324001312 0.2872000039 2.5543999672 3.5682001114 114.49759674 5.0064997673 80.723098755 149.70530701 12.058400154 12.580819130 12.398300171
 3004.9194336 6.0000000000 8.5321998596 8.5000000000 35.237533569 0.0031999999 9.1745996475 0.2892999947 2.5466001034 3.5471999645 114.85739899 4.8467001915 81.070899963 150.25239563 12.521800041 12.399412155 12.883099556
 3005.0717773 6.0000000000 8.5235996246 8.5000000000 34.554462433 0.0024000001 9.8334999084 0.2842999995 2.5408000946 3.4646000862 115.07820129 4.6981000900 81.470802307 151.00840759 13.079600334 12.094634056 13.482299805
 3005.2241211 6.0000000000 8.5357999802 8.5000000000 32.505577087 0.0024999999 10.482700348 0.2865000069 2.5406000614 3.3819999695 114.53720093 4.5946998596 81.930099487 152.06239319 13.237400055 11.552773476 13.667599678
 3005.3764648 6.0000000000 8.5518999100 8.5000000000 32.661746979 0.0023000001 11.070400238 0.3052000105 2.5448000431 3.2878999710 114.80210114 4.5269999504 82.512702942 153.42280579 13.101599693 10.227357864 13.557800293
 3005.5290527 6.0000000000 8.5530996323 8.5000000000 32.739830017 0.0005000000 11.549900055 0.3296999931 2.5501999855 3.1802999973 116.39099884 4.4158000946 83.238197327 154.95069885 12.887399673 9.8276929855 13.370800018
 3005.6813965 6.0000000000 8.5489997864 8.5000000000 33.075786591 -0.002200000 11.977399826 0.3366000056 2.5525999069 3.1744000912 117.17839813 4.2519001961 83.997001648 156.30940247 12.510600090 9.9506111145 13.018500328
 3005.8337402 6.0000000000 8.5523996353 8.5000000000 33.243766785 -0.005700000 12.330200195 0.3325999975 2.5476999283 3.2901999950 116.34940338 4.1507000923 84.598396301 157.12930298 11.748200417 10.331494331 12.311200142
 3005.9860840 6.0000000000 8.5544996262 8.5000000000 38.349411011 -0.008200000 12.414099693 0.3434000015 2.5385000706 3.3413000107 115.29799652 4.2038998604 84.809608459 156.93798828 11.071700096 10.452664375 11.688400269
 3006.1386719 6.0000000000 8.5502004623 8.5000000000 39.625656128 -0.008600000 12.161499977 0.3612999916 2.5309998989 3.2613000870 114.91829681 4.4320001602 84.704597473 156.14579773 11.038900375 10.493770599 11.718899727
 3006.2910156 6.0000000000 8.5445995331 8.5000000000 40.549213409 -0.007600000 11.455200195 0.3576000035 2.5276999474 3.2304999828 115.75399780 4.9590001106 84.252296448 155.24099731 11.134200096 10.735039711 11.869500160
 3006.4433594 6.0000000000 8.5472002029 8.5000000000 40.195869446 -0.006200000 10.560000420 0.3391999900 2.5283999443 3.3341000080 116.94570160 5.6005001068 83.689002991 154.74711609 11.143199921 11.445532799 11.912599564
 3006.5957031 6.0000000000 8.5594997406 8.5000000000 39.178806305 -0.005100000 10.008099556 0.3305999935 2.5320000648 3.4407999516 117.28150177 5.9828000069 83.208396912 155.17460632 11.326100349 11.777168274 12.172499657
 3006.7482910 6.0000000000 8.5662002563 8.5000000000 38.515090942 -0.004500000 10.015199661 0.3294000030 2.5378000736 3.4316000938 116.33350372 5.9937000275 82.926597595 156.03250122 12.087499619 11.445261002 13.103099823
 3006.9006348 6.0000000000 8.5578002930 8.5000000000 37.239830017 -0.004000000 10.498800278 0.3282999992 2.5457003117 3.3355000019 114.61789703 5.7041001320 83.292396545 157.60029602 12.902799606 11.247179985 14.078499794
 3007.0529785 6.0000000000 8.5473003387 8.5000000000 36.628608704 -0.003400000 11.025500298 0.3323000073 2.5515000820 3.2492001057 113.71849823 5.4007000923 84.093200684 159.73141479 13.073300362 11.920145988 14.308099747
 3007.2053223 7.0000000000 8.5480003357 8.5000000000 36.017387390 -0.004100000 11.590100288 0.3377000093 2.5446999073 3.2592999935 115.20400238 5.1303000450 85.683601379 163.31579590 13.047599792 12.322327614 14.303700447
 3007.3576660 7.0000000000 8.5537996292 8.5000000000 36.941928864 -0.005400000 12.105899811 0.3461000025 2.5253000259 3.3394999504 118.08899689 5.0679998398 87.667198181 167.77821350 12.929800034 12.463223457 14.223799706
 3007.5102539 7.0000000000 8.5539999008 8.5000000000 38.791339874 -0.005000000 12.202099800 0.3650999963 2.5065999031 3.3861000538 119.93789673 5.3569002151 89.986701965 172.91409302 12.472499847 11.792025566 13.798399925
 3007.6625977 7.0000000000 8.5420999527 8.5000000000 38.425525665 -0.003600000 12.010899544 0.3899999857 2.4930999279 3.3949999809 119.80999756 5.6999001503 92.211898804 177.62629700 11.819700241 11.582902908 13.095999718
 3007.8149414 7.0000000000 8.5300998688 8.5000000000 37.693901062 -0.004100000 11.676600456 0.4034999907 2.4765999317 3.4595999718 119.96589661 6.0563998222 93.778297424 180.64930725 11.079299927 12.083217621 12.241700172
 3007.9672852 7.0000000000 8.5326995850 8.5000000000 40.075130463 -0.006800000 11.308799744 0.4146000147 2.4563999176 3.5896000862 121.20059967 6.3803000450 94.549598694 181.98770142 10.400300026 12.280571938 11.458399773
 3008.1198730 7.0000000000 8.5423002243 8.5000000000 43.646656036 -0.008000000 10.988800049 0.4255000055 2.4447999001 3.6684999466 121.42320251 6.5352001190 94.475700378 181.77029419 10.088999748 12.136630058 11.090900421
 3008.2722168 7.0000000000 8.5452003479 8.5000000000 44.837268829 -0.005700000 10.616000175 0.4257000089 2.4488999844 3.5824999809 120.13020325 6.5527000427 94.058898926 180.82119751 9.9741001129 11.616485596 10.951700211
 3008.4245605 7.0000000000 8.5445995331 8.5000000000 44.750984192 -0.002400000 10.325699806 0.4153999984 2.4597001076 3.3756999969 118.29570007 6.4855999947 93.556800842 179.22068787 10.020799637 11.670566559 10.989999771
 3008.5769043 7.0000000000 8.5493001938 8.5000000000 48.789371490 -0.001100000 10.269300461 0.4038000107 2.4662001133 3.2214000225 117.61910248 6.4400000572 92.836509705 176.56460571 10.365099907 12.148999214 11.323800087
 3008.7294922 7.0000000000 8.5578002930 8.5000000000 52.871067047 -0.001500000 10.826000214 0.3948999941 2.4667999744 3.2076001167 120.61340332 6.5194001198 91.504600525 172.66659546 10.700799942 12.709117889 11.668100357
 3008.8818359 7.0000000000 8.5635995865 8.5000000000 54.396984100 -0.002500000 11.791399956 0.3873000145 2.4618000984 3.2781999111 125.72760010 6.5975999832 88.998497009 167.46749878 11.320599556 12.712979317 12.394000053
 3009.0341797 7.0000000000 8.5635004044 8.5000000000 51.841537476 -0.004800000 12.215000153 0.3686000109 2.4528000355 3.3175001144 127.50319672 6.6041002274 85.409301758 161.32519531 22.259599686 11.518222809 24.334400177
 3009.1865234 7.0000000000 8.5586004257 8.5000000000 47.166011810 -0.009500000 12.307800293 0.3382999897 2.4500000477 3.2964999676 122.28739929 6.1936998367 81.041900635 154.28999329 123.58090210 12.757326126 134.27999878
 3009.3388672 7.0000000000 8.5521001816 8.5000000000 45.046588898 -0.017899999 11.078800201 0.3104000092 2.4640998840 3.3175001144 107.14129639 5.0868000984 76.932800293 147.33270264 267.61169434 38.746517181 289.44970703
 3009.4914551 7.0000000000 8.5445995331 8.5000000000 36.568569183 -0.027100001 8.2951002121 0.2639999986 2.5043001175 3.5092999935 82.962097168 3.6389999390 74.563102722 142.84660339 317.28628540 190.18905640 344.42080688
