# LAS format log file from PETREL
# Project units are specified as depth units
#==================================================================
~Version information
VERS.   2.0:
WRAP.   NO:
#==================================================================
~Well
STRT .m      1350.9222412 :
STOP .m      2973.9824219 :
STEP .m     0.00000000 :
NULL .        -999.250000 :
COMP.           : COMPANY
WELL.  35/9-7   : WELL
FLD.            : FIELD
LOC.            : LOCATION
SRVC.           : SERVICE COMPANY
DATE.  2018-09-11 14:49:02   : Log Export Date {yyyy-MM-dd HH:mm:ss}
PROV.           : PROVINCE
UWI.   35/9-7   : UNIQUE WELL ID
API.            : API NUMBER
#==================================================================
~Curve
DEPT .m                   : DEPTH
Lithology_geolink ._      : Lithology_geolink
CALI .in                  : CALI
BS .in                    : BS
ROP .m/h                  : ROP
DRHO .g/cm3               : DRHO
THOR .ppm                 : THOR
NPHI .m3/m3               : NPHI
RHOB .g/cm3               : RHOB
PEF .b/e                  : PEF
GR .gAPI                  : GR
URAN .ppm                 : URAN
DTC .us/ft                : DTC
DTS .us/ft                : DTS
RDEP .ohm.m               : RDEP
RMIC .ohm.m               : RMIC
RMED .ohm.m               : RMED
~Parameter
#==================================================================
~Ascii
# ...
 2535.0703125 13.000000000 8.6738004684 8.5000000000 55.741470337 0.0051000002 6.5299000740 0.2142000049 2.5302999020 2.6354000568 72.540397644 0.6575000286 87.086601257 177.75559998 2.9021999836 3.6784999371 3.1219000816
 2535.2229004 13.000000000 8.6823997498 8.5000000000 52.198162079 0.0011000000 5.7996997833 0.2092999965 2.5353000164 2.6707999706 72.505302429 0.7069000006 86.289802551 174.48260498 3.1126000881 4.0432000160 3.3680000305
 2535.3752441 13.000000000 8.6891002655 8.5000000000 50.000000000 -0.001800000 5.1153998375 0.1941000074 2.5338997841 2.8440999985 71.327903748 0.6726999879 85.284698486 171.08869934 3.3338999748 4.3597002029 3.6361999512
 2535.5275879 13.000000000 8.6954002380 8.5000000000 49.573490143 -0.002800000 4.7217001915 0.1782000065 2.5218000412 3.0908000469 69.054298401 0.5672000051 84.704696655 168.57499695 3.4279000759 4.2481999397 3.6763000488
 2535.6799316 13.000000000 8.6936998367 8.5000000000 49.146980286 -0.000400000 4.6936001778 0.1697999984 2.5060999393 3.2574999332 65.829101563 0.5026000142 84.089401245 166.05589294 3.4131000042 4.1114001274 3.6960000992
 2535.8325195 13.000000000 8.6850004196 8.5000000000 54.002620697 0.0080000004 4.8773999214 0.1684000045 2.5037000179 3.2590999603 63.016700745 0.5123999715 84.096702576 166.37750244 3.4402000904 4.1152000427 3.7323999405
 2535.9848633 13.000000000 8.6738004684 8.5000000000 63.713909149 0.0163000003 5.1905999184 0.1704999954 2.5132999420 3.1696999073 62.468799591 0.5386999846 84.385299683 166.71800232 3.5083000660 4.1942000389 3.7532000542
 2536.1372070 13.000000000 8.6610002518 8.5000000000 63.385829926 0.0175999999 5.5546998978 0.1733999997 2.5211000443 3.0743999481 63.062198639 0.5906999707 85.039703369 168.16189575 3.4690001011 4.2944998741 3.7616000175
 2536.2895508 13.000000000 8.6527004242 8.5000000000 62.762462616 0.0125000002 5.7927999496 0.1774999946 2.5204999447 2.9813001156 63.361499786 0.6747000217 85.886001587 169.91149902 3.2822000980 4.2350001335 3.5431001186
 2536.4421387 13.000000000 8.6553001404 8.5000000000 64.829399109 0.0074999998 5.8562002182 0.1840000004 2.5153000355 2.8903000355 63.956798553 0.7299000025 86.596900940 172.82200623 2.9965000153 4.0041999817 3.1953999996
 2536.5944824 13.000000000 8.6639003754 8.5000000000 68.930450439 0.0066000000 5.7979998589 0.1919000000 2.5120000839 2.8331999779 64.441902161 0.7659000158 87.229797363 176.37219238 2.8536999226 3.7346000671 3.0927000046
 2536.7468262 13.000000000 8.6709995270 8.5000000000 65.223091125 0.0077999998 5.5787000656 0.1953999996 2.5123999119 2.8638000488 64.599700928 0.8432999849 87.610298157 177.32559204 2.8710999489 3.5452001095 3.0785999298
 2536.8991699 13.000000000 8.6780996323 8.5000000000 57.841205597 0.0055999998 5.3031001091 0.1929000020 2.5106999874 3.0230000019 65.287696838 0.9023000002 87.934310913 178.41360474 2.8743000031 3.5018000603 3.0778000355
 2537.0515137 13.000000000 8.6830997467 8.5000000000 70.702095032 -0.001000000 5.1979999542 0.1888999939 2.5048000813 3.1981000900 66.285499573 0.8575999737 88.037399292 178.69259644 2.8455998898 3.5961000919 3.0903000832
 2537.2041016 13.000000000 8.6784000397 8.5000000000 96.423881531 -0.005300000 5.2442002296 0.1865999997 2.5044999123 3.1977999210 66.738296509 0.7490000129 87.890602112 178.85690308 2.8956000805 3.6133000851 3.0927999020
 2537.3564453 13.000000000 8.6714000702 8.5000000000 103.55971527 -0.005300000 5.3619999886 0.1847999990 2.5116999149 3.0729999542 67.564102173 0.6270999908 87.352203369 178.17219543 2.8810000420 3.5969998837 3.0892000198
 2537.5087891 13.000000000 8.6730003357 8.5000000000 124.99999237 -0.002300000 5.5861001015 0.1810999960 2.5186998844 3.0304000378 69.378402710 0.5055000186 86.960800171 176.97569275 2.9138998985 3.6208000183 3.1549999714
 2537.6611328 13.000000000 8.6786003113 8.5000000000 139.30445862 0.0016000000 5.8316998482 0.1756999940 2.5204000473 3.0834000111 70.644798279 0.4584000111 86.386901855 175.04800415 3.1907000542 3.9333999157 3.3919999599
 2537.8137207 13.000000000 8.6717996597 8.5000000000 103.28083801 0.0057999999 5.9931998253 0.1736000031 2.5218000412 3.1015000343 70.796302795 0.5054000020 86.181602478 173.42829895 3.3459999561 4.1592001915 3.5919001102
 2537.9660645 13.000000000 8.6560001373 8.5000000000 85.301841736 0.0086000003 6.1139998436 0.1761000007 2.5260000229 3.0573000908 71.135498047 0.5748000145 85.905899048 173.33909607 3.1995999813 3.9811999798 3.4544000626
 2538.1184082 13.000000000 8.6472997665 8.5000000000 85.039367676 0.0089999996 6.1814999580 0.1808999926 2.5308001041 3.0392999649 72.395202637 0.6036000252 86.204803467 175.34899902 3.0234000683 3.5625998974 3.2049999237
 2538.2707520 13.000000000 8.6532001495 8.5000000000 84.940940857 0.0063999998 6.3211002350 0.1865999997 2.5301001072 3.0908999443 73.172096252 0.6234999895 86.685897827 177.78298950 2.8952000141 3.3699998856 3.1092000008
 2538.4233398 13.000000000 8.6695995331 8.5000000000 82.020996094 0.0022000000 6.4398999214 0.1947000027 2.5236001015 3.1505999565 72.544403076 0.5644999743 87.032493591 178.71229553 2.8847000599 3.6282999516 3.0927000046
 2538.5756836 13.000000000 8.6847000122 8.5000000000 74.737533569 -0.001100000 6.5246000290 0.2016000003 2.5181999207 3.1554999352 71.242301941 0.4370999932 87.074211121 179.11839294 2.9112000465 3.7442998886 3.0806999207
 2538.7280273 13.000000000 8.6875000000 8.5000000000 68.897636414 -0.003400000 6.5595002174 0.2037000060 2.5176000595 3.1429998875 70.353797913 0.3246000111 86.815498352 178.13870239 2.8956999779 3.7957999706 3.1233000755
 2538.8803711 13.000000000 8.6843996048 8.5000000000 62.942916870 -0.006200000 6.5082001686 0.1996999979 2.5181000233 3.2281999588 69.665298462 0.2820999920 86.659896851 176.63330078 3.0513999462 3.9282000065 3.2757000923
 2539.0327148 13.000000000 8.6845998764 8.5000000000 62.828083038 -0.008700000 6.4107999802 0.1941000074 2.5153000355 3.4305000305 68.862800598 0.2633999884 86.449989319 174.62939453 3.1031999588 3.9821000099 3.3071999550
 2539.1853027 13.000000000 8.6928997040 8.5000000000 62.335960388 -0.009600000 6.3449997902 0.1934999973 2.5097999573 3.5755999088 68.522003174 0.2406000048 86.238792419 172.23840332 2.8484001160 3.9955000877 3.0994999409
 2539.3376465 13.000000000 8.7035999298 8.5000000000 59.448822021 -0.007300000 6.3821001053 0.1978999972 2.5104000568 3.5431001186 69.339599609 0.2381999940 86.023696899 172.33419800 2.6159000397 3.4423999786 2.8080999851
 2539.4899902 13.000000000 8.6995000839 8.5000000000 53.641735077 -0.002000000 6.5718002319 0.2005999982 2.5239999294 3.4700999260 71.112701416 0.2743000090 85.805702209 175.89260864 2.3401999474 3.2325000763 2.5150001049
 2539.6423340 13.000000000 8.6749000549 8.5000000000 53.083992004 0.0048000002 6.9088997841 0.2000000030 2.5436999798 3.5376999378 73.108398438 0.3449999988 86.314002991 182.18040466 2.1879999638 3.2551999092 2.3975999355
 2539.7949219 13.000000000 8.6536998749 8.5000000000 51.935695648 0.0070000002 7.3478999138 0.2037999928 2.5434999466 3.7235000134 75.030700684 0.4424000084 88.409599304 191.10090637 2.2056999207 3.5713000298 2.3951001167
 2539.9472656 13.000000000 8.6513996124 8.5000000000 51.607608795 0.0024999999 7.8737001419 0.2186000049 2.5051999092 3.8747999668 77.299697876 0.5964999795 92.080795288 201.58970642 1.8852000237 3.5381999016 2.0718998909
 2540.0996094 13.000000000 8.6590003967 8.5000000000 50.918636322 -0.001000000 8.6427001953 0.2451000065 2.4514000416 3.8666999340 80.674201965 0.7800999880 96.589599609 211.56059265 1.6462999582 2.0780999660 1.8319000006
 2540.2519531 13.000000000 8.6652002335 8.5000000000 52.362205505 0.0024000001 9.9048004150 0.2791000009 2.4191999435 3.6192998886 85.815200806 0.7698000073 101.46569061 220.49470520 1.4589999914 1.1377999783 1.5915999413
 2540.4045410 13.000000000 8.6749000549 8.5000000000 55.249343872 0.0097000012 11.321999550 0.3122999966 2.4191000462 3.2005999088 93.066001892 0.5315999985 105.96669769 231.46760559 1.3230999708 1.4740999937 1.4600000381
 2540.5568848 13.000000000 8.6875000000 8.5000000000 68.766403198 0.0127999997 12.171600342 0.3427999914 2.4333999157 2.8777000904 100.34790039 0.3373999894 108.65720367 243.51280212 1.2905000448 1.3703999519 1.4381999969
