# LAS format log file from PETREL
# Project units are specified as depth units
#==================================================================
~Version information
VERS.   2.0:
WRAP.   NO:
#==================================================================
~Well
STRT .m      1725.0000000 :
STOP .m      3754.9504395 :
STEP .m     0.00000000 :
NULL .        -999.250000 :
COMP.           : COMPANY
WELL.  35/9-6 S   : WELL
FLD.            : FIELD
LOC.            : LOCATION
SRVC.           : SERVICE COMPANY
DATE.  2018-09-11 14:49:02   : Log Export Date {yyyy-MM-dd HH:mm:ss}
PROV.           : PROVINCE
UWI.   35/9-6 S   : UNIQUE WELL ID
API.            : API NUMBER
#==================================================================
~Curve
DEPT .m                   : DEPTH
Lithology_geolink ._      : Lithology_geolink
CALI .in                  : CALI
DRHO .g/cm3               : DRHO
NPHI .m3/m3               : NPHI
RHOB .g/cm3               : RHOB
PEF .b/e                  : PEF
GR .gAPI                  : GR
DTC .us/ft                : DTC
RDEP .ohm.m               : RDEP
RMIC .ohm.m               : RMIC
RMED .ohm.m               : RMED
~Parameter
#==================================================================
~Ascii
# ...
 3744.6000977  -999.250000 8.4273004532 0.0171000008 0.1142000034 2.6146807671 6.5448560715 49.620800018 72.178901672 4.7987947464 1.5371009111 4.3329892159
 3744.7502441  -999.250000 8.4292001724 0.0125000002 0.1142000034 2.6028153896 6.5174446106 49.622398376 72.178901672 4.7955260277 1.5376988649 4.3263163567
 3744.9001465  -999.250000 8.4292001724 0.0082999999 0.1142000034 2.6123259068 6.2996015549 49.624099731 72.178901672 4.8115777969 1.5370155573 4.3362946510
 3745.0502930  -999.250000 8.4446001053 0.0077999998 0.1142000034 2.6283392906 6.3004560471 49.624698639  -999.250000 4.7978816032 1.5466200113 4.3330931664
 3745.2001953  -999.250000 8.4343996048 0.0125000002 0.1142000034 2.6524283886 6.2736864090 49.624500275  -999.250000 4.7865991592 1.5589191914 4.3290925026
 3745.3503418  -999.250000 8.4385004044 0.0190999992 0.1142000034 2.6698076725 6.2653269768 49.624599457  -999.250000 4.7861008644 1.5707006454 4.3243179321
 3745.5002441  -999.250000 8.4385004044 0.0227000006 0.1142000034 2.6745033264 6.2820606232 49.625900269  -999.250000 4.7865796089 1.5710999966 4.3353991508
 3745.6503906  -999.250000 8.4385004044 0.0241000000 0.1142000034 2.6765007973 6.3193469048 49.626598358  -999.250000 4.7741203308 1.5710999966 4.3346948624
 3745.8000488  -999.250000 8.4385004044 0.0244993474 0.1142000034 2.6770000458 6.3478999138 49.626598358  -999.250000 4.7867999077 1.5710999966 4.3316001892
 3745.9501953  -999.250000 8.4385004044 0.0244999994 0.1142000034 2.6767001152 6.5961999893 49.626598358  -999.250000 4.7859001160 1.5710999966 4.3326997757
 3746.1000977  -999.250000 8.4385004044 0.0244999994 0.1142000034 2.6765999794 6.5960001945 49.626598358  -999.250000 4.8256001472 1.5710999966 4.3358998299
 3746.2500000  -999.250000 8.4385004044 0.0244999994 0.1142000034 2.6765999794 6.5959000587 49.626598358  -999.250000 4.7927999496 1.5710999966 4.3348999023
 3746.4001465  -999.250000 8.4385004044 0.0244999994 0.1142000034 2.6765999794 6.5956997871 49.626598358  -999.250000 4.7958998680 1.5710999966 4.3302998543
 3746.5500488  -999.250000 8.4385004044 0.0244999994 0.1142000034 2.6765999794 6.5953998566 49.626598358  -999.250000 4.8015289307 1.5710999966 4.3393979073
 3746.7001953  -999.250000 8.4385004044 0.0244999994 0.1142000034 2.6765999794 6.5952000618 49.626598358  -999.250000 4.8194460869 1.5710999966 4.3382887840
 3746.8500977  -999.250000 8.4385004044 0.0244999994 0.1142000034 2.6765999794 6.5949001312 49.626598358  -999.250000 4.7863016129 1.5710999966 4.3311963081
 3747.0002441  -999.250000 8.4385004044 0.0243999995 0.1142000034 2.6765999794 6.5945997238 49.626598358  -999.250000 4.7871208191 1.5710999966 4.3288035393
 3747.1501465  -999.250000 8.4385004044 0.0243999995 0.1142000034 2.6765997410 6.5941996574 49.626598358  -999.250000 4.8000836372 1.5710999966 4.3308987617
 3747.3002930  -999.250000 8.4385004044 0.0243999995 0.1142000034 2.6765000820 6.5937991142 49.626598358  -999.250000 4.7902092934 1.5710999966 4.3300986290
 3747.4501953  -999.250000 8.4385004044 0.0243999995 0.1142000034 2.6765000820 6.5932989120 49.626598358  -999.250000 4.7956929207 1.5710999966 4.3293070793
 3747.6003418  -999.250000 8.4385004044 0.0243999995 0.1142000034 2.6765000820 6.5926990509 49.626598358  -999.250000 4.7913022041 1.5710999966 4.3336997032
 3747.7502441  -999.250000 8.4385004044 0.0242999997 0.1142000034 2.6764998436 6.5920987129 49.626598358  -999.250000 4.7928190231 1.5710999966 4.3335032463
 3747.9003906  -999.250000 8.4385004044 0.0242999997 0.1142000034 2.6763999462 6.5912985802 49.626598358  -999.250000 4.8043756485 1.5710999966 4.3355956078
 3748.0500488  -999.250000 8.4385004044 0.0242999997 0.1142000034 2.6763999462 6.5904998779 49.626598358  -999.250000 4.7895998955 1.5710999966 4.3330998421
 3748.1999512  -999.250000 8.4385004044 0.0242999997 0.1142000034 2.6763999462 6.5894999504 49.626598358  -999.250000 4.7954001427 1.5710999966 4.3320999146
 3748.3500977  -999.250000 8.4385004044 0.0242001619 0.1142000034 2.6763999462 6.5883998871 49.626598358  -999.250000 4.8014001846 1.5710999966 4.3330998421
 3748.5000000  -999.250000 8.4385004044 0.0241999999 0.1142000034 2.6763000488 6.5869998932 49.626598358  -999.250000 4.7985000610 1.5710999966 4.3323998451
 3748.6501465  -999.250000 8.4385004044 0.0241999999 0.1142000034 2.6763000488 6.5854997635 49.626598358  -999.250000 4.7954001427 1.5710999966 4.3340997696
 3748.8000488  -999.250000 8.4385004044 0.0241000000 0.1142000034 2.6761999130 6.5837998390 49.626598358  -999.250000 4.7979998589 1.5710999966 4.3351998329
 3748.9501953  -999.250000 8.4385004044 0.0241000000 0.1142000034 2.6761999130 6.5827999115 49.626598358  -999.250000 4.7978000641 1.5710999966 4.3346991539
 3749.1000977  -999.250000 8.4385004044 0.0241000000 0.1142000034 2.6761996746 6.5817999840 49.626598358  -999.250000 4.7976713181 1.5710999966 4.3342638016
 3749.2502441  -999.250000 8.4385004044 0.0240000002 0.1142000034 2.6761000156 6.5793957710 49.626598358  -999.250000 4.7800178528 1.5710999966 4.3733382225
 3749.4001465  -999.250000 8.4385004044 0.0240000002 0.1142000034 2.6760997772 6.5766949654 49.626598358  -999.250000 4.7909030914 1.5710999966 4.3354005814
 3749.5502930  -999.250000 8.4385004044 0.0239000004 0.1142000034 2.6760001183 6.5735940933 49.626598358  -999.250000 4.7927598953 1.5710999966 4.3357386589
 3749.7001953  -999.250000 8.4385004044 0.0239000004 0.1142000034 2.6759998798 6.5699934959 49.626598358  -999.250000 4.7681999207 1.5710999966 4.3594999313
 3749.8503418  -999.250000 8.4385004044 0.0238000005 0.1142000034 2.6758999825 6.5657920837 49.626598358  -999.250000 4.7681002617 1.5710999966 4.3593997955
 3750.0002441  -999.250000 8.4385004044 0.0238000005  -999.250000  -999.250000 6.5608911514 49.626598358  -999.250000  -999.250000  -999.250000  -999.250000
 3750.1503906  -999.250000 8.4385004044  -999.250000  -999.250000  -999.250000 6.5552792549 49.626598358  -999.250000  -999.250000  -999.250000  -999.250000
 3750.3002930  -999.250000 8.4385004044  -999.250000  -999.250000  -999.250000 6.5488877296 49.626598358  -999.250000  -999.250000  -999.250000  -999.250000
 3750.4499512  -999.250000 8.4385004044  -999.250000  -999.250000  -999.250000 6.5413999557 49.626598358  -999.250000  -999.250000  -999.250000  -999.250000
 3750.6000977  -999.250000 8.4385004044  -999.250000  -999.250000  -999.250000 6.5328998566 49.626598358  -999.250000  -999.250000  -999.250000  -999.250000
 3750.7500000  -999.250000 8.4385004044  -999.250000  -999.250000  -999.250000 6.5229997635 49.626598358  -999.250000  -999.250000  -999.250000  -999.250000
 3750.9001465  -999.250000 8.4385004044  -999.250000  -999.250000  -999.250000 6.5116000175 49.626598358  -999.250000  -999.250000  -999.250000  -999.250000
 3751.0500488  -999.250000 8.4385004044  -999.250000  -999.250000  -999.250000 6.4986000061 49.626598358  -999.250000  -999.250000  -999.250000  -999.250000
 3751.2001953  -999.250000 8.4385004044  -999.250000  -999.250000  -999.250000 6.4836001396 49.626598358  -999.250000  -999.250000  -999.250000  -999.250000
 3751.3500977  -999.250000 8.4385004044  -999.250000  -999.250000  -999.250000 6.4665999413 49.626598358  -999.250000  -999.250000  -999.250000  -999.250000
 3751.5002441  -999.250000 8.4385004044  -999.250000  -999.250000  -999.250000 6.4471001625 49.626598358  -999.250000  -999.250000  -999.250000  -999.250000
 3751.6501465  -999.250000 8.4385004044  -999.250000  -999.250000  -999.250000 6.4248590469 49.626598358  -999.250000  -999.250000  -999.250000  -999.250000
 3751.8002930  -999.250000 8.4385004044  -999.250000  -999.250000  -999.250000 6.3995537758 49.626598358  -999.250000  -999.250000  -999.250000  -999.250000
 3751.9501953  -999.250000 8.4385004044  -999.250000  -999.250000  -999.250000 6.3710474968 49.626598358  -999.250000  -999.250000  -999.250000  -999.250000
 3752.1003418  -999.250000 8.4385004044  -999.250000  -999.250000  -999.250000 6.3386816978 49.626598358  -999.250000  -999.250000  -999.250000  -999.250000
