# LAS format log file from PETREL
# Project units are specified as depth units
#==================================================================
~Version information
VERS.   2.0:
WRAP.   NO:
#==================================================================
~Well
STRT .m      2949.7507324 :
STOP .m      3605.5278320 :
STEP .m     0.00000000 :
NULL .        -999.250000 :
COMP.           : COMPANY
WELL.  35/9-10 S   : WELL
FLD.            : FIELD
LOC.            : LOCATION
SRVC.           : SERVICE COMPANY
DATE.  2018-09-11 14:49:01   : Log Export Date {yyyy-MM-dd HH:mm:ss}
PROV.           : PROVINCE
UWI.   35/9-10 S   : UNIQUE WELL ID
API.            : API NUMBER
#==================================================================
~Curve
DEPT .m                   : DEPTH
Lithology_geolink ._      : Lithology_geolink
CALI .in                  : CALI
BS .in                    : BS
ROP .m/h                  : ROP
DRHO .g/cm3               : DRHO
THOR .ppm                 : THOR
NPHI .m3/m3               : NPHI
RHOB .g/cm3               : RHOB
PEF .b/e                  : PEF
GR .gAPI                  : GR
URAN .ppm                 : URAN
DTC .us/ft                : DTC
DTS .us/ft                : DTS
RDEP .ohm.m               : RDEP
RMED .ohm.m               : RMED
~Parameter
#==================================================================
~Ascii
# ...
 3597.6030273 7.0000000000 8.5742998123 8.5000000000 81.625656128 0.0619000010 13.797699928 0.2773999870 2.6476864815 8.3121414185 108.05668640 3.7732000351 68.494621277 120.69658661 11.776586533 11.192695618
 3597.7553711 7.0000000000 8.5937004089 8.5000000000 82.034439087 0.0711999983 13.780099869 0.2711000144 2.6588819027 8.1856040955 106.67996979 3.6696999073 68.869400024 120.17942810 12.837499619 12.078379631
 3597.9077148 7.0000000000 8.5645999908 8.5000000000 80.822807312 0.0864999965 12.702300072 0.2407999933 2.6669871807 7.4788341522 97.572914124 3.3643000126 69.069976807 118.95346832 13.830509186 12.808529854
 3598.0600586 6.0000000000 8.5645999908 8.5000000000 80.009490967 0.0852999985 10.919099808 0.2298000008 2.6587264538 7.1919174194 97.061996460 2.9923999310 68.532920837 118.03952789 13.919319153 12.723078728
 3598.2126465 6.0000000000 8.5645999908 8.5000000000 77.569198608 0.0702999979 9.6787996292 0.2211000025 2.6276497841 6.8097119331 97.330665588 2.6982998848 68.104286194 117.52781677 12.195567131 11.021131516
 3598.3649902 6.0000000000 8.5645999908 8.5000000000 78.373703003 0.0661000013 9.1166000366 0.2186000049 2.6184148788 6.7611765862 99.673240662 2.4489998817 67.683670044 117.56723785 9.4976263046 8.5023384094
 3598.5173340 6.0000000000 8.5645999908 8.5000000000 79.991500854 0.0667999983 8.8893003464 0.2143000066 2.6117107868 6.7771744728 103.30147552 2.2026998997 67.301712036 117.63239288 7.6057300568 6.7834529877
 3598.6696777 6.0000000000 8.5645999908 8.5000000000 79.484573364 0.0696000010 8.8801002502 0.2092999965 2.6088092327 6.7510838509 103.66126251 1.9618998766 67.208000183 117.48506927 6.9264712334 6.1623849869
 3598.8222656 6.0000000000 8.5791997910 8.5000000000 78.462600708 0.0821999982 9.0818004608 0.1959999949 2.5988159180 6.6135206223 98.813278198 1.7111999989 67.193222046 116.69815063 7.0222425461 6.1706833839
 3598.9746094 6.0000000000 8.6663999557 8.5000000000 82.062461853 0.0934000015 9.4078998566 0.1915999949 2.5717434883 6.6389589310 92.502014160 1.4716999531 67.151069641 116.47235870 7.2062048912 6.2830195427
 3599.1269531 6.0000000000 8.6663999557 8.5000000000 83.869155884 0.0909999982 9.7305002213 0.1944999993 2.5598189831 6.7236642838 85.643791199 1.2619999647 66.891921997 116.51583099 7.2183809280 6.3031678200
 3599.2792969 6.0000000000 8.6372995377 8.5000000000 81.636444092 0.0764999986 10.010100365 0.2047999948 2.5293974876 7.0353002548 76.414794922 0.9870999455 66.766601563 117.88710022 7.1351671219 6.2870521545
 3599.4318848 5.0000000000 8.6663999557 8.5000000000 80.509674072 0.0657000020 9.6850004196 0.2014999986 2.5329940319 7.1987390518 72.906486511 0.7652999759 67.214981079 118.37232971 7.0004158020 6.2601428032
 3599.5842285 5.0000000000 8.6518001556 8.5000000000 57.586338043 0.0684000030 8.7504997253 0.1652999967 2.5861146450 7.1746392250 71.608177185 0.7526000142 68.286781311 118.46825409 6.8632197380 6.2432270050
 3599.7365723 5.0000000000 8.6372995377 8.5000000000 46.088603973 0.0821999982 8.1793003082 0.1441999972 2.6120584011 7.0417132378 72.354499817 0.7472000122 69.813453674 118.07163239 6.5071711540 6.0285449028
 3599.8889160 5.0000000000 8.5937004089 8.5000000000 50.235115051 0.1212999970 8.1167001724 0.1180000007 2.6305706501 6.6322569847 77.503135681 0.6614999771 71.165634155 118.73173523 5.7332410812 5.4192776680
 3600.0412598 5.0000000000 8.5937004089 8.5000000000 52.320751190 0.1305000037 8.1541004181 0.1072999984 2.6126577854 6.4290504456 82.266334534 0.6141999960 72.789695740 120.12612915 4.7777633667 4.6192650795
 3600.1938477 5.0000000000 8.5937004089 8.5000000000 59.959209442 0.1085999981 8.2381000519 0.1022000015 2.5328280926 6.3133845329 87.282073975 0.6191999912 73.543891907 121.66254425 4.0053348541 3.9528656006
 3600.3461914 5.0000000000 8.5645999908 8.5000000000 63.787185669 0.0957999974 8.3164997101 0.1103999987 2.4990541935 6.3765983582 84.973213196 0.6607999802 74.103004456 122.35708618 3.5824768543 3.5922770500
 3600.4985352 5.0000000000 8.6663999557 8.5000000000 69.330024719 0.0888999999 8.3116998672 0.1246000007 2.4733412266 6.5195708275 85.129943848 0.7211999893 73.957939148 122.79550171 3.4412255287 3.4965529442
 3600.6508789 5.0000000000 8.7100000381 8.5000000000 72.102676392 0.0888999999 8.2315998077 0.1354999989 2.4694123268 6.5444207191 85.511970520 0.7939000130 73.354637146 122.62255859 3.4333245754 3.5307896137
 3600.8034668 5.0000000000 8.6263999939 8.5000000000 92.562644958 0.0834999979 8.0544004440 0.1615999937 2.4604144096 6.4426636696 80.695930481 0.8765000105 73.209129333 122.69548798 3.4420859814 3.5764267445
 3600.9558105 5.0000000000 8.5937004089 8.5000000000 102.82086182 0.0803999975 7.8299999237 0.1729000062 2.4556076527 6.3499488831 78.971557617 0.9067000151 72.540374756 122.39189148 3.4228310585 3.5835886002
 3601.1081543 5.0000000000 8.6372995377 8.5000000000 98.326461792 0.0740000010 7.6577997208 0.1743000001 2.4473133087 6.1807713509 81.891906738 0.9046999812 71.673690796 121.74573517 3.4632351398 3.6474974155
 3601.2604980 3.0000000000 8.6155004501 8.5000000000 96.067588806 0.0697000027 7.5015997887 0.1766999960 2.4439110756 6.1161069870 84.200798035 0.9320999980 70.172813416 120.26186371 3.7091107368 3.9335818291
 3601.4130859 3.0000000000 8.5937004089 8.5000000000 88.727653503 0.0658000037 7.3161001205 0.1749999970 2.4453976154 5.9662404060 81.252449036 0.9968999624 68.517044067 118.18443298 4.0573420525 4.3308639526
 3601.5654297 3.0000000000 8.5937004089 8.5000000000 85.049522400 0.0680000037 7.1786999702 0.1727000028 2.4510910511 5.9080929756 79.906250000 1.0841000080 67.160476685 116.53514862 4.2277274132 4.5208959579
 3601.7177734 3.0000000000 8.5937004089 8.5000000000 78.658538818 0.0710999966 7.1737999916 0.1685999930 2.4612834454 5.9578199387 72.076164246 1.1463999748 65.959526062 116.18756104 4.2960906029 4.5900893211
 3601.8701172 3.0000000000 8.5937004089 8.5000000000 75.455581665 0.0674000010 7.2687997818 0.1676000059 2.4652936459 6.1091570854 66.157485962 1.1740000248 65.009918213 117.36701202 4.3330407143 4.6260423660
 3602.0224609 3.0000000000 8.6155004501 8.5000000000 67.261528015 0.0549999997 7.4261999130 0.1596000046 2.4926123619 6.6944217682 65.011848450 1.1900999546 64.442413330 117.77201080 4.1003470421 4.3616485596
 3602.1750488 3.0000000000 8.6155004501 8.5000000000 64.189277649 0.0564999990 7.5956997871 0.1499000043 2.5532028675 7.2061815262 73.264648438 1.2249000072 64.927024841 117.43604279 3.4906775951 3.6836869717
 3602.3273926 3.0000000000 8.5937004089 8.5000000000 65.239448547 0.0631000027  -999.250000 0.1415999979 2.5818541050 7.2107939720 72.174667358  -999.250000 66.354713440 117.34324646 2.7623674870 2.8899722099
 3602.4797363 3.0000000000 8.5937004089 8.5000000000 63.970867157 0.0763999969  -999.250000 0.1239999980 2.6012690067 6.8988008499 68.773353577  -999.250000 68.449645996 117.80255890 2.2723846436 2.3668375015
 3602.6320801 3.0000000000 8.5937004089 8.5000000000 61.646888733 0.0825999975  -999.250000 0.1164999977 2.6022970676 6.7277474403 68.635826111  -999.250000 70.817710876 118.75065613 2.0789184570 2.1670386791
 3602.7846680 3.0000000000 8.6155004501 8.5000000000 61.276172638 0.0856000036  -999.250000 0.1187999994 2.5957105160 6.4887828827 61.865066528  -999.250000 72.559715271 119.90096283 2.0731084347 2.1715917587
 3602.9370117 3.0000000000 8.6155004501 8.5000000000 63.237995148 0.0816999972  -999.250000 0.1243000031 2.5891103745 6.4613432884 61.862583160  -999.250000 73.786933899 121.06103516 2.1305079460 2.2463800907
 3603.0893555 3.0000000000 8.5937004089 8.5000000000 83.962150574 0.0881000012  -999.250000 0.1360999942 2.5859053135 6.4075860977 63.907421112  -999.250000 74.127761841 121.08236694 2.1564586163 2.2862360477
 3603.2416992 3.0000000000 8.5937004089 8.5000000000 102.72399139 0.1044000015  -999.250000 0.1341000050 2.5924787521 6.3031353951 66.765937805  -999.250000 73.992835999 120.76582336 2.1484260559 2.2858016491
 3603.3942871 3.0000000000 8.5937004089 8.5000000000 113.67182922 0.1181999967  -999.250000 0.1287000030 2.5692374706 5.9929971695 70.325599670  -999.250000 73.397850037 120.46488953 2.1577849388 2.3018741608
