# LAS format log file from PETREL
# Project units are specified as depth units
#==================================================================
~Version information
VERS.   2.0:
WRAP.   NO:
#==================================================================
~Well
STRT .m      1725.0000000 :
STOP .m      3754.9504395 :
STEP .m     0.00000000 :
NULL .        -999.250000 :
COMP.           : COMPANY
WELL.  35/9-6 S   : WELL
FLD.            : FIELD
LOC.            : LOCATION
SRVC.           : SERVICE COMPANY
DATE.  2018-09-11 14:49:02   : Log Export Date {yyyy-MM-dd HH:mm:ss}
PROV.           : PROVINCE
UWI.   35/9-6 S   : UNIQUE WELL ID
API.            : API NUMBER
#==================================================================
~Curve
DEPT .m                   : DEPTH
Lithology_geolink ._      : Lithology_geolink
CALI .in                  : CALI
DRHO .g/cm3               : DRHO
NPHI .m3/m3               : NPHI
RHOB .g/cm3               : RHOB
PEF .b/e                  : PEF
GR .gAPI                  : GR
DTC .us/ft                : DTC
RDEP .ohm.m               : RDEP
RMIC .ohm.m               : RMIC
RMED .ohm.m               : RMED
~Parameter
#==================================================================
~Ascii
# ...
 2260.5000000 13.000000000 12.297400475 0.0387019515 0.2854000032 2.3968999386  -999.250000 95.071029663 106.37490082 1.8223999739 1.3753000498 1.7532000542
 2260.6499023 13.000000000 12.291299820 0.0384004898 0.2989000082 2.3926999569  -999.250000 91.279586792 106.37579346 1.7853000164 1.2904000282 1.7058000565
 2260.8000488 13.000000000 12.169400215 0.0300136581 0.2822999954 2.3724999428  -999.250000 92.282203674 106.20040131 1.7329000235 1.3655999899 1.6309000254
 2260.9499512 13.000000000 12.152999878 0.0300998371 0.2777000070 2.3901000023  -999.250000 93.821098328 106.57659912 1.7272000313 1.3554999828 1.6256999969
 2261.1000977 13.000000000 12.175900459 0.0259000007 0.2727000117 2.3870999813  -999.250000 96.916000366 107.47750092 1.7055504322 1.2478053570 1.5604639053
 2261.2500000 13.000000000 12.114500046 0.0255999994 0.3066000044 2.3998999596  -999.250000 92.527496338 107.44249725 1.6750999689 1.1897000074 1.5383000374
 2261.4001465 13.000000000 12.073399544 0.0238000005 0.3096987009 2.4048209190  -999.250000 88.199897766 106.79509735 1.6811873913 1.2758557796 1.5900330544
 2261.5500488 13.000000000 12.055299759 0.0074999998 0.3088999987 2.4177000523  -999.250000 89.401397705 106.51229858 1.6734000444 1.3100999594 1.5489000082
 2261.6999512 13.000000000 12.105898857 -0.006477236 0.2836999893 2.4054000378  -999.250000 83.964958191 106.89946747 1.6958999634 1.1941000223 1.6118999720
 2261.8500977 13.000000000 12.223798752 -0.021100000 0.2964999974 2.3519001007  -999.250000 87.533798218 106.98619843 1.6576999426 1.3127000332 1.5683000088
 2262.0000000 13.000000000 12.233400345 0.0183357727 0.3025999963 2.3643999100  -999.250000 89.649002075 107.20870209 1.6079000235 1.2391999960 1.5134999752
 2262.1501465 13.000000000 12.342200279 0.0432000011 0.2944000065 2.3826000690  -999.250000 87.466003418 106.73930359 1.6267999411 1.1901999712 1.5024000406
 2262.3000488 13.000000000 12.393199921 0.0551804863 0.3045000136 2.3984999657  -999.250000 88.795898438 107.36019135 1.5846947432 1.1006875038 1.5150624514
 2262.4501953 13.000000000 12.425000191 0.0662000030 0.3227319419 2.4064018726  -999.250000 87.445198059 106.32369995 1.5815155506 1.2157533169 1.4919217825
 2262.6000977 13.000000000 12.397300720 0.0659999996 0.2810102403 2.4075951576  -999.250000 91.060302734 106.32589722 1.5910267830 1.1869602203 1.4440557957
 2262.7500000 13.000000000 12.250799179 0.0547183715 0.2872999907 2.4045999050  -999.250000 91.346733093 107.93567657 1.6074999571 1.1010999680 1.4782999754
 2262.8999023 13.000000000 12.246700287 0.0369289890 0.2935999930 2.3835999966  -999.250000 98.171470642 107.80012512 1.6009000540 1.2294000387 1.5046999454
 2263.0500488 13.000000000 12.203800201 0.0351000018 0.2982000113 2.3819999695  -999.250000 98.805496216 107.42839050 1.6065000296 1.2538000345 1.4989999533
 2263.1999512 13.000000000 12.161001205 0.0334027633 0.3027999997 2.3803999424  -999.250000 99.428398132 107.05690002 1.6122000217 1.2781000137 1.4932999611
 2263.3500977 13.000000000 12.120300293 0.0292000007 0.2901999950 2.3822000027  -999.250000 94.261299133 106.21820068 1.6203000546 1.1861000061 1.5285999775
 2263.5000000 13.000000000 12.139900208 0.0190999992 0.2948000133 2.3703000546  -999.250000 89.288200378 105.81259918 1.5799000263 1.2747999430 1.4914000034
 2263.6501465 13.000000000 12.089501381 0.0194000024 0.3141961098 2.3757951260  -999.250000 88.973701477 105.32189941 1.5817061663 1.2759459019 1.4864004850
 2263.8000488 13.000000000 12.083799362 0.0156999994 0.3118000031 2.3729000092  -999.250000 86.088699341 103.39749908 1.5855000019 1.1813000441 1.4867000580
 2263.9499512 13.000000000 12.110600471 0.0233874787 0.2987999916 2.3956999779  -999.250000 93.779869080 106.73725891 1.5865999460 1.1654000282 1.5210000277
 2264.1000977 13.000000000 12.296600342 0.0306000002 0.3057999909 2.3857998848  -999.250000 99.347602844 107.72160339 1.5776000023 1.1456999779 1.5059000254
 2264.2500000 13.000000000 12.396499634 0.0504676439 0.3210000098 2.4151000977  -999.250000 101.25669098 106.68869781 1.5999000072 1.1517000198 1.5428999662
 2264.4001465 13.000000000 12.491399765 0.0749000013 0.2991999984 2.4258000851  -999.250000 96.076202393 105.97509766 1.5582000017 1.2727999687 1.4427000284
 2264.5500488 13.000000000 12.342599869 0.0724040717 0.2996000051 2.4223001003  -999.250000 91.661300659 105.68190002 1.5437999964 1.2101000547 1.4298000336
 2264.7001953 13.000000000 12.284899712 0.0480000004 0.2987965643 2.3941955566  -999.250000 92.821800232 104.22940063 1.5396301746 1.2322294712 1.4373438358
 2264.8500977 13.000000000 12.351799965 0.0476999991 0.2967128456 2.3914194107  -999.250000 96.726997375 102.11519623 1.5581094027 1.1889469624 1.4641963243
 2265.0000000 13.000000000 12.249698639 0.0570000000 0.3046000004 2.4033000469  -999.250000 97.478996277 101.01239777 1.5638999939 1.1563999653 1.4618999958
 2265.1499023 13.000000000 12.107099533 0.0261502434 0.3084000051 2.3643999100  -999.250000 92.039955139 99.396034241 1.6850999594 1.2252999544 1.6131999493
 2265.3000488 13.000000000 12.252499580 0.0278999992 0.2815000117 2.3752000332  -999.250000 90.519798279 99.562599182 1.8489999771 1.3158999681 1.7831000090
 2265.4499512 13.000000000 12.283201218 0.0517611392 0.2799000144 2.4918999672  -999.250000 87.510803223 101.03399658 1.8134000301 1.3913999796 1.7160999775
 2265.6000977 13.000000000 12.379199028 0.0599000007 0.2824000120 2.6263000965  -999.250000 87.798698425 101.96289825 1.6718000174 1.3906999826 1.5261000395
 2265.7500000 13.000000000 12.732100487 0.0348408148 0.3005999923 2.5092999935  -999.250000 87.628601074 102.13120270 1.6497999430 1.3686000109 1.5439000130
 2265.9001465 13.000000000 12.425700188 0.0340000018 0.2674320340 2.4061446190  -999.250000 99.226402283 101.57489777 1.6873378754 1.3065775633 1.6357928514
 2266.0500488 13.000000000 12.178001404 0.0357999988 0.2870999873 2.3722000122  -999.250000 97.577796936 100.56839752 1.7719999552 1.2314000130 1.6928000450
 2266.2001953 13.000000000 12.170100212 0.0281000007 0.3162704110 2.3741095066  -999.250000 97.404403687 99.574897766 1.8561874628 1.3778501749 1.7162598372
 2266.3500977 13.000000000 12.229399681 0.0340999998 0.2980999947 2.3798999786  -999.250000 87.659500122 100.17549896 1.9098999500 1.4701000452 1.7530000210
 2266.5000000 13.000000000 12.273099899 0.0405894332 0.2890999913 2.3794000149  -999.250000 89.448585510 101.00599670 1.9516999722 1.5118000507 1.8324999809
 2266.6501465 13.000000000 12.235899925 0.0414000005 0.3009999990 2.3873999119  -999.250000 91.836898804 100.86239624 1.9896999598 1.5382000208 1.8998999596
 2266.8000488 13.000000000 12.177100182 0.0368074812 0.2867999971 2.3966000080  -999.250000 95.266502380 101.20179749 1.9936000109 1.5293999910 1.9467999935
 2266.9499512 13.000000000 12.160300255 0.0302107502 0.2757000029 2.3943998814  -999.250000 96.527397156 101.59929657 1.9846999645 1.4693000317 1.9581999779
 2267.1000977 13.000000000 12.169300079 0.0265999995 0.2643391788 2.3978717327  -999.250000 93.649200439 102.30760193 1.9795681238 1.4621620178 1.8853566647
 2267.2500000 13.000000000 12.297699928 0.0278999992 0.2883999944 2.3803999424  -999.250000 92.776397705 104.16649628 1.9600000381 1.3775000572 1.7973999977
 2267.4001465 13.000000000 12.288900375 0.0430000015 0.3008021116 2.3981022835  -999.250000 90.985702515 102.92179871 1.8921942711 1.3725209236 1.7040811777
 2267.5500488 13.000000000 12.280599594 0.0450999998 0.3021000028 2.3996000290  -999.250000 88.914802551 104.80530548 1.8272999525 1.3240000010 1.6924999952
 2267.6999512 13.000000000 12.307100296 0.0463978872 0.3113000095 2.4010000229  -999.250000 96.761817932 105.54550171 1.7709000111 1.2454999685 1.6576000452
 2267.8500977 13.000000000 12.234101295 0.0441000015 0.3170000017 2.3963000774  -999.250000 92.328300476 105.67220306 1.6842000484 1.1901999712 1.6161999702
 2268.0000000 13.000000000 12.108699799 0.0342160985 0.3052999973 2.3936998844  -999.250000 93.495300293 106.81700134 1.6769000292 1.1924999952 1.5621000528
