# LAS format log file from PETREL
# Project units are specified as depth units
#==================================================================
~Version information
VERS.   2.0:
WRAP.   NO:
#==================================================================
~Well
STRT .m      2949.7507324 :
STOP .m      3605.5278320 :
STEP .m     0.00000000 :
NULL .        -999.250000 :
COMP.           : COMPANY
WELL.  35/9-10 S   : WELL
FLD.            : FIELD
LOC.            : LOCATION
SRVC.           : SERVICE COMPANY
DATE.  2018-09-11 14:49:01   : Log Export Date {yyyy-MM-dd HH:mm:ss}
PROV.           : PROVINCE
UWI.   35/9-10 S   : UNIQUE WELL ID
API.            : API NUMBER
#==================================================================
~Curve
DEPT .m                   : DEPTH
Lithology_geolink ._      : Lithology_geolink
CALI .in                  : CALI
BS .in                    : BS
ROP .m/h                  : ROP
DRHO .g/cm3               : DRHO
THOR .ppm                 : THOR
NPHI .m3/m3               : NPHI
RHOB .g/cm3               : RHOB
PEF .b/e                  : PEF
GR .gAPI                  : GR
URAN .ppm                 : URAN
DTC .us/ft                : DTC
DTS .us/ft                : DTS
RDEP .ohm.m               : RDEP
RMED .ohm.m               : RMED
~Parameter
#==================================================================
~Ascii
# ...
 3080.5100098 6.0000000000 8.5873003006 8.5000000000  -999.250000 0.0254999995 8.1934003830 0.2755999863 2.4670999050 3.2258999348 93.428901672 1.6794999838 82.126197815 146.90730286 8.0202999115 8.0721998215
 3080.6623535 6.0000000000 8.5960998535 8.5000000000  -999.250000 0.0274000000 8.3105001450 0.2840000093 2.4807999134 3.1538999081 96.936401367 1.8941999674 82.053001404 146.51550293 7.5570001602 7.5998001099
 3080.8146973 6.0000000000 8.5916004181 8.5000000000  -999.250000 0.0219999999 8.5254001617 0.2915999889 2.4818000793 3.1651999950 98.050796509 2.1923000813 81.912803650 146.22300720 7.2151999474 7.2425999641
 3080.9670410 6.0000000000 8.5710000992 8.5000000000  -999.250000 0.0187999997 8.9312000275 0.2973000109 2.4827001095 3.2567999363 99.031097412 2.3310000896 82.109207153 146.51280212 7.0883002281 7.0984001160
 3081.1196289 6.0000000000 8.5473003387 8.5000000000  -999.250000 0.0218000002 9.2095003128 0.2987000048 2.4904999733 3.3882999420 98.940803528 2.2941000462 82.601997375 147.60519409 7.2498998642 7.2435002327
 3081.2719727 6.0000000000 8.5377998352 8.5000000000  -999.250000 0.0238000005 9.3079004288 0.3037999868 2.4934000969 3.4681999683 95.453903198 2.1036999226 83.161499023 149.70960999 7.6402001381 7.6086001396
 3081.4243164 6.0000000000 8.5458002090 8.5000000000  -999.250000 0.0212999992 9.3447999954 0.3107999861 2.4907000065 3.4344999790 91.115798950 1.6921000481 83.478401184 149.72569275 8.1417999268 8.0851001740
 3081.5766602 6.0000000000 8.5553998947 8.5000000000  -999.250000 0.0182000007 9.3173999786 0.3104000092 2.4923999310 3.3499000072 89.709602356 1.4344999790 83.466796875 149.10780334 8.6928997040 8.6114997864
 3081.7292480 6.0000000000 8.5446996689 8.5000000000  -999.250000 0.0147000002 9.3050003052 0.3034999967 2.4943997860 3.2723000050 91.151802063 1.4695999622 83.445800781 150.39920044 9.0138998032 8.9112997055
 3081.8815918 6.0000000000 8.5248003006 8.5000000000  -999.250000 0.0109999999 9.3271999359 0.3032000065 2.4895000458 3.1896998882 92.935401917 1.5700999498 83.269790649 150.01699829 8.9263000488 8.8093996048
 3082.0339355 6.0000000000 8.5233001709 8.5000000000  -999.250000 0.0091000004 9.3886995316 0.3104999959 2.4818999767 3.1080000401 93.023200989 1.6715999842 82.737998962 149.41589355 8.6806001663 8.5523004532
 3082.1862793 6.0000000000 8.5406999588 8.5000000000  -999.250000 0.0129000004 9.4582996368 0.3106999993 2.4867000580 3.1326000690 91.914596558 1.7342000008 82.173789978 146.94099426 8.4931001663 8.3614997864
 3082.3386230 6.0000000000 8.5525999069 8.5000000000  -999.250000 0.0160000008 9.4673995972 0.2892000079 2.4925999641 3.2671000957 90.711898804 1.7216999531 81.619201660 145.42770386 8.3550996780 8.2260999680
 3082.4912109 6.0000000000 8.5562000275 8.5000000000  -999.250000 0.0131000001 9.3702001572 0.2651999891 2.4876000881 3.3285999298 89.434898376 1.6301000118 81.190597534 144.70860291 8.2038002014 8.0888996124
 3082.6435547 6.0000000000 8.5613002777 8.5000000000  -999.250000 0.0087000001 9.2378997803 0.2578999996 2.4828000069 3.2323999405 88.452903748 1.5081000328 81.168304443 145.25540161 8.0378999710 7.9386000633
 3082.7958984 6.0000000000 8.5576000214 8.5000000000  -999.250000 0.0062000002 9.1894998550 0.2635000050 2.4835999012 3.1005001068 87.707496643 1.4070999622 81.447608948 146.85110474 7.8878002167 7.8024001122
 3082.9482422 6.0000000000 8.5409002304 8.5000000000  -999.250000 0.0066999998 9.2526998520 0.2682999969 2.4862999916 3.0713999271 86.551399231 1.3718999624 81.617401123 150.06530762 7.6504001617 7.5819997787
 3083.1008301 6.0000000000 8.5406999588 8.5000000000  -999.250000 0.0114000002 9.4596004486 0.2680000067 2.4900999069 3.1440000534 87.093200684 1.3959000111 81.557197571 151.82130432 7.2452001572 7.1936001778
 3083.2531738 6.0000000000 8.5593004227 8.5000000000  -999.250000 0.0208000001 9.7574996948 0.2660999894 2.4993000031 3.2437000275 90.936500549 1.4223999977 81.554397583 152.59559631 6.8119997978 6.7792000771
 3083.4055176 6.0000000000 8.5625000000 8.5000000000  -999.250000 0.0315000005 9.9890003204 0.2632000148 2.5134000778 3.2794001102 95.636596680 1.4293999672 81.529510498 150.97169495 6.5342001915 6.5153999329
 3083.5578613 6.0000000000 8.5509004593 8.5000000000  -999.250000 0.0359999985 10.099599838 0.2644000053 2.5220999718 3.2128000259 98.054298401 1.4129999876 81.573005676 149.86929321 6.4716000557 6.4625000954
 3083.7104492 6.0000000000 8.5487003326 8.5000000000  -999.250000 0.0311999992 10.087800026 0.2754999995 2.5222001076 3.1609001160 97.942802429 1.3513000011 81.608703613 148.02850342 6.5981998444 6.5947999954
 3083.8627930 6.0000000000 8.5501003265 8.5000000000  -999.250000 0.0208000001 9.9881000519 0.2921000123 2.5160999298 3.2490000725 96.759002686 1.2836999893 81.811988831 149.97850037 6.8364000320 6.8351998329
 3084.0151367 6.0000000000 8.5465002060 8.5000000000  -999.250000 0.0132999998 9.8649997711 0.3039999902 2.5014998913 3.3731999397 95.812103271 1.3186999559 82.173103333 150.38681030 7.1128001213 7.1096000671
 3084.1674805 6.0000000000 8.5521001816 8.5000000000  -999.250000 0.0174000002 9.7853002548 0.3113999963 2.4823000431 3.3875999451 95.233200073 1.4812999964 82.605598450 151.71029663 7.3242001534 7.3147001266
 3084.3198242 6.0000000000 8.5652999878 8.5000000000  -999.250000 0.0362999998 9.7565002441 0.3140000105 2.4784998894 3.3417999744 93.988601685 1.7059999704 83.037498474 152.37350464 7.3710999489 7.3524999619
 3084.4724121 6.0000000000 8.5621995926 8.5000000000  -999.250000 0.0564999990 9.7055997849 0.3072000146 2.4902999401 3.2987999916 92.249000549 1.9464998245 83.554702759 153.24061584 7.3070001602 7.2820000648
 3084.6247559 6.0000000000 8.5420999527 8.5000000000  -999.250000 0.0601999983 9.4293003082 0.2975000143 2.4999001026 3.2736001015 91.034400940 2.1977999210 83.882598877 153.71780396 7.3298001289 7.2933001518
 3084.7770996 6.0000000000 8.5335998535 8.5000000000  -999.250000 0.0432999991 8.9119997025 0.2998000085 2.4935998917 3.2715001106 90.146102905 2.4096000195 84.171997070 153.78359985 7.5356998444 7.4853000641
 3084.9294434 6.0000000000 8.5478000641 8.5000000000  -999.250000 0.0183000006 8.2510995865 0.3129000068 2.4795000553 3.2636001110 89.205200195 2.5093998909 84.418296814 153.52870178 7.8480000496 7.7846999168
 3085.0820313 6.0000000000 8.5607004166 8.5000000000  -999.250000 0.0016000000 7.5487999916 0.3248000145 2.4751000404 3.2318999767 89.568901062 2.5325999260 84.315910339 153.33880615 8.1891002655 8.1147003174
 3085.2343750 6.0000000000 8.5611000061 8.5000000000  -999.250000 -0.004500000 6.9155998230 0.3280999959 2.4765999317 3.1974999905 91.552299500 2.5383000374 84.256004333 152.92990112 8.5073003769 8.4247999191
 3085.3867188 6.0000000000 8.5686998367 8.5000000000  -999.250000 -0.007000000 6.4528999329 0.3195999861 2.4751999378 3.1645998955 91.792800903 2.5373001099 83.928413391 152.58029175 8.6364002228 8.5503997803
 3085.5390625 6.0000000000 8.5907001495 8.5000000000  -999.250000 -0.007800000 6.1810998917 0.3007999957 2.4718999863 3.1454000473 89.325798035 2.5302999020 83.533096313 152.28790283 8.4652996063 8.3803997040
 3085.6916504 6.0000000000 8.5954999924 8.5000000000  -999.250000 -0.005100000 6.1259999275 0.2822999954 2.4674999714 3.1816000938 87.862701416 2.4818999767 82.922088623 151.95719910 8.1204004288 8.0403003693
 3085.8439941 6.0000000000 8.5755996704 8.5000000000  -999.250000 0.0018000000 6.3007001877 0.2721000016 2.4586999416 3.1898999214 89.723197937 2.3220000267 82.418914795 151.70680237 7.7448000908 7.6725001335
 3085.9963379 6.0000000000 8.5572004318 8.5000000000  -999.250000 0.0175999999 6.7133002281 0.2682999969 2.4644999504 3.0727000237 93.032897949 2.0599999428 81.978805542 150.49540710 7.3331999779 7.2698001862
 3086.1486816 6.0000000000 8.5574998856 8.5000000000  -999.250000 0.0350000001 7.3343000412 0.2673999965 2.4921000004 2.9138000011 95.686996460 1.7345000505 81.745002747 149.96369934 6.9411001205 6.8832001686
 3086.3010254 6.0000000000 8.5625000000 8.5000000000  -999.250000 0.0406000018 7.9809999466 0.2689000070 2.5171999931 2.8812000751 95.963401794 1.3952000141 81.606994629 147.85980225 6.7420001030 6.6930999756
