# LAS format log file from PETREL
# Project units are specified as depth units
#==================================================================
~Version information
VERS.   2.0:
WRAP.   NO:
#==================================================================
~Well
STRT .m      2535.9846191 :
STOP .m      3240.0725098 :
STEP .m     0.00000000 :
NULL .        -999.250000 :
COMP.           : COMPANY
WELL.  35/9-8   : WELL
FLD.            : FIELD
LOC.            : LOCATION
SRVC.           : SERVICE COMPANY
DATE.  2018-09-11 14:49:02   : Log Export Date {yyyy-MM-dd HH:mm:ss}
PROV.           : PROVINCE
UWI.   35/9-8   : UNIQUE WELL ID
API.            : API NUMBER
#==================================================================
~Curve
DEPT .m                   : DEPTH
Lithology_geolink ._      : Lithology_geolink
CALI .in                  : CALI
BS .in                    : BS
ROP .m/h                  : ROP
DRHO .g/cm3               : DRHO
THOR .ppm                 : THOR
NPHI .m3/m3               : NPHI
RHOB .g/cm3               : RHOB
PEF .b/e                  : PEF
GR .gAPI                  : GR
URAN .ppm                 : URAN
DTC .us/ft                : DTC
DTS .us/ft                : DTS
RDEP .ohm.m               : RDEP
RMIC .ohm.m               : RMIC
RMED .ohm.m               : RMED
~Parameter
#==================================================================
~Ascii
# ...
 2631.8442383 13.000000000 8.7327995300 8.5000000000 41.043529510 -0.009900000 8.7114467621 0.1712000072 2.4913001060 3.7757999897 81.846702576 1.2652736902 90.145683289 184.00218201 1.7663999796 1.8927842379 1.8289999962
 2631.9968262 13.000000000 8.7423000336 8.5000000000 37.087940216 -0.008100000 9.4893779755 0.2311999947 2.4702999592 3.6415998936 85.662902832 1.3115859032 93.192092896 197.22999573 1.7417000532 1.8831962347 1.8174999952
 2632.1491699 13.000000000 8.7491998672 8.5000000000 35.452102661 -0.002000000 9.8565225601 0.3129000068 2.4609000683 3.4907000065 92.118301392 1.4318869114 94.840286255 206.82060242 2.2239999771 1.9449023008 2.3429999352
 2632.3015137 13.000000000 8.7658996582 8.5000000000 32.184127808 0.0057999999 10.057112694 0.3228000104 2.4700000286 3.4400999546 99.468803406 1.4861297607 93.580245972 208.63630676 2.9072000980 2.3218772411 3.0813999176
 2632.4538574 13.000000000 8.8020000458 8.5000000000 31.408935547 0.0073000002 9.9380846024 0.3014999926 2.4874999523 3.5274000168 100.53929901 1.5675446987 91.362594604 207.44830322 3.4546000957 3.4309263229 3.6577999592
 2632.6062012 13.000000000 8.8404998779 8.5000000000 29.862977982 0.0020999999 8.4925451279 0.3066000044 2.5114998817 3.8682000637 90.306602478 1.9069497585 88.926834106 203.03579712 4.1679000854 4.5676584244 4.4159998894
 2632.7587891 13.000000000 8.8645000458 8.5000000000 29.730218887 -0.002600000 6.4587073326 0.2897999883 2.5460999012 4.4649000168 74.235496521 1.9374092817 86.946701050 197.31629944 3.9463000298 3.9174194336 4.1939997673
 2632.9111328 13.000000000 8.8755998611 8.5000000000 29.465745926 -0.004800000 4.8423829079 0.2398000062 2.5801999569 4.9134998322 62.015800476 1.5691019297 85.639801025 190.14880371 3.3824999332 3.6816856861 3.6131999493
 2633.0634766 13.000000000 8.8750000000 8.5000000000 29.792053223 -0.006100000 4.0846099854 0.2020000070 2.5998001099 4.8378000259 57.286899567 1.3832569122 84.577278137 182.88438416 3.3057999611 4.4826755524 3.5478000641
 2633.2158203 13.000000000 8.8629999161 8.5000000000 30.441001892 -0.007800000 4.2786526680 0.1943999976 2.6040000916 4.4882998466 58.574699402 1.2938427925 83.755523682 177.16099548 3.2160999775 4.4660596848 3.4523000717
 2633.3684082 13.000000000 8.8543996811 8.5000000000 29.656616211 -0.011700000 4.8107647896 0.2056999952 2.5931000710 4.2916998863 62.091300964 1.1332812309 83.207633972 173.51679993 3.0402998924 3.5052430630 3.2713000774
 2633.5207520 13.000000000 8.8586997986 8.5000000000 28.874662399 -0.016600000 5.1426229477 0.2135999948 2.5685999393 4.3717999458 63.669300079 1.0339930058 82.999610901 172.01210022 2.9888999462 3.1133601665 3.1982998848
 2633.6730957 13.000000000 8.8619003296 8.5000000000 27.845403671 -0.016300000 5.2193012238 0.2123000026 2.5466001034 4.6115999222 62.617298126 1.0296041965 82.879165649 171.34309387 3.4254000187 2.9021310806 3.6048998833
 2633.8254395 13.000000000 8.8617000580 8.5000000000 27.598278046 -0.008500000 5.2822809219 0.2106000036 2.5399000645 4.8407998085 61.488300323 1.0322177410 82.609527588 170.59410095 4.0472002029 3.1720762253 4.2101001740
 2633.9780273 13.000000000 8.8675003052 8.5000000000 27.507719040 0.0000000000 5.2069029808 0.2099999934 2.5425999165 4.9271001816 60.561100006 1.0432901382 82.126571655 169.30998230 4.2671999931 4.0302267075 4.4120001793
 2634.1303711 13.000000000 8.8708000183 8.5000000000 27.664340973 0.0037000000 4.8332209587 0.2056999952 2.5504999161 4.7751002312 58.285301208 1.0399581194 81.525764465 167.54339600 4.2251000404 4.2877082825 4.3488001823
 2634.2827148 13.000000000 8.8706998825 8.5000000000 28.260547638 -0.000600000 4.2850751877 0.1956000030 2.5631999969 4.4291000366 54.146701813 0.8889504671 80.938613892 165.72840881 4.0679998398 4.2306780815 4.1648001671
 2634.4350586 13.000000000 8.8829002380 8.5000000000 28.701152802 -0.007200000 3.8333525658 0.1828999966 2.5785000324 4.1722002029 50.028301239 0.6710347533 80.451583862 164.43067932 3.7939000130 4.2168679237 3.8847999573
 2634.5876465 13.000000000 8.9055995941 8.5000000000 29.132518768 -0.015000000 3.6792705059 0.1729999930 2.5811998844 4.1774997711 47.960899353 0.5679633617 80.125686646 164.32679749 3.5801000595 4.1360259056 3.6730999947
 2634.7399902 13.000000000 8.9236001968 8.5000000000 29.123825073 -0.020300001 3.7638225555 0.1705999970 2.5725998878 4.2866001129 47.850799561 0.5253528953 79.902465820 165.01370239 3.5127999783 4.6121630669 3.6059000492
 2634.8923340 13.000000000 8.9309997559 8.5000000000 29.005401611 -0.020000000 3.9025070667 0.1740999967 2.5662000179 4.3295998573 48.593299866 0.4960289896 79.816856384 165.99789429 3.3905000687 5.0876436234 3.4779000282
 2635.0446777 13.000000000 8.9252996445 8.5000000000 28.895944595 -0.017000001 3.9693014622 0.1784999967 2.5655999184 4.2613000870 49.717899323 0.5142000318 79.790184021 166.47610474 3.2116000652 5.1145653725 3.2792000771
 2635.1970215 13.000000000 8.9102001190 8.5000000000 29.273750305 -0.015900001 3.9079918861 0.1799000055 2.5682001114 4.0949001312 50.590999603 0.5765360594 79.658042908 164.75700378 3.2528998852 5.0307197571 3.3203001022
 2635.3496094 13.000000000 8.9057998657 8.5000000000 29.761054993 -0.016899999 3.9031591415 0.1774999946 2.5748000145 3.9983999729 50.993499756 0.5989292860 79.306922913 161.33309937 3.3694000244 4.9809446335 3.4403998852
 2635.5019531 13.000000000 8.9196996689 8.5000000000 29.830366135 -0.017400000 3.9840564728 0.1726000011 2.5838000774 4.1115999222 51.276100159 0.5768330097 78.440475464 155.63009644 3.8322999477 5.0579299927 3.9063999653
 2635.6542969 13.000000000 8.9333000183 8.5000000000 29.412101746 -0.015200000 4.0819311142 0.1665000021 2.5901999474 4.2821998596 51.354400635 0.5349076986 77.364959717 149.98789978 4.3155999184 5.5132970810 4.3948998451
 2635.8066406 13.000000000 8.9277000427 8.5000000000 28.814338684 -0.008500000 4.3511323929 0.1627999991 2.5962998867 4.2979001999 50.811599731 0.4148229361 76.340438843 147.25450134 3.4916999340 5.8217830658 3.5638999939
 2635.9592285 13.000000000 8.9153003693 8.5000000000 28.633279800 0.0002000000 4.7457699776 0.1629000008 2.6054000854 4.1954998970 49.898300171 0.2418502420 75.678955078 147.30749512 3.1282000542 5.1848382950 3.2016000748
 2636.1115723 13.000000000 8.9104995728 8.5000000000 28.473262787 0.0071999999 4.9857835770 0.1617999971 2.6156001091 4.0658998489 48.908000946 0.1328562498 75.948638916 150.82400513 3.0315999985 4.1364154816 3.0999000072
 2636.2639160 13.000000000 8.9146003723 8.5000000000 40.882232666 0.0040000002 5.0379600525 0.1599999964 2.6140000820 3.9384000301 48.630401611 0.1055780426 76.970878601 155.50559998 2.9697999954 3.3981876373 3.0371000767
 2636.4162598 13.000000000 8.9159002304 8.5000000000 65.602226257 -0.004600000 5.1383285522 0.1649000049 2.6003000736 3.8972001076 50.270099640 0.0918647423 78.642105103 160.44348145 2.9679000378 3.2664155960 3.0352001190
 2636.5688477 13.000000000 8.9076004028 8.5000000000 53.585533142 -0.010600000 5.4688220024 0.1737000048 2.5848999023 3.9604001045 53.407100677 0.0699403211 80.266693115 164.95039368 3.1387000084 3.5906937122 3.2065999508
 2636.7211914 13.000000000 8.8954000473 8.5000000000 29.742540359 -0.010700000 5.8809003830 0.1764999926 2.5794999599 4.0006999969 55.958599091 0.0825676322 81.296867371 168.52239990 3.5074999332 4.5238900185 3.5718998909
 2636.8735352 13.000000000 8.8896999359 8.5000000000 28.977729797 -0.006600000 6.1306290627 0.1764000058 2.5827000141 3.9493999481 56.744400024 0.1247541755 81.704704285 170.99160767 3.3922998905 4.8906755447 3.4409000874
 2637.0258789 13.000000000 8.8922004700 8.5000000000 28.595468521 -0.003300000 6.2735834122 0.1829999983 2.5822999477 3.9416000843 56.337001801 0.1586086601 81.769859314 172.43859863 3.2725000381 4.3759284019 3.3199000359
 2637.1782227 13.000000000 8.9001998901 8.5000000000 28.592849731 -0.002700000 6.4500026703 0.1914000064 2.5745000839 4.0388998985 56.545101166 0.2265384644 81.871604919 173.54130554 3.2530000210 3.7704429626 3.3081998825
 2637.3308105 13.000000000 8.9069995880 8.5000000000 28.589067459 -0.003000000 6.5134015083 0.1951999962 2.5681002140 4.1578001976 58.048000336 0.3756049573 82.188110352 175.02961731 3.1835000515 3.6720378399 3.2495000362
