# LAS format log file from PETREL
# Project units are specified as depth units
#==================================================================
~Version information
VERS.   2.0:
WRAP.   NO:
#==================================================================
~Well
STRT .m      2535.9846191 :
STOP .m      3240.0725098 :
STEP .m     0.00000000 :
NULL .        -999.250000 :
COMP.           : COMPANY
WELL.  35/9-8   : WELL
FLD.            : FIELD
LOC.            : LOCATION
SRVC.           : SERVICE COMPANY
DATE.  2018-09-11 14:49:02   : Log Export Date {yyyy-MM-dd HH:mm:ss}
PROV.           : PROVINCE
UWI.   35/9-8   : UNIQUE WELL ID
API.            : API NUMBER
#==================================================================
~Curve
DEPT .m                   : DEPTH
Lithology_geolink ._      : Lithology_geolink
CALI .in                  : CALI
BS .in                    : BS
ROP .m/h                  : ROP
DRHO .g/cm3               : DRHO
THOR .ppm                 : THOR
NPHI .m3/m3               : NPHI
RHOB .g/cm3               : RHOB
PEF .b/e                  : PEF
GR .gAPI                  : GR
URAN .ppm                 : URAN
DTC .us/ft                : DTC
DTS .us/ft                : DTS
RDEP .ohm.m               : RDEP
RMIC .ohm.m               : RMIC
RMED .ohm.m               : RMED
~Parameter
#==================================================================
~Ascii
# ...
 2863.0349121 2.0000000000 8.4958000183 8.5000000000  -999.250000 0.0012000001 1.9988999367 0.2181999981 2.2915999889 3.0283000469 71.722000122 1.3299000263 84.451797485 159.76628113 1.8387000561 0.6010351181 1.6818000078
 2863.1875000 2.0000000000 8.5048999786 8.5000000000  -999.250000 -0.000100000 2.0755999088 0.2150000036 2.2953999043 3.1877000332 73.537696838 1.4737000465 83.730598450 159.71730042 1.8655999899 0.6231147051 1.7100000381
 2863.3398438 2.0000000000 8.5173997879 8.5000000000  -999.250000 -0.000300000 2.2455999851 0.2105000019 2.3099000454 3.3891000748 76.275001526 1.6985000372 83.188499451 159.52720642 2.0104000568 0.6903150678 1.8408000469
 2863.4921875 2.0000000000 8.5191001892 8.5000000000  -999.250000 -0.002300000 2.3031001091 0.2081000060 2.3341999054 3.5850000381 79.349998474 2.1275999546 83.060501099 159.04139709 2.2581999302 0.8868682981 2.0653998852
 2863.6445313 2.0000000000 8.5101003647 8.5000000000  -999.250000 -0.007900000 2.3793001175 0.2078000009 2.3596999645 3.7105998993 82.444099426 2.6370000839 83.222999573 158.44619751 2.5211999416 1.0536700487 2.3073000908
 2863.7968750 2.0000000000 8.5033998489 8.5000000000  -999.250000 -0.014000000 2.4920001030 0.2030999959 2.3803999424 3.7878000736 84.467002869 2.8747999668 83.754402161 157.93370056 2.6633999348 0.8480043411 2.4351999760
 2863.9494629 4.0000000000 8.5026998520 8.5000000000  -999.250000 -0.015400000 2.5474998951 0.1953999996 2.3901998997 3.7987999916 83.990402222 2.8296999931 84.375900269 157.53410339 2.6693999767 0.7885433435 2.4442000389
 2864.1018066 4.0000000000 8.5072002411 8.5000000000  -999.250000 -0.012400000 2.5855000019 0.1941000074 2.3791000843 3.6693000793 81.959999084 2.5725998878 84.875099182 157.11610413 2.5989000797 0.8332882524 2.3789000511
 2864.2541504 4.0000000000 8.5234003067 8.5000000000  -999.250000 -0.006900000 2.5464999676 0.2034000009 2.3540000916 3.4937000275 80.105697632 2.2864000797 85.156303406 156.45268250 2.4511001110 0.8882195354 2.2427999973
 2864.4064941 4.0000000000 8.5377998352 8.5000000000  -999.250000 -0.000600000 2.5448000431 0.2144999951 2.3352999687 3.3980998993 79.622299194 2.1054000854 84.806396484 155.12750244 2.2444999218 0.8379974365 2.0564999580
 2864.5590820 4.0000000000 8.5317001343 8.5000000000  -999.250000 0.0048000002 2.7427999973 0.2181999981 2.3318998814 3.3763000965 81.135200500 1.8865000010 83.968299866 153.43240356 2.1298000813 0.7742811441 1.9445999861
 2864.7114258 4.0000000000 8.5151996613 8.5000000000  -999.250000 0.0044000000 3.1568999290 0.2143999934 2.3341999054 3.3703999519 82.992103577 1.6428999901 82.504699707 151.54780579 2.2815999985 0.8308299780 2.0752999783
 2864.8637695 4.0000000000 8.5172004700 8.5000000000  -999.250000 0.0008000000 3.7056999207 0.2092999965 2.3380999565 3.3766000271 82.899101257 1.4982999563 80.847694397 149.86549377 2.4177999496 0.9116944075 2.1870000362
 2865.0161133 4.0000000000 8.5307998657 8.5000000000  -999.250000 -0.001100000 4.3406000137 0.2057999969 2.3454999924 3.4365000725 81.886497498 1.4081000090 79.321502686 148.78179932 2.4523999691 0.8460855484 2.2079000473
 2865.1687012 4.0000000000 8.5361003876 8.5000000000  -999.250000 -0.000900000 5.1118001938 0.2026000023 2.3601000309 3.5768001080 82.257400513 1.2941999435 78.184997559 148.36819458 2.8673999310 0.9654187560 2.5706000328
 2865.3210449 4.0000000000 8.5275001526 8.5000000000  -999.250000 0.0003000000 5.9493999481 0.2006999999 2.3859000206 3.7702999115 83.614303589 1.1475000381 77.736503601 148.87150574 3.8703999519 2.1253423691 3.4412000179
 2865.4733887 4.0000000000 8.5177001953 8.5000000000  -999.250000 0.0013000000 6.5271000862 0.2038999945 2.4214000702 3.9867999554 84.401000977 1.0355999470 78.055801392 150.17990112 4.5029001236 3.0855231285 3.9881999493
 2865.6257324 4.0000000000 8.5123996735 8.5000000000  -999.250000 0.0017000000 6.6434001923 0.2119999975 2.4572999477 4.2644000053 85.175697327 0.9607999921 79.158996582 152.06779480 4.2877998352 2.6639468670 3.7725000381
 2865.7780762 4.0000000000 8.5155000687 8.5000000000  -999.250000 0.0002000000 6.3994998932 0.2231999934 2.4732999802 4.5395998955 86.708801270 0.8823000193 80.790802002 154.13220215 3.6315000057 2.7545890808 3.1763999462
 2865.9306641 4.0000000000 8.5230998993 8.5000000000  -999.250000 -0.004700000 6.0068998337 0.2324000001 2.4482998848 4.5693001747 87.529098511 0.8075000048 82.533798218 156.08210754 2.8652000427 2.1843824387 2.4983999729
 2866.0830078 4.0000000000 8.5293998718 8.5000000000  -999.250000 -0.009700001 5.4865999222 0.2336000055 2.3963999748 4.3354001045 86.403503418 0.7030000091 84.053703308 157.84819031 2.4658999443 1.3683789968 2.1407999992
 2866.2353516 4.0000000000 8.5333995819 8.5000000000  -999.250000 -0.007300000 4.9126000404 0.2292000055 2.3598001003 4.0900001526 85.383903503 0.6014000177 85.302299500 159.50399780 2.4993999004 0.9816792011 2.1577999592
 2866.3876953 4.0000000000 8.5399999619 8.5000000000  -999.250000 0.0027000001 4.5394001007 0.2259999961 2.3534998894 4.0068001747 85.818496704 0.5338000059 86.226303101 160.89109802 2.7936000824 1.0927995443 2.3903000355
 2866.5402832 4.0000000000 8.5466003418 8.5000000000  -999.250000 0.0133999996 4.1930999756 0.2241999954 2.3585000038 3.9779999256 85.425003052 0.5252000093 86.923599243 161.93510437 2.5211999416 0.7806131244 2.1631999016
 2866.6926270 4.0000000000 8.5476999283 8.5000000000  -999.250000 0.0148999998 3.7102000713 0.2207999974 2.3496000767 3.8199000359 82.827301025 0.6999999881 87.213996887 162.49479675 2.1974000931 0.6600730419 1.9004000425
 2866.8449707 4.0000000000 8.5432996750 8.5000000000  -999.250000 0.0109000001 3.3645000458 0.2163999975 2.3308999538 3.5801000595 80.626296997 1.0111000538 87.233001709 162.90501404 2.1336998940 0.6433118582 1.8421000242
 2866.9973145 2.0000000000 8.5336999893 8.5000000000  -999.250000 0.0085000005 3.1986999512 0.2111999989 2.3181002140 3.3994998932 80.688400269 1.2813999653 86.877197266 163.23950195 2.1505999565 0.6507167816 1.8553999662
 2867.1499023 2.0000000000 8.5221004486 8.5000000000  -999.250000 0.0096000005 3.0761001110 0.2089000046 2.3155000210 3.3506000042 80.847801208 1.5181000233 86.419601440 163.52999878 2.1847000122 0.6612432003 1.8824000359
 2867.3022461 2.0000000000 8.5148000717 8.5000000000  -999.250000 0.0109999999 2.9672999382 0.2126999944 2.3152999878 3.4131999016 80.005996704 1.7432999611 86.014701843 163.65440369 2.2270998955 0.6747125387 1.9162000418
 2867.4545898 2.0000000000 8.5160999298 8.5000000000  -999.250000 0.0092000002 2.8359000683 0.2176000029 2.3103001118 3.4642000198 80.197502136 1.9169999361 85.739402771 163.79029846 2.2346999645 0.6825211644 1.9304000139
 2867.6069336 2.0000000000 8.5236997604 8.5000000000  -999.250000 0.0052000000 2.6882998943 0.2178999931 2.3036999702 3.4121999741 81.058097839 2.0276999474 85.701896667 164.27389526 2.2537999153 0.6956985593 1.9435000420
 2867.7592773 2.0000000000 8.5286998749 8.5000000000  -999.250000 0.0026000000 2.5722000599 0.2162999958 2.3006999493 3.3157000542 80.514503479 2.0446000099 85.781402588 165.05290222 2.2514998913 0.6947075129 1.9300999641
 2867.9118652 2.0000000000 8.5256004333 8.5000000000  -999.250000 0.0035999999 2.4737999439 0.2180999964 2.2999999523 3.2537999153 79.326896667 2.0204000473 85.964302063 166.04598999 2.2023999691 0.6369402409 1.8725999594
 2868.0642090 2.0000000000 8.5206003189 8.5000000000  -999.250000 0.0082000000 2.3717999458 0.2222000062 2.3006999493 3.2235999107 79.222999573 2.0186998844 86.164802551 166.94720459 2.1282999516 0.5996890664 1.7858999968
 2868.2165527 2.0000000000 8.5219001770 8.5000000000  -999.250000 0.0140000004 2.2843999863 0.2267999947 2.3041999340 3.1830000877 79.352500916 2.0673999786 86.322898865 167.53057861 2.0618999004 0.5929520726 1.7084000111
 2868.3688965 2.0000000000 8.5197000504 8.5000000000  -999.250000 0.0166999996 2.2186000347 0.2299000025 2.3083000183 3.0755999088 78.814796448 2.1570999622 86.405395508 167.78729248 2.1387999058 0.6255602837 1.7444000244
 2868.5214844 2.0000000000 8.5080995560 8.5000000000  -999.250000 0.0149999997 2.1905000210 0.2232999951 2.3127999306 2.9268999100 78.276199341 2.2321000099 86.414299011 167.69799805 2.3289999962 0.7254751921 1.8679000139
