# LAS format log file from PETREL
# Project units are specified as depth units
#==================================================================
~Version information
VERS.   2.0:
WRAP.   NO:
#==================================================================
~Well
STRT .m      1725.0000000 :
STOP .m      3754.9504395 :
STEP .m     0.00000000 :
NULL .        -999.250000 :
COMP.           : COMPANY
WELL.  35/9-6 S   : WELL
FLD.            : FIELD
LOC.            : LOCATION
SRVC.           : SERVICE COMPANY
DATE.  2018-09-11 14:49:02   : Log Export Date {yyyy-MM-dd HH:mm:ss}
PROV.           : PROVINCE
UWI.   35/9-6 S   : UNIQUE WELL ID
API.            : API NUMBER
#==================================================================
~Curve
DEPT .m                   : DEPTH
Lithology_geolink ._      : Lithology_geolink
CALI .in                  : CALI
DRHO .g/cm3               : DRHO
NPHI .m3/m3               : NPHI
RHOB .g/cm3               : RHOB
PEF .b/e                  : PEF
GR .gAPI                  : GR
DTC .us/ft                : DTC
RDEP .ohm.m               : RDEP
RMIC .ohm.m               : RMIC
RMED .ohm.m               : RMED
~Parameter
#==================================================================
~Ascii
# ...
 2796.0000000 13.000000000 12.235500336 0.0473838784 0.2202000022 2.5109000206  -999.250000 59.400001526 70.836303711 6.1061000824 4.4197001457 5.7218999863
 2796.1499023 13.000000000 12.172400475 0.0469016246 0.2190999985 2.5139999390  -999.250000 50.602699280 68.368301392 5.7397999763 4.4746999741 5.8808999062
 2796.3000488 13.000000000 12.095999718 0.0445039086 0.2099000067 2.5253999233  -999.250000 51.165401459 68.568298340 4.2129001617 3.6770999432 4.3509001732
 2796.4499512 13.000000000 12.069399834 0.0344999991 0.2067999989 2.5378999710  -999.250000 56.564701080 70.143402100 3.5248000622 3.1005001068 3.5216999054
 2796.6000977 13.000000000 12.042800903 0.0243999995 0.2037000060 2.5504000187  -999.250000 61.963901520 71.718498230 2.8366000652 2.5239999294 2.6923999786
 2796.7500000 13.000000000 12.073200226 0.0184000004 0.1829999983 2.6047000885  -999.250000 82.641799927 74.183998108 2.6024000645 1.9490000010 2.3296999931
 2796.9001465 13.000000000 12.061200142 0.0155999996 0.1356000006 2.6510999203  -999.250000 90.771301270 81.198501587 2.6293001175 1.6075999737 2.2781000137
 2797.0500488 13.000000000 12.247900009 0.0131999999 0.0852999985 2.6040999889  -999.250000 85.101402283 83.641098022 2.8122999668 1.8819999695 2.2699000835
 2797.2001953 13.000000000 12.291099548 0.0491000041 0.0641999990 2.5603001118  -999.250000 84.835899353 83.531700134 3.1184000969 1.8674999475 2.3115999699
 2797.3500977 13.000000000 12.221199989 0.0507999994 0.0689427629 2.5450210571  -999.250000 78.609397888 80.324096680 3.2659401894 1.8562959433 2.6325249672
 2797.5002441 13.000000000 12.188599586 0.0284000002 0.0952679142 2.4967007637  -999.250000 71.626197815 78.630996704 2.6762564182 1.6697432995 2.0337486267
 2797.6501465 13.000000000 12.169599533 0.0303000007 0.1370198578 2.4972305298  -999.250000 75.055801392 79.277206421 2.4656908512 1.7580331564 2.0024342537
 2797.8002930 13.000000000 12.182800293 0.0399999991 0.2105269879 2.5159018040  -999.250000 85.048103333 79.231597900 2.4603815079 2.0236432552 2.0854623318
 2797.9501953 13.000000000 12.093899727 0.0233999994 0.2187845260 2.5165190697  -999.250000 86.565399170 80.500602722 2.5466396809 2.0366141796 2.3190729618
 2798.0998535 13.000000000 12.098600388 0.0170208141 0.2092999965 2.5281999111  -999.250000 82.243499756 81.507102966 2.5097000599 1.8614000082 2.3025000095
 2798.2500000 13.000000000 12.152999878 0.0130065149 0.1995999962 2.5408000946  -999.250000 87.412048340 82.447303772 2.3766000271 1.6374000311 2.0587999821
 2798.3999023 13.000000000 12.190299988 0.0290476438 0.1621000022 2.5406000614  -999.250000 91.077201843 82.880798340 2.4962999821 1.5634000301 2.0833001137
 2798.5500488 13.000000000 12.203100204 0.0244076550 0.1650999933 2.5044000149  -999.250000 81.058502197 82.630798340 2.8798000813 1.6286000013 2.4084999561
 2798.6999512 13.000000000 12.180400848 0.0363609754 0.1658000052 2.5111000538  -999.250000 61.463298798 80.219497681 3.5625998974 1.7955000401 3.0841999054
 2798.8500977 13.000000000 12.230300903 0.0370000005 0.1933999956 2.5116999149  -999.250000 61.560398102 77.025802612 3.9484999180 2.7995998859 3.5178000927
 2799.0000000 13.000000000 12.217598915 0.0439999998 0.2177000046 2.5218000412  -999.250000 59.783199310 75.836502075 2.9951999187 2.4135999680 2.4928998947
 2799.1501465 13.000000000 12.154100418 0.0381000005 0.2327000052 2.5148000717  -999.250000 72.313400269 75.636100769 2.4370000362 1.9543999434 2.1068000793
 2799.3000488 13.000000000 12.175900459 0.0264999997 0.2118999958 2.4942998886  -999.250000 84.657897949 78.556610107 2.3159999847 1.8424999714 1.9093999863
 2799.4501953 13.000000000 12.172499657 0.0339000002 0.1792999953 2.5099999905  -999.250000 84.602996826 82.001403809 2.3232998848 1.7775000334 1.8846000433
 2799.6000977 13.000000000 12.111600876 0.0328000002 0.1785999984 2.5662000179  -999.250000 87.583000183 85.295303345 2.3755135536 1.5495986938 2.0287942886
 2799.7502441 13.000000000 12.160499573 0.0241000000 0.1631682813 2.6064462662  -999.250000 83.023902893 87.889099121 2.3835704327 1.6723202467 2.0855236053
 2799.9001465 13.000000000 12.184599876 0.0292000007 0.1227586344 2.5899524689  -999.250000 81.162902832 87.581901550 2.2825944424 1.9538245201 1.7864959240
 2800.0502930 13.000000000 12.168999672 0.0388999991 0.0973951221 2.5606627464  -999.250000 79.982200623 86.890403748 2.2791366577 1.6015006304 1.9066735506
 2800.2001953 13.000000000 12.186800003 0.0221999995 0.0959630311 2.5185921192  -999.250000 88.236503601 86.866996765 2.2292015553 1.7240902185 1.9292120934
 2800.3503418 13.000000000 12.264200211 0.0353999995 0.1346874833 2.5137565136  -999.250000 81.904998779 86.985702515 2.2914955616 1.5951240063 1.9368408918
 2800.5000000 13.000000000 12.167499542 0.0411905535 0.1615000069 2.5311000347  -999.250000 79.804527283 86.004592896 2.2901000977 1.4799000025 2.0106999874
 2800.6499023 13.000000000 12.160200119 0.0373126864 0.1878000051 2.5371000767  -999.250000 83.644454956 85.430900574 2.3571999073 1.5925999880 2.0195000172
 2800.8000488 13.000000000 12.151801109 0.0339055359 0.1808999926 2.5332000256  -999.250000 85.563697815 85.537498474 2.3482999802 1.8935999870 2.0962998867
 2800.9499512 13.000000000 12.201699257 0.0289162602 0.1975000054 2.5165998936  -999.250000 75.722297668 85.124801636 2.7778999805 2.0476999283 2.2509999275
 2801.1000977 13.000000000 12.185400009 0.0416000001 0.1939000040 2.5299999714  -999.250000 77.882003784 84.510299683 2.7969000340 2.1163001060 2.3303000927
 2801.2500000 13.000000000 12.218099594 0.0395000018 0.1879999936 2.5244998932  -999.250000 81.420700073 83.701896667 2.7244999409 1.7782000303 2.3996999264
 2801.4001465 13.000000000 12.228699684 0.0439999998 0.1773000062 2.5225000381  -999.250000 71.970497131 81.666397095 2.7288999557 1.7538000345 2.3301999569
 2801.5500488 13.000000000 12.203499794 0.0353000015 0.1790000051 2.4995000362  -999.250000 58.384300232 78.493896484 3.0006000996 2.3499000072 2.3527998924
 2801.7001953 13.000000000 12.181099892 0.0333999991 0.1956000030 2.5122001171  -999.250000 58.038799286 76.833396912 3.4151999950 2.2011001110 2.5792000294
 2801.8500977 13.000000000 12.181300163 0.0383000001 0.1973000020 2.5325999260  -999.250000 56.166301727 75.117599487 3.8887999058 2.4263000488 3.0660998821
 2802.0002441 13.000000000 12.208499908 0.0381999984 0.2082323581 2.5474460125  -999.250000 57.145698547 73.544296265 4.2959275246 2.3853905201 3.5563099384
 2802.1501465 12.000000000 12.252700806 0.0388999991 0.1875363141 2.5308787823  -999.250000 47.580898285 72.046096802 4.4894204140 2.3835082054 3.5908119678
 2802.3002930 12.000000000 12.170100212 0.0370999984 0.2097135037 2.5179202557  -999.250000 44.343700409 70.517402649 5.1766676903 3.0070283413 4.0898933411
 2802.4501953 12.000000000 12.093999863 0.0285999998 0.1831944585 2.5241389275  -999.250000 52.420600891 70.770896912 5.2884202003 4.6699795723 4.4855284691
 2802.6003418 12.000000000 12.061800003 0.0175000001 0.1795856953 2.5479538441  -999.250000 60.779499054 72.618202209 4.6838006973 4.1622972488 4.0700354576
 2802.7502441 12.000000000 12.143199921 0.0162000004 0.1139071658 2.5645298958  -999.250000 59.112899780 74.580596924 3.5193068981 2.7515757084 2.8855953217
 2802.8999023 12.000000000 12.121899605 0.0241739843 0.1182999983 2.5827999115  -999.250000 57.882911682 75.028198242 3.5236001015 2.7980999947 2.9440999031
 2803.0500488 13.000000000 12.031900406 0.0054306192 0.0813999996 2.5829999447  -999.250000 58.825298309 75.666999817 3.5650999546 2.1740000248 3.0220000744
 2803.1999512 13.000000000 12.093799591 0.0012068405 0.0714000016 2.5847001076  -999.250000 56.139499664 74.850502014 3.6463000774 2.0069000721 2.9156000614
 2803.3500977 13.000000000 12.185700417 0.0060920324 0.0579999983 2.5885000229  -999.250000 64.308700562 74.561996460 3.6187999249 2.4732999802 2.9072000980
 2803.5000000 13.000000000 12.146399498 0.0125000002 0.0617000014 2.5457999706  -999.250000 57.046199799 75.988098145 3.6621000767 2.5589001179 2.7948000431
