# LAS format log file from PETREL
# Project units are specified as depth units
#==================================================================
~Version information
VERS.   2.0:
WRAP.   NO:
#==================================================================
~Well
STRT .m      2949.7507324 :
STOP .m      3605.5278320 :
STEP .m     0.00000000 :
NULL .        -999.250000 :
COMP.           : COMPANY
WELL.  35/9-10 S   : WELL
FLD.            : FIELD
LOC.            : LOCATION
SRVC.           : SERVICE COMPANY
DATE.  2018-09-11 14:49:01   : Log Export Date {yyyy-MM-dd HH:mm:ss}
PROV.           : PROVINCE
UWI.   35/9-10 S   : UNIQUE WELL ID
API.            : API NUMBER
#==================================================================
~Curve
DEPT .m                   : DEPTH
Lithology_geolink ._      : Lithology_geolink
CALI .in                  : CALI
BS .in                    : BS
ROP .m/h                  : ROP
DRHO .g/cm3               : DRHO
THOR .ppm                 : THOR
NPHI .m3/m3               : NPHI
RHOB .g/cm3               : RHOB
PEF .b/e                  : PEF
GR .gAPI                  : GR
URAN .ppm                 : URAN
DTC .us/ft                : DTC
DTS .us/ft                : DTS
RDEP .ohm.m               : RDEP
RMED .ohm.m               : RMED
~Parameter
#==================================================================
~Ascii
# ...
 3508.4489746 6.0000000000 8.5459003448 8.5000000000 87.998321533 0.0571000017 18.748300552 0.3662000000 2.6710813046 4.8383021355 93.987098694 0.0016000000 86.415100098 169.88769531 6.8730001450 6.7434000969
 3508.6015625 6.0000000000 8.5541000366 8.5000000000 85.152526855 0.0438000001 19.086999893 0.3799999952 2.6083006859 4.1365213394 102.85169983 0.0016000000 86.168403625 170.60189819 6.7361998558 6.6163997650
 3508.7539063 6.0000000000 8.5521001816 8.5000000000 89.008239746 0.0284000002 19.417699814 0.4000999928 2.5726568699 3.7446272373 108.94650269 0.0016000000 85.911399841 169.75860596 6.5475997925 6.4377999306
 3508.9062500 6.0000000000 8.5530004501 8.5000000000 96.734985352 0.0151000004 19.672800064 0.4038999975 2.5688061714 3.5561015606 107.99929810 0.0016000000 86.609992981 167.47630310 6.4246997833 6.3222999573
 3509.0585938 6.0000000000 8.5630998611 8.5000000000 98.054855347 0.0048000002 19.884099960 0.3804999888 2.5793662071 3.6070353985 103.92630005 0.0016000000 86.987396240 167.66810608 6.3291997910 6.2322998047
 3509.2111816 6.0000000000 8.5670995712 8.5000000000 100.67887115 -0.001300000 19.965999603 0.3592999876 2.5896835327 3.9203972816 101.09140015 0.0016000000 87.202102661 167.15400696 6.2786998749 6.1849999428
 3509.3635254 6.0000000000 8.5511999130 8.5000000000 98.757690430 -0.003300000 19.836099625 0.3695000112 2.5881025791 4.2632508278 100.58110046 0.0016000000 86.907501221 168.58720398 6.3267002106 6.2336997986
 3509.5158691 6.0000000000 8.5338001251 8.5000000000 94.904144287 -0.005000000 19.526399612 0.4025999904 2.5640385151 4.3557519913 101.77339935 0.0016000000 86.924598694 168.23579407 6.4099998474 6.3161001205
 3509.6682129 6.0000000000 8.5353002548 8.5000000000 96.613586426 -0.000800000 19.061700821 0.4153999984 2.5419707298 4.2962913513 103.36900330 0.0016000000 87.571098328 167.68200684 6.4479999542 6.3534002304
 3509.8208008 6.0000000000 8.5558004379 8.5000000000 100.05518341 0.0160000008 18.544500351 0.3932000101 2.5381062031 4.1948623657 104.23470306 0.0016000000 88.875892639 168.90589905 6.4611001015 6.3660998344
 3509.9731445 6.0000000000 8.5815000534 8.5000000000 93.676918030 0.0372000001 17.988399506 0.3736999929 2.5415942669 3.9681634903 104.20770264 0.0984999985 90.894088745 172.87800598 6.5451002121 6.4489998817
 3510.1254883 6.0000000000 8.5862998962 8.5000000000 90.474617004 0.0551000014 17.489799500 0.3743000031 2.5531814098 3.6721744537 103.50769806 0.3722000122 91.763496399 175.52201843 6.7845001221 6.6858000755
 3510.2778320 6.0000000000 8.5650997162 8.5000000000 90.509452820 0.0612000003 17.093799591 0.3831000030 2.5673773289 3.5337214470 103.23799896 0.6189000010 92.203002930 179.83540344 7.1868000031 7.0840997696
 3510.4301758 6.0000000000 8.5445003510 8.5000000000 90.529785156 0.0476000011 16.959999084 0.3921999931 2.5600235462 3.6238100529 104.76989746 0.7190999985 92.827499390 183.23680115 7.6420001984 7.5357999802
 3510.5827637 6.0000000000 8.5459995270 8.5000000000 94.111373901 0.0196000002 16.807800293 0.4040000141 2.5240576267 3.7460043430 106.76899719 0.8349000216 93.949203491 187.09280396 7.9299001694 7.8239998817
 3510.7351074 6.0000000000 8.5574998856 8.5000000000 95.908210754 -0.002600000 16.803499222 0.4194999933 2.4908530712 3.7669665813 106.61299896 0.8269000053 95.353698730 186.63830566 7.9548001289 7.8534002304
 3510.8874512 6.0000000000 8.5648002625 8.5000000000 105.83348083 -0.007600000 16.947799683 0.4223999977 2.4859077930 3.7568163872 105.35359955 0.7027000189 96.589691162 186.41340637 7.8930997849 7.7975997925
 3511.0397949 6.0000000000 8.5692996979 8.5000000000 110.80267334 -0.006200000 17.085100174 0.4242999852 2.4910833836 3.7975690365 105.32150269 0.5558999777 97.979690552 184.93348694 7.9092001915 7.8186001778
 3511.1923828 6.0000000000 8.5671997070 8.5000000000 110.34983826 -0.006000000 17.038200378 0.4282000065 2.4850096703 3.8162701130 106.08270264 0.4600000083 98.150901794 185.18130493 7.9457001686 7.8590002060
 3511.3447266 6.0000000000 8.5586996078 8.5000000000 110.11487579 -0.005500000 16.927400589 0.4268000126 2.4729192257 3.7687761784 105.51730347 0.4002999961 97.850502014 184.23068237 7.8991999626 7.8164000511
 3511.4970703 6.0000000000 8.5480003357 8.5000000000 107.04463196 -0.000500000 16.817600250 0.4372999966 2.4694056511 3.7844746113 103.94779968 0.3617999852 95.577201843 182.37519836 7.7456002235 7.6669998169
 3511.6494141 6.0000000000 8.5408000946 8.5000000000 105.50754547 0.0082999999 16.771799088 0.4618000090 2.4686026573 3.9580428600 103.19069672 0.3280999959 94.120788574 180.99920654 7.4949998856 7.4208998680
 3511.8020020 6.0000000000 8.5353002548 8.5000000000 97.259620667 0.0148000000 16.870199203 0.4580999911 2.4575178623 4.1894292831 103.62809753 0.2856999934 92.691802979 180.40800476 7.1918001175 7.1223998070
 3511.9543457 6.0000000000 8.5295000076 8.5000000000 93.124725342 0.0208000001 17.116600037 0.4212000072 2.4531071186 4.3063130379 104.12200165 0.2452999800 91.906196594 180.51478577 6.9271001816 6.8622999191
 3512.1066895 6.0000000000 8.5285997391 8.5000000000 88.122848511 0.0302000009 17.429199219 0.3941999972 2.4820535183 4.2531852722 103.92569733 0.1995999962 91.500511169 180.51420593 6.7795000076 6.7188000679
 3512.2590332 6.0000000000 8.5385999680 8.5000000000 85.617195129 0.0318000019 17.641300201 0.3928000033 2.5216364861 4.0980486870 104.05770111 0.1941999942 91.476989746 180.84460449 6.7379999161 6.6810998917
 3512.4113770 6.0000000000 8.5507001877 8.5000000000 81.736526489 0.0115999999 17.624300003 0.4111999869 2.5259861946 3.9392089844 103.48899841 0.3052999973 92.169898987 180.73390198 6.7209000587 6.6714000702
 3512.5639648 6.0000000000 8.5571002960 8.5000000000 79.782638550 -0.013700000 17.425600052 0.4228999913 2.5128211975 3.8059132099 101.20999908 0.5052999854 92.815910339 180.65132141 6.6914000511 6.6500000954
 3512.7163086 6.0000000000 8.5643997192 8.5000000000 89.163085938 -0.026799999 17.094499588 0.4128000140 2.5192894936 3.7608718872 98.999000549 0.7182999849 92.764602661 180.24470520 6.6912999153 6.6543002129
 3512.8686523 6.0000000000 8.5683002472 8.5000000000 91.524116516 -0.027400000 16.702499390 0.4058000147 2.5382695198 3.8448650837 99.150497437 0.8840000033 92.058799744 178.28507996 6.7532000542 6.7164001465
 3513.0209961 6.0000000000 8.5635995865 8.5000000000 90.532073975 -0.018300001 16.511100769 0.4153000116 2.5543484688 3.9758799076 100.05000305 0.9362999797 90.882095337 176.59449768 6.8406000137 6.8091001511
 3513.1735840 6.0000000000 8.5720996857 8.5000000000 83.832023621 -0.000500000 16.589700699 0.4314999878 2.5674791336 4.0408964157 99.725997925 0.8320000172 89.876800537 174.92691040 6.8730001450 6.8470001221
 3513.3259277 6.0000000000 8.5936002731 8.5000000000 84.762138367 0.0305000003 16.886199951 0.4395999908 2.5825760365 4.0682559013 100.10639954 0.5575000048 89.623199463 174.53930664 6.8098998070 6.7892999649
 3513.4782715 6.0000000000 8.5890998840 8.5000000000 86.622375488 0.0562999994 17.447399139 0.4381999969 2.5765097141 4.1080360413 102.42289734 0.0573999994 89.856201172 175.02951050 6.6803002357 6.6642999649
 3513.6306152 6.0000000000 8.5591001511 8.5000000000 90.655509949 0.0680999979 18.238899231 0.4420999885 2.5480914116 4.0603532791 105.33719635 0.0016000000 90.622009277 175.33691406 6.5274000168 6.5144000053
 3513.7832031 6.0000000000 8.5439996719 8.5000000000 98.721786499 0.0665000007 18.792600632 0.4401000142 2.5248372555 3.8142948151 106.69259644 0.0016000000 90.967803955 175.51121521 6.4018998146 6.3902001381
 3513.9355469 6.0000000000 8.5592002869 8.5000000000 98.986877441 0.0531000011 18.860200882 0.4345999956 2.5306904316 3.4353077412 106.89659882 0.0016000000 91.058998108 176.06359863 6.3470997810 6.3348999023
 3514.0878906 6.0000000000 8.5857000351 8.5000000000 99.517387390 0.0261000004 18.583000183 0.4458000064 2.5539624691 3.1342823505 106.06970215 0.0016000000 91.095794678 176.58728027 6.3478999138 6.3334999084
 3514.2402344 6.0000000000 8.5999002457 8.5000000000 98.829071045 -0.007200000 18.145099640 0.4609000087 2.5644831657 3.1018512249 104.07379913 0.0016000000 90.843002319 176.97996521 6.3810000420 6.3632998466
