# LAS format log file from PETREL
# Project units are specified as depth units
#==================================================================
~Version information
VERS.   2.0:
WRAP.   NO:
#==================================================================
~Well
STRT .m      2726.1311035 :
STOP .m      3477.3107910 :
STEP .m     0.00000000 :
NULL .        -999.250000 :
COMP.           : COMPANY
WELL.  35/9-5   : WELL
FLD.            : FIELD
LOC.            : LOCATION
SRVC.           : SERVICE COMPANY
DATE.  2018-09-11 14:49:02   : Log Export Date {yyyy-MM-dd HH:mm:ss}
PROV.           : PROVINCE
UWI.   35/9-5   : UNIQUE WELL ID
API.            : API NUMBER
#==================================================================
~Curve
DEPT .m                   : DEPTH
Lithology_geolink ._      : Lithology_geolink
CALI .in                  : CALI
BS .in                    : BS
ROP .m/h                  : ROP
DRHO .g/cm3               : DRHO
THOR .ppm                 : THOR
NPHI .m3/m3               : NPHI
RHOB .g/cm3               : RHOB
PEF .b/e                  : PEF
GR .gAPI                  : GR
URAN .ppm                 : URAN
DTC .us/ft                : DTC
DTS .us/ft                : DTS
RDEP .ohm.m               : RDEP
RMIC .ohm.m               : RMIC
RMED .ohm.m               : RMED
~Parameter
#==================================================================
~Ascii
# ...
 3323.8439941 7.0000000000 8.4111003876 8.5000000000 34.828083038 0.0031999999 15.027999878 0.3510999978 2.4825000763 3.3861999512 133.39059448 3.2902998924 97.202301025 192.80180359 3.2190001011 1.6785999537 3.7441999912
 3323.9965820 6.0000000000 8.4186000824 8.5000000000 37.643699646 0.0159000009 15.268698692 0.3420999944 2.4986000061 3.5076000690 130.28010559 3.0927999020 98.324600220 196.48901367 3.5348000526 1.5543999672 3.9291999340
 3324.1489258 6.0000000000 8.4186000824 8.5000000000 38.286087036 0.0230999999 14.984199524 0.3438000083 2.5058000088 3.5834000111 127.10169983 3.0869998932 98.411598206 199.62930298 3.7272999287 1.5307999849 3.9704000950
 3324.3012695 6.0000000000 8.4786996841 8.5000000000 40.049213409 0.0281000007 14.773500443 0.3409999907 2.5157999992 3.5573000908 125.50990295 2.9602000713 98.468299866 198.64889526 3.2811999321 1.5394999981 3.2000999451
 3324.4536133 6.0000000000 8.4035997391 8.5000000000 39.040355682 0.0190999992 15.554100037 0.3443000019 2.4995999336 3.4651000500 127.81300354 2.6817998886 98.559501648 200.79339600 3.7346999645 1.5405999422 3.5381999016
 3324.6062012 6.0000000000 7.8253998756 8.5000000000 37.814304352 0.0131999999 15.516699791 0.3643999994 2.4846000671 3.4102001190 128.04570007 3.0748000145 99.260002136 201.70539856 3.5480999947 1.5151000023 3.6157000065
 3324.7585449 6.0000000000 7.9305000305 8.5000000000 37.012794495 0.0086000003 15.388899803 0.3919000030 2.4702999592 3.4188001156 124.29570007 3.5274000168 99.678802490 203.19700623 3.3838999271 1.5053999424 3.7091000080
 3324.9108887 6.0000000000 7.9681000710 8.5000000000 35.972770691 0.0151000004 15.690999031 0.4198000133 2.4769999981 3.4776999950 124.16600037 4.2037000656 100.39810181 205.45318604 3.1918001175 1.5072000027 3.6749000549
 3325.0632324 6.0000000000 8.0806999207 8.5000000000 36.215549469 0.0183000006 16.398799896 0.3923999965 2.4886000156 3.5302999020 128.24440002 4.4007000923 100.61920166 205.80619812 3.3085000515 1.5240000486 3.5401999950
 3325.2158203 7.0000000000 8.2384004593 8.5000000000 37.121391296 0.0184000004 16.554899216 0.4129999876 2.5020999908 3.5432999134 130.49159241 4.6559000015 100.71450043 205.92878723 3.3529000282 1.6524000168 3.5053999424
 3325.3681641 7.0000000000 8.4035997391 8.5000000000 37.155841827 0.0074999998 17.144500732 0.3993000090 2.4921000004 3.5313999653 130.70880127 4.7817997932 100.89840698 206.12590027 3.0534999371 1.7680000067 3.6651999950
 3325.5205078 7.0000000000 8.4148998260 8.5000000000 36.142387390 0.0015000000 16.811500549 0.4056999981 2.4806001186 3.5074000359 132.83079529 4.6873002052 100.76460266 206.32319641 2.9486000538 1.7703000307 3.4193000793
 3325.6728516 7.0000000000 8.4186000824 8.5000000000 36.878608704 0.0020999999 16.157800674 0.4000999928 2.4835000038 3.4577000141 138.19360352 4.6708998680 101.18520355 207.14959717 2.9365999699 1.6819000244 3.0977001190
 3325.8251953 7.0000000000 8.3886003494 8.5000000000 37.445537567 0.0037000000 16.203899384 0.4221000075 2.4944999218 3.3452999592 140.14880371 4.6638998985 102.42839050 208.57679749 3.1989998817 1.6319999695 3.5095000267
 3325.9777832 7.0000000000 8.3961000443 8.5000000000 38.115158081 0.0044000000 16.620700836 0.4201000035 2.5048000813 3.2244999409 138.33859253 4.4386000633 102.00019836 208.94311523 2.9633998871 1.6237000227 2.9742999077
 3326.1301270 7.0000000000 8.3810997009 8.5000000000 38.448162079 0.0031000001 16.000699997 0.4093999863 2.5023999214 3.1458001137 137.32240295 4.3944001198 101.63040161 210.31469727 3.1175999641 1.6003999710 3.3684000969
 3326.2824707 7.0000000000 8.4035997391 8.5000000000 39.482284546 0.0048000002 15.617601395 0.3964000046 2.5011000633 3.1651000977 139.06770325 4.3123002052 101.61120605 209.69009399 3.2788000107 1.6131999493 3.5738000870
 3326.4348145 7.0000000000 8.3923997879 8.5000000000 39.452426910 0.0082000000 15.560799599 0.3998000026 2.4990000725 3.2583000660 142.97979736 3.8833999634 101.02839661 209.77540588 3.3243000507 1.5884000063 4.1195001602
 3326.5874023 7.0000000000 8.4035997391 8.5000000000 39.591537476 0.0190999992 15.885399818 0.4018000066 2.5109999180 3.3703000546 144.60310364 3.2481000423 100.62590027 205.17939758 3.0743999481 1.6304999590 3.1454000473
 3326.7397461 7.0000000000 8.4373998642 8.5000000000 39.715549469 0.0197999999 15.628800392 0.4070999920 2.5225999355 3.3756999969 145.20320129 3.3066999912 100.41349792 204.66180420 2.6426000595 1.8062000275 2.7908000946
 3326.8920898 7.0000000000 8.4598999023 8.5000000000 39.577098846 0.0168999992 16.388599396 0.4158999920 2.5348999500 3.2757999897 142.52999878 3.1998999119 99.306198120 204.70080566 2.5304000378 1.8767000437 2.7518000603
 3327.0444336 6.0000000000 8.4336996078 8.5000000000 40.445865631 0.0051000002 16.810899734 0.4081999958 2.5195999146 3.2053999901 133.92810059 2.9140999317 99.106903076 201.25849915 2.7925000191 1.8511999846 2.9802999496
 3327.1970215 6.0000000000 8.4412002563 8.5000000000 39.931430817 0.0011000000 17.083900452 0.4072000086 2.4988999367 3.2076001167 126.72200012 2.8645999432 98.015403748 199.59590149 3.2140998840 1.8273999691 3.5111999512
 3327.3493652 6.0000000000 8.4148998260 8.5000000000 39.732940674 0.0019000000 17.357900620 0.3898999989 2.4874000549 3.2774999142 125.00820160 2.9435999393 98.661598206 200.51110840 3.7009000778 1.8027000427 4.0114002228
 3327.5017090 6.0000000000 8.4148998260 8.5000000000 38.799213409 0.0044999998 17.549200058 0.3878999949 2.4923000336 3.3146998882 127.70989990 3.2174999714 98.670402527 200.57789612 4.0237002373 1.8777999878 4.4114999771
 3327.6540527 6.0000000000 8.4336996078 8.5000000000 39.673557281 0.0074000000 17.209400177 0.3806000054 2.5032999516 3.3204998970 131.02009583 3.7741000652 98.694808960 200.70910645 3.5051999092 1.9897999763 3.7679998875
 3327.8063965 6.0000000000 8.4373998642 8.5000000000 39.370407104 0.0063999998 16.181800842 0.3941000104 2.5048999786 3.2936000824 130.27200317 4.0602002144 98.672698975 200.65060425 3.6194999218 2.1052000523 3.8364000320
 3327.9589844 7.0000000000 8.4486999512 8.5000000000 40.415351868 0.0046000001 15.227600098 0.3835000098 2.5053000450 3.2486999035 130.43539429 3.8164999485 98.665000916 200.63619995 3.2757000923 1.9957000017 3.3092000484
 3328.1113281 7.0000000000 8.4486999512 8.5000000000 40.238517761 0.0023000001 15.037500381 0.3939000070 2.5000000000 3.2381999493 131.53309631 3.6375999451 98.671096802 200.60929871 3.0064001083 1.9477000237 3.0926001072
 3328.2636719 7.0000000000 8.4412002563 8.5000000000 40.674213409 0.0020000001 15.028599739 0.3889000118 2.4992001057 3.2525999546 131.91709900 4.0872998238 98.744003296 200.65040588 3.0764999390 2.0452001095 3.6779000759
 3328.4160156 7.0000000000 8.4486999512 8.5000000000 41.748687744 0.0022000000 14.623000145 0.3959999979 2.4993999004 3.2674999237 134.14109802 3.9040000439 98.712600708 200.77699280 3.0869998932 2.1421000957 3.6679000854
 3328.5686035 7.0000000000 8.4373998642 8.5000000000 41.015750885 0.0040000002 14.027400017 0.3837000132 2.5067999363 3.2493999004 131.61329651 4.1447000504 98.707199097 200.84869385 3.3573000431 2.1686999798 3.7651998997
 3328.7209473 7.0000000000 8.4373998642 8.5000000000 41.687992096 0.0164999999 13.055899620 0.3799999952 2.5280001163 3.2509999275 125.65779877 4.3653998375 98.745101929 200.78761292 3.2072000504 2.0994999409 3.5450000763
 3328.8732910 7.0000000000 8.4598999023 8.5000000000 41.395339966 0.0173000004 12.749699593 0.3549999893 2.5301001072 3.2639999390 126.12779999 4.4724001884 98.726997375 200.86779785 3.2481999397 2.0448000431 3.3763000965
 3329.0256348 7.0000000000 8.4637002945 8.5000000000 42.006561279 0.0164000001 13.106599808 0.3425999880 2.5283000469 3.3106999397 132.71389771 4.5762000084 98.689598083 200.91529846 3.4491999149 2.0859999657 3.7769000530
 3329.1782227 7.0000000000 8.4561996460 8.5000000000 42.106956482 0.0044000000 13.137100220 0.3601000011 2.5144999027 3.3429999352 136.17210388 4.4612998962 98.674301147 200.93899536 3.6494998932 2.2469999790 4.0549998283
 3329.3305664 7.0000000000 8.4561996460 8.5000000000 41.166996002 0.0040000002 13.167699814 0.3808000088 2.5215001106 3.3547999859 133.83889771 4.3463997841 98.675498962 200.95658875 3.7941000462 2.6589000225 6.0598998070
