# LAS format log file from PETREL
# Project units are specified as depth units
#==================================================================
~Version information
VERS.   2.0:
WRAP.   NO:
#==================================================================
~Well
STRT .m      1725.0000000 :
STOP .m      3754.9504395 :
STEP .m     0.00000000 :
NULL .        -999.250000 :
COMP.           : COMPANY
WELL.  35/9-6 S   : WELL
FLD.            : FIELD
LOC.            : LOCATION
SRVC.           : SERVICE COMPANY
DATE.  2018-09-11 14:49:02   : Log Export Date {yyyy-MM-dd HH:mm:ss}
PROV.           : PROVINCE
UWI.   35/9-6 S   : UNIQUE WELL ID
API.            : API NUMBER
#==================================================================
~Curve
DEPT .m                   : DEPTH
Lithology_geolink ._      : Lithology_geolink
CALI .in                  : CALI
DRHO .g/cm3               : DRHO
NPHI .m3/m3               : NPHI
RHOB .g/cm3               : RHOB
PEF .b/e                  : PEF
GR .gAPI                  : GR
DTC .us/ft                : DTC
RDEP .ohm.m               : RDEP
RMIC .ohm.m               : RMIC
RMED .ohm.m               : RMED
~Parameter
#==================================================================
~Ascii
# ...
 2665.9501953 13.000000000 12.232099533 0.0447999984 0.1961999983 2.4342999458  -999.250000 81.413902283 93.347198486 1.6368999481 1.2984999418 1.4426000118
 2666.1000977 13.000000000 12.207699776 0.0373000018 0.2165029198 2.4394385815  -999.250000 76.667396545 90.765998840 1.9204230309 1.1531306505 1.6859372854
 2666.2502441 13.000000000 12.254500389 0.0436999984 0.2182999998 2.4632279873  -999.250000 87.410003662 88.961898804 2.1802368164 1.3565272093 1.9544540644
 2666.4001465 13.000000000 12.279000282 0.0494999997 0.2182882726 2.4803671837  -999.250000 84.277801514 88.555000305 2.2025804520 1.5569510460 1.9875149727
 2666.5502930 13.000000000 12.274999619 0.0351999998 0.2111315429 2.4602017403  -999.250000 85.002197266 89.558601379 2.1293282509 1.4657460451 1.9353996515
 2666.7001953 13.000000000 12.282600403 0.0381000005 0.2208014578 2.4608249664  -999.250000 95.599296570 90.923301697 2.1073274612 1.5107913017 1.9353690147
 2666.8498535 13.000000000 12.246100426 0.0476687811 0.2216999978 2.4760999680  -999.250000 98.669982910 89.072700500 2.1240999699 1.6893999577 1.9776999950
 2667.0000000 13.000000000 12.289500237 0.0431074910 0.2310000062 2.4783000946  -999.250000 92.197898865 85.968597412 2.1145999432 1.5275000334 1.9119000435
 2667.1499023 13.000000000 12.233301163 0.0492798388 0.2236000001 2.4774000645  -999.250000 93.339797974 86.126800537 2.0341000557 1.5762000084 1.8198000193
 2667.3000488 13.000000000 12.177000046 0.0372197069 0.2238000035 2.4651999474  -999.250000 91.143302917 87.901710510 1.9278999567 1.3414000273 1.7250000238
 2667.4499512 13.000000000 12.253700256 0.0318999998 0.2405000031 2.4497001171  -999.250000 92.081001282 91.824501038 1.8121999502 1.4327000380 1.6822999716
 2667.6000977 13.000000000 12.232899666 0.0441000015 0.2143999934 2.4653999805  -999.250000 91.490699768 95.447196960 1.8140000105 1.3092999458 1.6845999956
 2667.7500000 13.000000000 12.192700386 0.0274999999 0.2045000046 2.4372000694  -999.250000 90.574996948 98.445495605 1.5329999924 1.1778999567 1.3458000422
 2667.9001465 13.000000000 12.182299614 0.0298999995 0.2124000043 2.4365000725  -999.250000 96.888496399 97.002410889 1.5645999908 1.0700000525 1.3385000229
 2668.0500488 13.000000000 12.166299820 0.0339000002 0.2342000008 2.4463000298  -999.250000 89.687500000 94.805702209 1.8583999872 1.3087999821 1.5753999949
 2668.2001953 13.000000000 12.208299637 0.0428000018 0.2265000045 2.4670000076  -999.250000 86.091796875 93.485099792 1.9433000088 1.5134999752 1.7290999889
 2668.3500977 13.000000000 12.228099823 0.0286999997 0.2085999995 2.4507999420  -999.250000 75.403999329 90.778503418 1.9419288635 1.4782265425 1.7489744425
 2668.5002441 13.000000000 12.186300278 0.0465000011 0.2140135020 2.4736704826  -999.250000 92.479698181 88.314102173 2.0824270248 1.3107724190 1.7949560881
 2668.6501465 13.000000000 12.326999664 0.0463000014 0.2487636805 2.4646122456  -999.250000 97.399497986 87.856597900 2.1521394253 1.3637689352 1.9043210745
 2668.8002930 13.000000000 12.328900337 0.0509000011 0.2264580578 2.4721322060  -999.250000 90.202003479 90.747505188 2.2381341457 1.4674756527 2.0404679775
 2668.9501953 13.000000000 12.312999725 0.0571000017 0.2135784924 2.4820129871  -999.250000 89.359298706 91.551597595 2.3713212013 1.5217268467 2.2146842480
 2669.0998535 13.000000000 12.289500237 0.0575983748 0.2003999949 2.4899001122  -999.250000 89.300392151 90.242073059 2.4456000328 1.7834000587 2.3276998997
 2669.2500000 13.000000000 12.300600052 0.0461187325 0.1964000016 2.4763000011  -999.250000 88.760177612 89.751098633 2.3083999157 1.7704999447 2.1647999287
 2669.3999023 13.000000000 12.298199654 0.0558681302 0.2161000073 2.4906001091  -999.250000 87.476402283 89.276100159 2.2404999733 1.6756999493 2.1514999866
 2669.5500488 13.000000000 12.288800240 0.0474138446 0.2166000009 2.4765999317  -999.250000 100.25039673 92.321701050 2.2318999767 1.4180999994 2.0589001179
 2669.6999512 13.000000000 12.252599716 0.0518853664 0.2004999965 2.4865999222  -999.250000 91.857200623 90.961700439 2.3424999714 1.8200999498 2.0636999607
 2669.8500977 13.000000000 12.279701233 0.0442999974 0.2055000067 2.4888000488  -999.250000 88.089996338 88.520103455 2.3122000694 1.6648000479 2.0792999268
 2670.0000000 13.000000000 12.311800957 0.0571000017 0.1834000051 2.5078001022  -999.250000 86.730201721 86.820098877 2.3494999409 1.8230999708 2.1670999527
 2670.1501465 13.000000000 12.233400345 0.0524999984 0.1919000000 2.5102999210  -999.250000 83.393898010 87.451896667 2.3745999336 1.7934000492 2.1019001007
 2670.3000488 13.000000000 12.195300102 0.0428000018 0.2206999958 2.5021998882  -999.250000 85.422302246 89.154296875 2.3647000790 1.8264000416 2.0822000504
 2670.4501953 13.000000000 12.237099648 0.0410999991 0.2178999931 2.4886999130  -999.250000 92.938697815 90.489700317 2.3489999771 1.7853000164 2.0615000725
 2670.6000977 13.000000000 12.235899925 0.0458999984 0.2295999974 2.4990999699  -999.250000 94.020797729 89.017997742 2.4010000229 1.6211999655 2.1270000935
 2670.7502441 13.000000000 12.300600052 0.0447999984 0.2233012915 2.4970903397  -999.250000 92.647102356 88.788002014 2.3878304958 1.7812315226 2.2231450081
 2670.9001465 13.000000000 12.337100029 0.0641999990 0.2236843705 2.5247313976  -999.250000 81.397300720 88.638999939 2.3971843719 1.5456496477 2.2062978745
 2671.0502930 13.000000000 12.301400185 0.0485999994 0.2140580565 2.4826183319  -999.250000 88.619102478 88.123703003 2.3875384331 1.5151787996 2.2049546242
 2671.2001953 13.000000000 12.340399742 0.0584999993 0.2012136728 2.4883341789  -999.250000 86.397300720 87.745399475 2.3686463833 1.6311700344 2.1910336018
 2671.3503418 13.000000000 12.348899841 0.0666999966 0.2096565813 2.5092427731  -999.250000 85.996498108 88.734397888 2.3356840611 1.5514518023 2.1501526833
 2671.5000000 13.000000000 12.217300415 0.0498275273 0.2269999981 2.4916999340  -999.250000 86.411018372 88.248802185 2.3001999855 1.5367000103 2.0743999481
 2671.6499023 13.000000000 12.209699631 0.0388357788 0.2246000022 2.4774000645  -999.250000 85.156494141 86.045997620 2.3826999664 1.6176999807 2.1884999275
 2671.8000488 13.000000000 12.246600151 0.0412959270 0.2151000053 2.4821000099  -999.250000 89.098800659 84.393402100 2.3652000427 1.6253000498 2.1407999992
 2671.9499512 13.000000000 12.245699883 0.0483884364 0.2113000005 2.4849998951  -999.250000 84.682701111 84.415702820 2.2725999355 1.7294000387 2.0745999813
 2672.1000977 13.000000000 12.265700340 0.0491000041 0.1966000050 2.4856998920  -999.250000 86.803199768 86.274002075 2.2054998875 1.4645999670 2.0450000763
 2672.2500000 13.000000000 12.304400444 0.0511000007 0.2354000062 2.4874999523  -999.250000 91.330299377 87.128799438 2.1751000881 1.5773999691 2.1161000729
 2672.4001465 13.000000000 12.293199539 0.0562999994 0.2087000012 2.4907999039  -999.250000 89.255203247 90.124603271 2.0754001141 1.5374000072 1.9700000286
 2672.5500488 13.000000000 12.247500420 0.0494999997 0.2084999979 2.4721000195  -999.250000 88.071701050 92.307998657 1.8873000145 1.4021999836 1.6536999941
 2672.7001953 13.000000000 12.203300476 0.0456999987 0.2122000009 2.4693999290  -999.250000 88.296997070 93.204498291 1.9171999693 1.3365000486 1.6355999708
 2672.8500977 13.000000000 12.159000397 0.0419999994 0.2158000022 2.4667000771  -999.250000 88.522201538 94.100891113 1.9471000433 1.2709000111 1.6174000502
 2673.0002441 13.000000000 12.164200783 0.0320999995 0.2237000018 2.4519000053  -999.250000 93.908996582 93.733497620 2.1764090061 1.2546088696 1.9741878510
 2673.1501465 13.000000000 12.157400131 0.0313000008 0.2226859927 2.4488158226  -999.250000 84.707199097 92.393699646 2.2710914612 1.5946292877 2.0010945797
 2673.3002930 13.000000000 12.193400383 0.0303000007 0.2140600085 2.4584095478  -999.250000 83.716598511 89.014297485 2.2661330700 1.6740970612 1.9975557327
 2673.4501953 13.000000000 12.268099785 0.0311999992 0.2018200308 2.4613058567  -999.250000 83.767402649 87.073402405 2.3686378002 1.7342274189 1.9231008291
