# LAS format log file from PETREL
# Project units are specified as depth units
#==================================================================
~Version information
VERS.   2.0:
WRAP.   NO:
#==================================================================
~Well
STRT .m      2535.9846191 :
STOP .m      3240.0725098 :
STEP .m     0.00000000 :
NULL .        -999.250000 :
COMP.           : COMPANY
WELL.  35/9-8   : WELL
FLD.            : FIELD
LOC.            : LOCATION
SRVC.           : SERVICE COMPANY
DATE.  2018-09-11 14:49:02   : Log Export Date {yyyy-MM-dd HH:mm:ss}
PROV.           : PROVINCE
UWI.   35/9-8   : UNIQUE WELL ID
API.            : API NUMBER
#==================================================================
~Curve
DEPT .m                   : DEPTH
Lithology_geolink ._      : Lithology_geolink
CALI .in                  : CALI
BS .in                    : BS
ROP .m/h                  : ROP
DRHO .g/cm3               : DRHO
THOR .ppm                 : THOR
NPHI .m3/m3               : NPHI
RHOB .g/cm3               : RHOB
PEF .b/e                  : PEF
GR .gAPI                  : GR
URAN .ppm                 : URAN
DTC .us/ft                : DTC
DTS .us/ft                : DTS
RDEP .ohm.m               : RDEP
RMIC .ohm.m               : RMIC
RMED .ohm.m               : RMED
~Parameter
#==================================================================
~Ascii
 2535.9846191  -999.250000 9.6239004135 12.250000954 45.302165985 0.1191999987 4.6806998253  -999.250000  -999.250000  -999.250000 28.258300781 1.8509999514 91.535598755 185.81469727  -999.250000  -999.250000  -999.250000
 2536.1369629  -999.250000 10.459199905 12.250000954 42.641403198 0.1278000027 5.1784000397  -999.250000  -999.250000  -999.250000 31.525199890 1.9184001684 90.562805176 185.11549377  -999.250000  -999.250000  -999.250000
 2536.2893066  -999.250000 11.206100464 12.250000954 37.055774689 0.1280999929 5.8427000046  -999.250000  -999.250000  -999.250000 39.401798248 1.7752000093 90.535400391 186.60040283 2.1670999527 2.3770999908 2.4474000931
 2536.4416504  -999.250000 11.668199539 12.250000954 34.263126373 0.1235999987 6.2939000130  -999.250000  -999.250000  -999.250000 42.063400269 1.6299999952 90.817001343 188.52540588 1.9233000278 2.9477000237 2.3018999100
 2536.5942383  -999.250000 11.918299675 12.250000954 32.928478241 0.1108999997 6.4693999290  -999.250000  -999.250000  -999.250000 41.234401703 1.9071999788 91.675193787 191.19340515 1.8416999578 2.9059000015 2.2806999683
 2536.7465820  -999.250000 12.063099861 12.250000954 32.261157990 0.0935000032 6.5174999237  -999.250000  -999.250000  -999.250000 40.819999695 2.2913000584 92.762100220 194.24870300 1.7819999456 2.5190000534 2.3104999065
 2536.8989258  -999.250000 12.171998978 12.250000954 34.397636414 0.0759999976 6.5041999817  -999.250000  -999.250000  -999.250000 36.081100464 2.5552999973 93.871696472 197.78239441 1.7386000156 2.5862998962 2.4038999081
 2537.0512695  -999.250000 12.277199745 12.250000954 35.465881348 0.0588999987 6.4130001068  -999.250000  -999.250000  -999.250000 34.501499176 2.8664000034 94.827903748 201.37600708 1.7555999756 2.4656999111 2.5306000710
 2537.2036133  -999.250000 12.361701012 12.250000954 39.142059326 0.0430000015 6.2077999115  -999.250000  -999.250000  -999.250000 46.795101166 3.1905999184 95.429702759 204.50779724 1.8257999420 2.5009000301 2.6159999371
 2537.3562012  -999.250000 12.405300140 12.250000954 40.980316162 0.0305000003 5.9145002365  -999.250000  -999.250000  -999.250000 47.114200592 3.3545999527 95.827301025 207.05059814 1.8639999628 2.4086000919 2.6452999115
 2537.5085449  -999.250000 12.413500786 12.250000954 41.731300354 0.0207000002 5.8119001389  -999.250000  -999.250000  -999.250000 40.065601349 3.3310000896 95.918403625 208.59559631 1.9085999727 2.3787999153 2.6614000797
 2537.6608887  -999.250000 12.402400017 12.250000954 42.106956482 0.0116999997 6.0524997711  -999.250000  -999.250000  -999.250000 43.461498260 3.2056999207 95.879707336 209.71180725 1.9839999676 2.5548000336 2.6719999313
 2537.8132324  -999.250000 12.384200096 12.250000954 41.035434723 0.0035000001 6.3803000450  -999.250000  -999.250000  -999.250000 50.253398895 3.0787000656 95.850303650 210.52949524 2.0271000862 2.7242999077 2.6326999664
 2537.9658203  -999.250000 12.380300522 12.250000954 40.499343872 -0.002100000 6.9229001999 0.3192999959 2.4584999084 3.2425000668 66.290298462 2.9356999397 95.936393738 211.02301025 2.0183999538 2.6735000610 2.5092000961
 2538.1181641  -999.250000 12.390099525 12.250000954 41.414371490 -0.004700000 7.8144001961 0.2978999913 2.4474000931 3.1294999123 67.549896240 2.7155001163 96.045799255 210.09869385 2.0078999996 2.3635001183 2.4001998901
 2538.2705078  -999.250000 12.393400192 12.250000954 41.871719360 -0.004300000 8.4910001755 0.2427999973 2.4416000843 3.1250998974 66.853302002 2.4900000095 95.797698975 206.52859497 2.0562999249 2.4542000294 2.4138000011
 2538.4228516  -999.250000 12.385000229 12.250000954 45.524936676 -0.001900000 8.8809003830 0.1943999976 2.4439001083 3.0957999229 63.073299408 2.2137999535 94.587402344 198.83140564 2.0973000526 2.5520000458 2.4305000305
 2538.5754395  -999.250000 12.380800247 12.250000954 47.033466339 0.0008000000 9.2417001724 0.1708000004 2.4530000687 3.0185000896 52.407199860 1.8495999575 92.084899902 187.56129456 2.1517999172 2.5880999565 2.4930999279
 2538.7277832  -999.250000 12.382199287 12.250000954 46.715881348 0.0019000000 9.3397998810 0.1668999940 2.4651000500 3.0078001022 44.522598267 1.5269999504 88.404296875 174.77139282 2.2859001160 2.7125999928 2.6760001183
 2538.8801270  -999.250000 12.379099846 12.250000954 44.075462341 0.0014000000 8.5559997559 0.1738999933 2.4781999588 3.1868999004 34.440299988 1.2628999949 84.074203491 163.04608154 2.6412000656 2.6577999592 3.0950999260
 2539.0324707  -999.250000 12.369499207 12.250000954 41.752624512 0.0024999999 6.4170999527 0.1827999949 2.4979000092 3.5318000317 28.870399475 1.0000000000 79.783096313 153.50799561 3.7304999828 2.9293000698 4.3899002075
 2539.1848145  -999.250000 12.357000351 12.250000954 36.301837921 0.0074999998 4.0532999039 0.1828999966 2.5302999020 3.8624999523 25.506000519 0.5885000229 76.084800720 146.79020691 6.1831998825 4.6343998909 7.3522000313
 2539.3374023  -999.250000 12.349599838 12.250000954 33.174213409 0.0131999999 2.5594000816 0.1789000034 2.5666000843 4.0721998215 25.929399490 0.1876000017 73.073303223 142.16679382 8.8461999893 8.1619997025 10.534500122
 2539.4897461  -999.250000 12.354999542 12.250000954 28.476051331 0.0131000001 1.9224998951 0.1780000031 2.5848000050 4.1967000961 29.703899384 0.0518000014 71.412803650 140.94749451 9.9899997711 10.130800247 11.906900406
 2539.6420898  -999.250000 12.366600037 12.250000954 26.905839920 0.0066999998 1.9469000101 0.1836999953 2.5773000717 4.2418999672 31.514799118 0.0489999987 70.960800171 142.20419312 8.5750999451 8.5934000015 10.210200310
 2539.7944336  -999.250000 12.374898911 12.250000954 27.074476242 0.0012000001 2.7130999565 0.1976000071 2.5601999760 4.1862998009 37.768398285 0.0489000008 72.505798340 146.53089905 6.6135001183 5.9587001801 7.8200001717
 2539.9470215  -999.250000 12.381600380 12.250000954 28.812994003 -0.000100000 4.0560998917 0.2119999975 2.5464999676 4.0932002068 39.442699432 0.0489000008 74.935401917 151.88049316 5.6163997650 5.2390999794 6.6977000237
 2540.0993652  -999.250000 12.387999535 12.250000954 31.435039520 0.0009000000 5.0229001045 0.2240000069 2.5380001068 4.0384998322 41.792499542 0.0500000007 77.930496216 158.44020081 5.1236000061 5.2259001732 6.0822000504
 2540.2517090  -999.250000 12.393099785 12.250000954 32.318241119 0.0017000000 5.4588999748 0.2402999997 2.5334999561 3.9900000095 45.492599487 0.0599000044 80.838600159 165.68179321 4.8576998711 5.1469998360 5.5149002075
 2540.4040527  -999.250000 12.392499924 12.250000954 36.703739166 0.0008000000 5.7519001961 0.2592000067 2.5294001102 3.8687000275 55.444301605 0.1418000013 83.496299744 173.36740112 3.8847999573 4.5734000206 4.2175002098
 2540.5566406  -999.250000 12.386300087 12.250000954 40.206363678 -0.001300000 5.8755998611 0.2716000080 2.5230000019 3.7153999805 60.387699127 0.4280999899 85.976699829 179.97920227 2.9414000511 3.4837000370 3.0618999004
 2540.7089844  -999.250000 12.381699562 12.250000954 47.651576996 -0.002700000 5.8222999573 0.2872000039 2.5153999329 3.6568999290 64.217300415 0.9524999857 87.637603760 182.36709595 2.6070001125 2.7186999321 2.5978000164
 2540.8613281  -999.250000 12.378499985 12.250000954 51.594818115 -0.002200000 5.6133999825 0.3152000010 2.5072999001 3.6921999454 64.343696594 1.4803999662 88.179397583 181.04010010 2.5792000294 2.6261999607 2.4563000202
 2541.0136719  -999.250000 12.372099876 12.250000954 63.868438721 0.0014000000 5.4460000992 0.3282000124 2.5004999638 3.6982998848 59.477199554 1.7274999619 86.618400574 175.07929993 2.7859001160 2.7111001015 2.5467000008
 2541.1662598  -999.250000 12.365999222 12.250000954 72.199150085 0.0087000001 5.1027002335 0.3072000146 2.5020000935 3.6215000153 54.110801697 1.8013000488 83.600006104 166.87609863 3.9663000107 3.2962999344 3.5592000484
 2541.3186035  -999.250000 12.305800438 12.250000954 71.170272827 0.0143999998 4.3087000847 0.2734999955 2.5134999752 3.6331999302 36.437801361 1.6036000252 79.504302979 157.54171753 6.8575000763 5.9814000130 6.1224999428
 2541.4709473  -999.250000 11.875399590 12.250000954 61.810688019 0.0114000002 3.6951000690 0.2412000000 2.5222001076 4.0078001022 32.987499237 1.0178999901 75.309799194 148.88200378 9.2641000748 7.9630999565 8.3260002136
