# LAS format log file from PETREL
# Project units are specified as depth units
#==================================================================
~Version information
VERS.   2.0:
WRAP.   NO:
#==================================================================
~Well
STRT .m      2726.1311035 :
STOP .m      3477.3107910 :
STEP .m     0.00000000 :
NULL .        -999.250000 :
COMP.           : COMPANY
WELL.  35/9-5   : WELL
FLD.            : FIELD
LOC.            : LOCATION
SRVC.           : SERVICE COMPANY
DATE.  2018-09-11 14:49:02   : Log Export Date {yyyy-MM-dd HH:mm:ss}
PROV.           : PROVINCE
UWI.   35/9-5   : UNIQUE WELL ID
API.            : API NUMBER
#==================================================================
~Curve
DEPT .m                   : DEPTH
Lithology_geolink ._      : Lithology_geolink
CALI .in                  : CALI
BS .in                    : BS
ROP .m/h                  : ROP
DRHO .g/cm3               : DRHO
THOR .ppm                 : THOR
NPHI .m3/m3               : NPHI
RHOB .g/cm3               : RHOB
PEF .b/e                  : PEF
GR .gAPI                  : GR
URAN .ppm                 : URAN
DTC .us/ft                : DTC
DTS .us/ft                : DTS
RDEP .ohm.m               : RDEP
RMIC .ohm.m               : RMIC
RMED .ohm.m               : RMED
~Parameter
#==================================================================
~Ascii
# ...
 3368.9543457 7.0000000000 8.4148998260 8.5000000000 24.869750977 0.0035000001 14.400164604 0.2973000109 2.5171999931 2.9384000301 130.61500549 4.5494198799 94.484100342 175.57028198 5.7095980644 2.6526021957 6.1139001846
 3369.1066895 7.0000000000 8.4035997391 8.5000000000 24.498359680 0.0093999999 14.108866692 0.2863000035 2.5348000526 2.9375998974 136.88290405 4.5326275826 93.595100403 174.51210022 5.9981360435 2.7719085217 6.2930998802
 3369.2590332 7.0000000000 8.4035997391 8.5000000000 25.099739075 0.0097000012 14.145640373 0.2815000117 2.5429000854 2.9337999821 135.27799988 4.0655493736 92.504493713 172.72239685 5.5622005463 3.0366754532 5.9137001038
 3369.4113770 7.0000000000 8.4035997391 8.5000000000 26.338582993 0.0060000001 13.837589264 0.2746999860 2.5399000645 2.9331998825 134.95700073 3.9892425537 92.384498596 167.01310730 5.1018753052 3.5517477989 5.4049000740
 3369.5639648 7.0000000000 8.4111003876 8.5000000000 27.464241028 -0.000200000 13.648502350 0.3061999977 2.5230998993 2.9565000534 135.61210632 4.1876811981 92.261199951 164.40849304 6.0867171288 3.7248249054 6.7115998268
 3369.7163086 7.0000000000 8.4260997772 8.5000000000 27.912401199 -0.003100000 14.005526543 0.3217000067 2.5123999119 3.0028998852 135.43089294 4.2332277298 90.543998718 165.82069397 6.3840255737 3.9536330700 6.3043999672
 3369.8686523 7.0000000000 8.4336996078 8.5000000000 28.654527664 -0.005400000 15.172926903 0.3233000040 2.5072999001 3.0185000896 137.46989441 4.0537881851 90.519302368 165.83030701 6.5130934715 3.5351722240 7.4538002014
 3370.0209961 7.0000000000 8.4412002563 8.5000000000 29.158464432 -0.003600000 15.686955452 0.3228999972 2.5216999054 2.9948999882 134.06680298 3.9267070293 90.435508728 166.68890381 5.7446675301 3.2700490952 5.4366002083
 3370.1735840 7.0000000000 8.4412002563 8.5000000000 29.076442719 -0.003200000 15.839857101 0.3291999996 2.5281000137 2.9935998917 124.36190033 3.9594469070 91.014503479 169.88111877 8.0235376358 2.9572010040 10.384099960
 3370.3259277 6.0000000000 8.4429998398 8.5000000000 30.515089035 -0.003100000 15.986165047 0.3406000137 2.5338997841 2.9909000397 119.09030151 4.1848382950 92.362503052 170.19741821 11.341180801 2.9648869038 21.107900620
 3370.4782715 6.0000000000 8.4336996078 8.5000000000 30.274276733 -0.005800000 15.026141167 0.3102999926 2.5260999203 3.0243999958 123.53250122 4.6491551399 89.137298584 170.62249756 5.9458689690 2.9849677086 6.8919000626
 3370.6306152 6.0000000000 8.4260997772 8.5000000000 31.395998001 -0.006600000 14.456025124 0.3070999980 2.5287001133 3.0348000526 126.54170227 3.9932081699 86.349296570 163.19540405 6.3393092155 3.3663756847 7.1582999229
 3370.7832031 6.0000000000 8.4260997772 8.5000000000 30.082019806 -0.004800000 13.555342674 0.3490000069 2.5364000797 3.0336999893 121.67130280 3.8156814575 84.545997620 159.48170471 24.398015976 4.5545945168 31.141300201
 3370.9355469 7.0000000000 8.4336996078 8.5000000000 29.874017715 -0.002200000 12.775150299 0.3810999990 2.5401999950 3.0239000320 125.71379852 4.0933537483 84.544403076 157.53308105 5.6230826378 6.1660165787 6.3517999649
 3371.0878906 7.0000000000 8.4186000824 8.5000000000 28.776575089 0.0003000000 13.761614799 0.3549000025 2.5334999561 3.0492999554 137.33169556 4.1845545769 86.482803345 159.90499878 6.1640830040 5.3534083366 7.1803002357
 3371.2402344 7.0000000000 8.4412002563 8.5000000000 28.854986191 0.0009000000 13.862939835 0.3379999995 2.5208001137 3.1143000126 140.33610535 4.3118958473 88.899902344 165.05039978 6.3952302933 4.0691595078 5.6273999214
 3371.3925781 6.0000000000 8.4111003876 8.5000000000 29.033464432 0.0027000001 14.959580421 0.3495000005 2.5220999718 3.1505999565 132.60380554 4.2117223740 91.281799316 175.31678772 6.9020738602 3.4125013351 5.6961998940
 3371.5451660 6.0000000000 8.4186000824 8.5000000000 27.922245026 0.0043000001 15.419069290 0.3567000031 2.5281000137 3.1561999321 120.33000183 4.5503559113 92.759902954 178.93269348 10.841678619 3.2825052738 9.7791004181
 3371.6975098 6.0000000000 8.4186000824 8.5000000000 28.652231216 0.0049000001 15.296198845 0.3495999873 2.5302000046 3.1319999695 117.30010223 4.9184103012 93.087997437 178.43649292 10.546983719 3.2693207264 7.5641999245
 3371.8498535 6.0000000000 8.4598999023 8.5000000000 28.580381393 0.0055999998 15.386754990 0.3276000023 2.5278999805 3.1484000683 121.74890137 4.7776269913 93.003402710 175.94581604 9.6418523788 2.6197426319 7.6550998688
 3372.0021973 6.0000000000 8.5237998962 8.5000000000 28.280511856 0.0062000002 15.799773216 0.3237000108 2.5255000591 3.1891000271 124.01329803 4.0926980972 93.107902527 174.04190063 6.9735612869 2.1696417332 8.5071001053
 3372.1547852 6.0000000000 8.4561996460 8.5000000000 27.256235123 0.0066000000 15.673904419 0.3443999887 2.5230998993 3.2532000542 130.54400635 3.8095507622 93.079200745 172.11450195 6.1408228874 1.9269871712 7.3168997765
 3372.3071289 6.0000000000 8.4486999512 8.5000000000 27.798883438 0.0116999997 15.052896500 0.3537999988 2.5309998989 3.3173999786 138.73370361 4.0312433243 93.111999512 172.19639587 6.0440530777 2.0861439705 6.0935997963
 3372.4594727 7.0000000000 8.4412002563 8.5000000000 26.244422913 0.0143999998 15.855910301 0.3361000121 2.5369000435 3.3580000401 141.52119446 3.7952792645 92.958198547 172.40580750 5.8726744652 2.4601998329 6.0722999573
 3372.6118164 7.0000000000 8.4486999512 8.5000000000 26.013124466 0.0175999999 16.503026962 0.3298000097 2.5520999432 3.3610000610 141.70889282 3.8051671982 92.820701599 172.68469238 6.6962552071 3.1715183258 6.2919001579
 3372.7644043 7.0000000000 8.4412002563 8.5000000000 24.982610703 0.0126999998 16.985927582 0.3346999884 2.5446999073 3.3354001045 140.72369385 4.0115685463 92.494598389 172.61199951 5.6476874352 3.8965399265 6.0467000008
 3372.9167480 7.0000000000 8.4336996078 8.5000000000 23.709318161 0.0077999998 16.794609070 0.3222999871 2.5327000618 3.3443000317 138.10159302 4.2270545959 91.754310608 173.13059998 5.7836790085 3.9133746624 5.9920997620
 3373.0690918 7.0000000000 8.4486999512 8.5000000000 23.688320160 0.0062000002 16.988489151 0.3452999890 2.5290999413 3.3675000668 134.71130371 4.6119823456 91.490997314 174.69110107 6.6414232254 3.4321725368 5.8576002121
 3373.2214355 7.0000000000 8.4260997772 8.5000000000 22.775918961 0.0041999999 15.953561783 0.3495999873 2.5338997841 3.3445999622 134.07620239 4.4514584541 91.525596619 176.95120239 5.5196027756 2.9064426422 5.8249001503
 3373.3737793 7.0000000000 8.4412002563 8.5000000000 22.414697647 0.0041000000 15.383026123 0.3664999902 2.5492000580 3.2658998966 135.57519531 4.0325441360 91.843605042 177.19259644 5.6959280968 2.7620608807 5.7330999374
 3373.5263672 7.0000000000 8.4786996841 8.5000000000 21.181430817 0.0013000000 14.584479332 0.3580000103 2.5541999340 3.1751000881 135.09979248 4.1825571060 92.182502747 174.51390076 5.5069041252 3.3582422733 6.5654001236
 3373.6787109 7.0000000000 8.4711999893 8.5000000000 20.887138367 0.0008000000 14.447318077 0.3607999980 2.5557999611 3.1547000408 134.36250305 4.5069799423 92.522605896 172.62710571 4.8743147850 4.2410840988 5.4885001183
 3373.8310547 7.0000000000 8.4711999893 8.5000000000 20.493438721 0.0003000000 14.745521545 0.3386999965 2.5494000912 3.1544001102 137.37370300 4.4249324799 93.485000610 171.83149719 5.0619974136 4.5854496956 5.3681998253
 3373.9833984 7.0000000000 8.5011997223 8.5000000000 20.526903152 0.0038000001 15.297927856 0.3450999856 2.5518999100 3.1700000763 139.02160645 4.4260954857 94.579803467 172.80108643 5.3725042343 4.2427020073 5.1240000725
 3374.1359863 7.0000000000 8.4937000275 8.5000000000 20.159120560 0.0125000002 15.006970406 0.3391999900 2.5747001171 3.1619000435 134.76969910 4.6612229347 94.667396545 173.37359619 4.2324314117 4.6448531151 4.7091999054
 3374.2883301 7.0000000000 8.4862003326 8.5000000000 20.044290543 0.0211999994 15.106040001 0.3513000011 2.6085000038 3.1314001083 130.30650330 4.4232826233 94.949798584 174.77400208 8.8664588928 6.3611464500 7.9430999756
 3374.4406738 7.0000000000 8.4862003326 8.5000000000 20.691600800 0.0197999999 14.203349113 0.3395000100 2.6238000393 3.0611000061 130.75889587 4.4255957603 94.716102600 176.81379700 4.9227418900 9.5153417587 5.5490999222
