# LAS format log file from PETREL
# Project units are specified as depth units
#==================================================================
~Version information
VERS.   2.0:
WRAP.   NO:
#==================================================================
~Well
STRT .m      2949.7507324 :
STOP .m      3605.5278320 :
STEP .m     0.00000000 :
NULL .        -999.250000 :
COMP.           : COMPANY
WELL.  35/9-10 S   : WELL
FLD.            : FIELD
LOC.            : LOCATION
SRVC.           : SERVICE COMPANY
DATE.  2018-09-11 14:49:01   : Log Export Date {yyyy-MM-dd HH:mm:ss}
PROV.           : PROVINCE
UWI.   35/9-10 S   : UNIQUE WELL ID
API.            : API NUMBER
#==================================================================
~Curve
DEPT .m                   : DEPTH
Lithology_geolink ._      : Lithology_geolink
CALI .in                  : CALI
BS .in                    : BS
ROP .m/h                  : ROP
DRHO .g/cm3               : DRHO
THOR .ppm                 : THOR
NPHI .m3/m3               : NPHI
RHOB .g/cm3               : RHOB
PEF .b/e                  : PEF
GR .gAPI                  : GR
URAN .ppm                 : URAN
DTC .us/ft                : DTC
DTS .us/ft                : DTS
RDEP .ohm.m               : RDEP
RMED .ohm.m               : RMED
~Parameter
#==================================================================
~Ascii
 2949.7507324 11.000000000 8.8905000687 12.250000954 98.074150085 -0.025800001  -999.250000 0.2251999974  -999.250000  -999.250000 38.105800629  -999.250000 83.472610474 157.70889282 3.0522000790 2.9084000587
 2949.9030762 12.000000000 9.0867004395 12.250000954 99.242126465 0.1481000036  -999.250000 0.2309000045  -999.250000  -999.250000 39.390598297  -999.250000 83.040298462 157.07389832 3.1573998928 3.0622999668
 2950.0556641 12.000000000 9.2774000168 12.250000954 98.810363770 0.2160000056  -999.250000 0.2143000066  -999.250000  -999.250000 35.933300018  -999.250000 83.505203247 156.13549805 3.3025999069 3.3215999603
 2950.2080078 12.000000000 9.4906997681 12.250000954 102.47014618 0.2081000060  -999.250000 0.2141000032  -999.250000  -999.250000 36.288501740  -999.250000 83.542396545 156.85108948 3.3824999332 3.4876999855
 2950.3603516 12.000000000 9.8318004608 12.250000954 106.56135559 0.1754000038  -999.250000 0.2138999999  -999.250000  -999.250000 41.968601227  -999.250000 82.306503296 156.30921936 3.4549000263 3.5601000786
 2950.5126953 12.000000000 10.459699631 12.250000954 113.64305115 0.1497000009  -999.250000 0.2136999965  -999.250000  -999.250000 33.193698883  -999.250000 80.773094177 156.32838440 3.5364999771 3.6166999340
 2950.6652832 12.000000000 11.276600838 12.250000954 116.63288116 0.1360000074  -999.250000 0.2101999968  -999.250000  -999.250000 34.224700928  -999.250000 79.248397827 156.12332153 3.5466001034 3.6022999287
 2950.8176270 12.000000000 11.895998955 12.250000954 116.42782593 0.1247999966  -999.250000 0.2141000032  -999.250000  -999.250000 38.694801331  -999.250000 78.138496399 156.39210510 3.6017000675 3.6124999523
 2950.9699707 11.000000000 12.140000343 12.250000954 113.23262024 0.1050999984  -999.250000 0.2161000073  -999.250000  -999.250000 36.577899933  -999.250000 77.514999390 155.35429382 3.6238000393 3.6393001080
 2951.1223145 11.000000000 12.208100319 12.250000954 110.34842682 0.0857999995  -999.250000 0.2111999989  -999.250000  -999.250000 39.768100739  -999.250000 76.062400818 152.35200500 3.7709999084 3.8152999878
 2951.2746582 11.000000000 12.251600266 12.250000954 110.97079468 0.0760999992  -999.250000 0.2097000033  -999.250000  -999.250000 40.317798615  -999.250000 76.309097290 154.05720520 3.7709999084 3.6631999016
 2951.4272461 11.000000000 12.270600319 12.250000954 108.89173889 0.0678000003  -999.250000 0.2146999985 2.5880000591  -999.250000 39.146598816  -999.250000 76.596702576 158.69081116 3.7709999084 3.5871999264
 2951.5795898 11.000000000 12.271100044 12.250000954 104.73326874 0.0509999990  -999.250000 0.2193000019 2.5769999027  -999.250000 43.568199158  -999.250000 77.003700256 167.00900269 3.7881000042 3.6760001183
 2951.7319336 11.000000000 12.277600288 12.250000954 112.09514618 0.0310999993  -999.250000 0.2224999964 2.5611000061  -999.250000 42.800498962  -999.250000 76.705101013 166.48669434 3.8052999973 3.8406999111
 2951.8842773 11.000000000 12.314701080 12.250000954 126.81824493 0.0174000002  -999.250000 0.2189999968 2.5631000996  -999.250000 33.362201691  -999.250000 76.455001831 158.16409302 3.8396999836 4.1703000069
 2952.0368652 11.000000000 12.378100395 12.250000954 124.03903961 0.0100999996  -999.250000 0.2036000043 2.5713999271 4.3540000916 30.995100021  -999.250000 75.933296204 153.23019409 4.4060001373 3.9737000465
 2952.1892090 11.000000000 12.437001228 12.250000954 118.48064423 0.0088000000  -999.250000 0.1913000047 2.5685000420 4.2094001770 28.358200073  -999.250000 75.541801453 150.49009705 5.7231001854 5.1118001938
 2952.3415527 11.000000000 12.464300156 12.250000954 108.56233978 0.0155999996  -999.250000 0.1958000064 2.5620000362 4.1490998268 28.931600571  -999.250000 76.166198730 149.14810181 6.3881001472 5.8544001579
 2952.4938965 11.000000000 12.462800026 12.250000954 88.726051331 0.0266999993  -999.250000 0.2099000067 2.5615000725 4.1732001305 31.515699387  -999.250000 77.409210205 149.78489685 5.9326000214 5.6265997887
 2952.6464844 11.000000000 12.456400871 12.250000954 86.358924866 0.0305000003  -999.250000 0.2193000019 2.5564000607 4.1405000687 34.295700073  -999.250000 80.196296692 152.54521179 4.9092998505 4.8839998245
 2952.7988281 11.000000000 12.455200195 12.250000954 81.625000000 0.0252000000  -999.250000 0.2259999961 2.5502998829 4.0806999207 36.921901703  -999.250000 81.613700867 156.44140625 4.1710000038 4.3485999107
 2952.9511719 11.000000000 12.452300072 12.250000954 83.775260925 0.0166999996  -999.250000 0.2407999933 2.5501000881 4.1093001366 38.528701782  -999.250000 83.937301636 161.90609741 3.7943999767 4.1024999619
 2953.1035156 12.000000000 12.452500343 12.250000954 88.075790405 0.0097000012  -999.250000 0.2569000125 2.5534000397 4.1409001350 38.885299683  -999.250000 85.177597046 168.00570679 3.5065000057 3.8815999031
 2953.2558594 12.000000000 12.461199760 12.250000954 89.915023804 0.0081000002  -999.250000 0.2644999921 2.5568997860 4.0679001808 39.803798676  -999.250000 86.178703308 174.63310242 3.1533000469 3.5179998875
 2953.4084473 12.000000000 12.466500282 12.250000954 93.594161987 0.0102000004  -999.250000 0.2673999965 2.5534999371 3.9135000706 42.116298676  -999.250000 86.356399536 178.68040466 2.7665998936 3.0699000359
 2953.5607910 12.000000000 12.461199760 12.250000954 98.626968384 0.0146000003  -999.250000 0.2739000022 2.5502998829 3.7541000843 43.915599823  -999.250000 87.294097900 181.43229675 2.4741001129 2.7193000317
 2953.7131348 12.000000000 12.457801819 12.250000954 108.69258881 0.0170000009  -999.250000 0.2833000124 2.5502998829 3.6837000847 43.689800262  -999.250000 87.478698730 183.61759949 2.3603999615 2.5762999058
 2953.8654785 12.000000000 12.468899727 12.250000954 107.49147034 0.0142000001  -999.250000 0.2888000011 2.5492000580 3.7632000446 43.297798157  -999.250000 87.805694580 181.51710510 2.3884000778 2.5968999863
 2954.0180664 12.000000000 12.488800049 12.250000954 105.08956909 0.0071000000  -999.250000 0.2777000070 2.5453000069 3.8801999092 44.749401093  -999.250000 87.721702576 178.73880005 2.4449000359 2.6459999084
 2954.1704102 12.000000000 12.502799034 12.250000954 107.75984192 -0.000500000  -999.250000 0.2615999877 2.5422999859 3.8506000042 46.897800446  -999.250000 87.522605896 170.47299194 2.4421999454 2.6243000031
 2954.3227539 12.000000000 12.510199547 12.250000954 113.10040283 -0.002700000  -999.250000 0.2612000108 2.5462000370 3.7372999191 48.097301483  -999.250000 87.369293213 176.02470398 2.4305000305 2.5929000378
 2954.4750977 12.000000000 12.516099930 12.250000954 119.91436005 0.0001000000  -999.250000 0.2685000002 2.5474998951 3.7553999424 48.541698456  -999.250000 87.236511230 176.97749329 2.4874000549 2.6394000053
 2954.6276855 12.000000000 12.518600464 12.250000954 123.32151794 0.0110999998  -999.250000 0.2705999911 2.5406000614 3.9249000549 48.366600037  -999.250000 87.311408997 177.81480408 2.6231999397 2.7730000019
 2954.7800293 12.000000000 12.511599541 12.250000954 167.72145081 0.0270000007  -999.250000 0.2666000128 2.5287001133 4.0742998123 47.836898804  -999.250000 87.295799255 175.72630310 2.7493999004 2.8958001137
 2954.9323730 12.000000000 12.497599602 12.250000954 189.92126465 0.0423999988  -999.250000 0.2581000030 2.5239000320 4.0920000076 47.801498413  -999.250000 86.434196472 173.77632141 2.7660999298 2.8980998993
 2955.0847168 12.000000000 12.486300468 12.250000954 139.02986145 0.0454000011  -999.250000 0.2492000014 2.5201001167 4.0043001175 48.191200256  -999.250000 84.932708740 172.15480042 2.7058000565 2.8178999424
 2955.2370605 12.000000000 12.480500221 12.250000954 113.58431244 0.0342999995  -999.250000 0.2460999936 2.5229001045 3.9820001125 47.737800598  -999.250000 83.258796692 169.71429443 2.6918001175 2.7901000977
 2955.3896484 12.000000000 12.473598480 12.250000954 106.08366394 0.0153000001  -999.250000 0.2362000048 2.5364999771 4.0810999870 45.143299103  -999.250000 81.393600464 166.68649292 2.7878999710 2.8819000721
 2955.5419922 12.000000000 12.461001396 12.250000954 102.33333588 -0.003000000  -999.250000 0.2142000049 2.5562996864 4.1187000275 40.868301392  -999.250000 80.510101318 164.76849365 3.0236001015 3.1224000454
