# LAS format log file from PETREL
# Project units are specified as depth units
#==================================================================
~Version information
VERS.   2.0:
WRAP.   NO:
#==================================================================
~Well
STRT .m      2535.9846191 :
STOP .m      3240.0725098 :
STEP .m     0.00000000 :
NULL .        -999.250000 :
COMP.           : COMPANY
WELL.  35/9-8   : WELL
FLD.            : FIELD
LOC.            : LOCATION
SRVC.           : SERVICE COMPANY
DATE.  2018-09-11 14:49:02   : Log Export Date {yyyy-MM-dd HH:mm:ss}
PROV.           : PROVINCE
UWI.   35/9-8   : UNIQUE WELL ID
API.            : API NUMBER
#==================================================================
~Curve
DEPT .m                   : DEPTH
Lithology_geolink ._      : Lithology_geolink
CALI .in                  : CALI
BS .in                    : BS
ROP .m/h                  : ROP
DRHO .g/cm3               : DRHO
THOR .ppm                 : THOR
NPHI .m3/m3               : NPHI
RHOB .g/cm3               : RHOB
PEF .b/e                  : PEF
GR .gAPI                  : GR
URAN .ppm                 : URAN
DTC .us/ft                : DTC
DTS .us/ft                : DTS
RDEP .ohm.m               : RDEP
RMIC .ohm.m               : RMIC
RMED .ohm.m               : RMED
~Parameter
#==================================================================
~Ascii
# ...
 2953.2556152 7.0000000000 8.5172996521 8.5000000000 65.853675842 0.0244999994 10.469499588 0.2842999995 2.5720000267 3.2602000237 104.68765259 3.8192002773 78.184501648 145.60293579 13.372400284 12.404700279 13.741299629
 2953.4079590 6.0000000000 8.5153999329 8.5000000000 60.161090851 0.0038999999 10.415300369 0.2858000100 2.5768001080 3.2806000710 105.78078461 3.7191998959 77.989303589 143.74296570 13.299099922 12.582400322 13.768699646
 2953.5605469 6.0000000000 8.5206003189 8.5000000000 57.314628601 -0.009500000 10.301699638 0.2998000085 2.5836999416 3.3031001091 106.05626678 3.5539000034 77.822196960 141.63386536 13.509200096 12.968999863 14.087300301
 2953.7128906 6.0000000000 8.5313997269 8.5000000000 53.692256927 -0.017700000 9.9741001129 0.3102000058 2.5834000111 3.3215000629 104.38238525 3.3447999954 77.707496643 139.89489746 14.103599548 13.059800148 14.741700172
 2953.8652344 6.0000000000 8.5363998413 8.5000000000 51.880905151 -0.020900000 9.6170997620 0.3039000034 2.5797998905 3.2911999226 103.65386963 3.1835000515 77.636802673 138.79037476 14.503499985 13.529399872 15.173500061
 2954.0175781 6.0000000000 8.5291996002 8.5000000000 51.741798401 -0.019500000 9.3767004013 0.2962999940 2.5782999992 3.2432000637 103.65927887 3.0829000473 77.615501404 138.52673340 14.755100250 14.210700035 15.434200287
 2954.1701660 6.0000000000 8.5186004639 8.5000000000 51.671916962 -0.017100001 8.9954004288 0.3000999987 2.5755999088 3.2862000465 101.65840912 3.0487000942 77.623100281 138.87403870 14.912300110 14.504799843 15.597800255
 2954.3225098 6.0000000000 8.5212001801 8.5000000000 52.544944763 -0.014900000 8.5731000900 0.3072000146 2.5729999542 3.4437000751 98.815551758 3.0829000473 77.660202026 139.92900085 15.063099861 14.503800392 15.767900467
 2954.4748535 6.0000000000 8.5342998505 8.5000000000 52.762138367 -0.013000000 8.3912000656 0.3041999936 2.5738000870 3.5868999958 98.527160645 3.0780999660 77.737297058 141.59483337 15.220399857 14.582400322 15.940600395
 2954.6271973 6.0000000000 8.5454998016 8.5000000000 52.542980194 -0.011400000 8.4418001175 0.2933000028 2.5757999420 3.6342000961 99.803901672 2.9602999687 77.870399475 143.53318787 15.240500450 14.670100212 15.989100456
 2954.7797852 6.0000000000 8.5509996414 8.5000000000 50.881565094 -0.009700001 8.5728998184 0.2870999873 2.5752000809 3.6435999870 100.55210114 2.7818999290 78.065910339 145.23498535 15.280900002 14.786000252 16.052200317
 2954.9321289 6.0000000000 8.5577001572 8.5000000000 49.439632416 -0.007800000 8.6666002274 0.2872999907 2.5708999634 3.6308000088 100.85161591 2.6510999203 78.296600342 146.43547058 15.436800003 15.154000282 16.211700439
 2955.0844727 6.0000000000 8.5549001694 8.5000000000 51.618110657 -0.005900000 8.8141002655 0.2860000134 2.5666000843 3.5573000908 100.71721649 2.5425999165 78.524200439 146.99272156 15.636199951 15.533599854 16.433300018
 2955.2368164 6.0000000000 8.5390996933 8.5000000000 55.238517761 -0.005100000 9.0741996765 0.2874000072 2.5639998913 3.4442000389 99.590911865 2.4189000130 78.715202332 147.04182434 15.755399704 15.362199783 16.562500000
 2955.3891602 6.0000000000 8.5306997299 8.5000000000 57.156166077 -0.005900000 9.3427000046 0.2964999974 2.5615999699 3.3963000774 98.809303284 2.2915999889 78.834098816 146.17707825 15.849499702 15.430899620 16.661800385
 2955.5417480 6.0000000000 8.5446996689 8.5000000000 55.453083038 -0.007500000 9.5812997818 0.3034000099 2.5590000153 3.4495000839 99.654945374 2.1452000141 78.908096313 144.62939453 15.954700470 15.826199532 16.801200867
 2955.6940918 6.0000000000 8.5566997528 8.5000000000 54.025588989 -0.008700000 9.7419996262 0.3061999977 2.5571000576 3.5329999924 100.66378021 2.0334000587 78.942703247 142.54914856 16.018299103 15.807200432 16.893899918
 2955.8464355 6.0000000000 8.5465002060 8.5000000000 54.300853729 -0.009600000 9.6806001663 0.3118000031 2.5559000969 3.5773999691 100.27762604 2.0146000385 78.967697144 140.63356018 16.183200836 15.886099815 17.110500336
 2955.9987793 6.0000000000 8.5275001526 8.5000000000 55.685035706 -0.010200000 9.1562004089 0.3147000074 2.5553998947 3.5617001057 98.708038330 2.1489000320 78.984001160 139.67994690 16.461200714 16.023799896 17.448600769
 2956.1513672 6.0000000000 8.5165004730 8.5000000000 56.793628693 -0.009900000 8.1378002167 0.3104999959 2.5580999851 3.4783000946 96.937034607 2.6196000576 79.001701355 139.39964294 16.608800888 16.244100571 17.651599884
 2956.3037109 6.0000000000 8.5108995438 8.5000000000 56.792652130 -0.008100000 7.2476000786 0.3084000051 2.5650000572 3.3791000843 95.671226501 3.1858999729 79.042098999 140.29844666 16.554500580 15.933300018 17.667900085
 2956.4560547 6.0000000000 8.5111999512 8.5000000000 55.682739258 -0.006000000 6.8031001091 0.3109999895 2.5710000992 3.3461999893 95.399536133 3.5569000244 79.099998474 141.72073364 16.508899689 15.944199562 17.684299469
 2956.6083984 6.0000000000 8.5258998871 8.5000000000 53.864501953 -0.005600000 6.5322999954 0.3134999871 2.5697000027 3.3863000870 96.422912598 3.9739997387 79.180999756 143.37390137 16.549100876 15.792400360 17.814399719
 2956.7609863 6.0000000000 8.5431995392 8.5000000000 53.156497955 -0.006800000 6.3927001953 0.3174000084 2.5625998974 3.4567999840 98.659416199 4.5711998940 79.267799377 144.66503906 16.529499054 15.837200165 17.910299301
 2956.9133301 6.0000000000 8.5490999222 8.5000000000 52.804466248 -0.008000000 6.3344998360 0.3222999871 2.5550999641 3.5164999962 101.09280396 5.0472998619 79.347099304 145.20782471 16.440399170 15.507300377 17.838899612
 2957.0656738 6.0000000000 8.5506000519 8.5000000000 53.160434723 -0.008000000 6.2388000488 0.3237999976 2.5499000549 3.5366001129 101.83432007 5.2125000954 79.405197144 145.41197205 16.329200745 15.033900261 17.680900574
 2957.2180176 6.0000000000 8.5593004227 8.5000000000 55.860565186 -0.006700000 6.0878000259 0.3179999888 2.5455000401 3.5195999146 100.98965454 5.2358999252 79.411804199 145.54368591 16.016700745 14.548100471 17.285999298
 2957.3703613 6.0000000000 8.5665998459 8.5000000000 58.204399109 -0.004200000 5.9061999321 0.3048000038 2.5418000221 3.4544999599 100.57024384 5.2031002045 79.356201172 145.53672791 15.588700294 13.982500076 16.739900589
 2957.5229492 6.0000000000 8.5629997253 8.5000000000 64.588584900 -0.000700000 5.7470998764 0.2948000133 2.5429000854 3.3403999805 100.61283112 5.0711002350 79.233810425 144.94525146 15.339099884 13.693400383 16.406600952
 2957.6752930 6.0000000000 8.5496997833 8.5000000000 72.669624329 0.0038000001 5.5735001564 0.2951999903 2.5517001152 3.2683999538 99.766357422 4.8531999588 79.064002991 143.52967834 15.313300133 13.418399811 16.313600540
 2957.8276367 6.0000000000 8.5380001068 8.5000000000 67.683723450 0.0049999999 5.3597002029 0.2962999940 2.5603001118 3.3013000488 98.582000732 4.6484999657 78.827598572 141.45024109 15.331800461 13.248700142 16.279600143
 2957.9799805 6.0000000000 8.5340995789 8.5000000000 57.711288452 0.0023000001 5.1672000885 0.2917000055 2.5636000633 3.3622000217 97.919319153 4.5018000603 78.388397217 139.08308411 15.445099831 13.361599922 16.358900070
 2958.1325684 6.0000000000 8.5331001282 8.5000000000 57.843502045 -0.001000000 5.0004000664 0.2881000042 2.5634000301 3.3499000072 97.202743530 4.3917999268 77.570396423 136.70680237 15.893500328 14.412699699 16.750699997
 2958.2849121 6.0000000000 8.5246000290 8.5000000000 58.107612610 -0.003900000 4.8579998016 0.2834999859 2.5606999397 3.2702999115 96.428642273 4.3011999130 75.987197876 134.40289307 16.129999161 14.182299614 16.906999588
 2958.4372559 6.0000000000 8.5110998154 8.5000000000 60.146652222 -0.008300000 4.8262000084 0.2637000084 2.5585999489 3.2019999027 95.487609863 4.1022000313 73.759201050 132.11895752 17.392099380 14.236200333 18.115900040
 2958.5895996 6.0000000000 8.5025997162 8.5000000000 64.225067139 -0.014500000 5.0002999306 0.2225999981 2.5641999245 3.2346000671 90.191001892 3.4156999588 71.070701599 130.12091064 23.001499176 21.084600449 23.803100586
 2958.7421875 6.0000000000 8.5030002594 8.5000000000 64.933067322 -0.021199999 5.0718002319 0.1855999976 2.5833001137 3.4407999516 77.131134033 2.4472000599 68.628097534 128.88386536 38.228401184 57.350200653 39.334598541
