# LAS format log file from PETREL
# Project units are specified as depth units
#==================================================================
~Version information
VERS.   2.0:
WRAP.   NO:
#==================================================================
~Well
STRT .m      2726.1311035 :
STOP .m      3477.3107910 :
STEP .m     0.00000000 :
NULL .        -999.250000 :
COMP.           : COMPANY
WELL.  35/9-5   : WELL
FLD.            : FIELD
LOC.            : LOCATION
SRVC.           : SERVICE COMPANY
DATE.  2018-09-11 14:49:02   : Log Export Date {yyyy-MM-dd HH:mm:ss}
PROV.           : PROVINCE
UWI.   35/9-5   : UNIQUE WELL ID
API.            : API NUMBER
#==================================================================
~Curve
DEPT .m                   : DEPTH
Lithology_geolink ._      : Lithology_geolink
CALI .in                  : CALI
BS .in                    : BS
ROP .m/h                  : ROP
DRHO .g/cm3               : DRHO
THOR .ppm                 : THOR
NPHI .m3/m3               : NPHI
RHOB .g/cm3               : RHOB
PEF .b/e                  : PEF
GR .gAPI                  : GR
URAN .ppm                 : URAN
DTC .us/ft                : DTC
DTS .us/ft                : DTS
RDEP .ohm.m               : RDEP
RMIC .ohm.m               : RMIC
RMED .ohm.m               : RMED
~Parameter
#==================================================================
~Ascii
# ...
 3222.3454590 13.000000000 8.4561996460 8.5000000000 60.135822296 0.0318000019 15.480202675 0.2856999934 2.6830000877 3.5873000622 102.36380005 2.3739945889 78.639503479 144.96139526 6.0133662224 3.5379383564 6.8572001457
 3222.4978027 13.000000000 8.4260997772 8.5000000000 60.998031616 0.0274000000 14.851223946 0.2838999927 2.6738998890 3.6089999676 112.82389832 2.3123993874 79.509101868 146.65600586 6.4510955811 3.5808563232 6.8923001289
 3222.6503906 13.000000000 8.4412002563 8.5000000000 60.086948395 0.0204000007 14.449740410 0.2804000080 2.6642999649 3.6282999516 112.68099976 2.1850039959 81.285293579 147.79139709 5.8211131096 3.7806794643 6.3116002083
 3222.8027344 13.000000000 8.4486999512 8.5000000000 60.837924957 0.0012000001 13.320411682 0.2856999934 2.6284000874 3.5696001053 113.36869812 2.4995946884 82.403694153 150.02209473 6.0018081665 3.5292041302 6.2154998779
 3222.9550781 13.000000000 8.4336996078 8.5000000000 59.528545380 0.0012000001 14.113823891 0.2786999941 2.6236000061 3.4960999489 114.95929718 2.3750007153 80.324699402 151.58410645 6.2239437103 2.6471152306 6.9218001366
 3223.1074219 13.000000000 8.4412002563 8.5000000000 60.405513763 0.0016000000 14.693044662 0.2804000080 2.6161000729 3.4284000397 115.83370209 2.5055801868 78.738204956 151.09410095 5.4811854362 2.3167560101 5.6588001251
 3223.2600098 13.000000000 8.4561996460 8.5000000000 59.282806396 0.0024000001 15.068799973 0.2694999874 2.6133000851 3.3647000790 118.87210083 2.6207158566 78.696899414 149.28700256 6.9195871353 2.2219505310 6.5809998512
 3223.4123535 13.000000000 8.4486999512 8.5000000000 59.433727264 0.0048000002 13.993227005 0.2716999948 2.6177000999 3.3350000381 117.02429962 2.7509911060 79.177902222 149.58389282 9.4612236023 2.5606560707 12.269100189
 3223.5646973 13.000000000 8.4336996078 8.5000000000 57.562995911 0.0055999998 13.760970116 0.2736999989 2.6215000153 3.3001999855 112.17240143 2.6380817890 79.623802185 150.34770203 4.1867728233 2.8189861774 5.7863998413
 3223.7170410 13.000000000 8.4561996460 8.5000000000 59.876312256 0.0055999998 13.337180138 0.2818000019 2.6219000816 3.2846000195 110.89800262 2.8814091682 79.421600342 150.47488403 6.1866760254 3.4309184551 6.8762998581
 3223.8693848 13.000000000 8.4486999512 8.5000000000 60.280513763 0.0057999999 13.163455963 0.2964999974 2.6238999367 3.2737998962 110.20649719 3.3608620167 79.289306641 150.92779541 6.4370064735 4.0366587639 7.2122001648
 3224.0219727 13.000000000 8.4486999512 8.5000000000 60.146980286 0.0066999998 13.090815544 0.2980999947 2.6278998852 3.2823998928 108.12629700 3.5207457542 80.454101563 151.45829773 5.5467305183 4.7351818085 6.8031001091
 3224.1743164 13.000000000 8.4486999512 8.5000000000 60.025592804 0.0060999999 12.821532249 0.2967000008 2.6271998882 3.2799000740 106.35089874 3.6545855999 80.531990051 152.88139343 6.0111522675 5.0342216492 6.6339001656
 3224.3266602 13.000000000 8.4486999512 8.5000000000 58.445205688 0.0038000001 12.800832748 0.2955999970 2.6206998825 3.2646000385 105.36409760 3.7157022953 80.621696472 152.96980286 6.4820451736 5.3569827080 6.7182002068
 3224.4790039 13.000000000 8.4486999512 8.5000000000 57.693244934 0.0086000003 12.949622154 0.2732000053 2.6264998913 3.2888998985 107.03279877 3.3288421631 80.566802979 152.42819214 5.2211503983 5.3056664467 5.0348000526
 3224.6315918 13.000000000 8.4486999512 8.5000000000 56.728343964 0.0108000003 12.755413055 0.2793999910 2.6282000542 3.3399999142 109.34539795 3.1506838799 80.474998474 151.42289734 5.7292780876 5.1596341133 5.8814001083
 3224.7839355 13.000000000 8.4637002945 8.5000000000 59.555446625 0.0175000001 12.747811317 0.2777999938 2.6352000237 3.4347000122 108.57969666 3.2180912495 79.483299255 150.62609863 5.7772240639 3.9358639717 5.6417999268
 3224.9362793 13.000000000 8.4561996460 8.5000000000 59.486877441 0.0322000012 13.158840179 0.2989999950 2.6572999954 3.5206999779 108.95680237 3.1042828560 79.180397034 149.83900452 5.7994642258 3.4829237461 6.1732001305
 3225.0886230 13.000000000 8.4336996078 8.5000000000 63.715545654 0.0502999984 13.148236275 0.2858000100 2.6926999092 3.6063001156 105.90889740 3.3855962753 79.089599609 149.32200623 5.6985244751 3.2943031788 6.2446999550
 3225.2412109 13.000000000 8.5011997223 8.5000000000 62.659454346 0.0450999998 13.705106735 0.2843999863 2.6946001053 3.5915000439 100.74269867 3.3153142929 79.269889832 148.76620483 6.0927667618 3.3368308544 6.3431000710
 3225.3935547 13.000000000 8.4786996841 8.5000000000 64.525588989 0.0303000007 13.031283379 0.2741999924 2.6779000759 3.5402998924 100.58080292 3.4685540199 79.247604370 148.12649536 5.7703189850 3.1484024525 5.7066998482
 3225.5458984 13.000000000 8.4486999512 8.5000000000 64.886482239 0.0237000007 12.997153282 0.2829999924 2.6658000946 3.4791998863 101.43229675 3.4888677597 79.712600708 147.78680420 7.1102485657 3.0001375675 7.4127998352
 3225.6982422 13.000000000 8.4637002945 8.5000000000 64.406494141 0.0298999995 12.756785393 0.2827999890 2.6717000008 3.4807000160 103.73159790 3.4699304104 80.333297729 147.90020752 6.7115430832 3.0099837780 7.0058999062
 3225.8505859 13.000000000 8.4937000275 8.5000000000 68.064308167 0.0353000015 13.787290573 0.2858000100 2.6749000549 3.4902000427 107.97769928 3.3015406132 80.495101929 148.81289673 5.6106319427 3.0336241722 5.6703000069
 3226.0031738 13.000000000 8.4711999893 8.5000000000 68.257873535 0.0231999997 14.622664452 0.2757000029 2.6538000107 3.5025000572 112.36100006 3.4324889183 80.514396667 149.54280090 5.0709605217 3.0826215744 5.4179000854
 3226.1555176 13.000000000 8.4637002945 8.5000000000 71.888450623 0.0220999997 14.790533066 0.2982999980 2.6519999504 3.5195000172 115.44129944 3.3107957840 79.418197632 149.52360535 5.3250908852 3.1888294220 5.6504998207
 3226.3078613 13.000000000 8.4711999893 8.5000000000 72.443565369 0.0124000004 15.273624420 0.3127000034 2.6372001171 3.5193998814 116.54419708 3.4118373394 78.815902710 148.69729614 5.3725247383 3.3784956932 5.5745000839
 3226.4602051 13.000000000 8.4711999893 8.5000000000 70.259841919 0.0144999996 14.641133308 0.3185000122 2.6412000656 3.5178999901 117.46430206 3.6380741596 78.398803711 147.50390625 5.7199845314 3.6489329338 6.8196997643
 3226.6127930 13.000000000 8.4862003326 8.5000000000 72.342849731 0.0099999998 14.429935455 0.3041999936 2.6340999603 3.4730000496 119.28730011 3.4731657505 75.567298889 146.62840271 6.5863113403 3.8884170055 7.0920000076
 3226.7651367 13.000000000 8.4637002945 8.5000000000 72.221786499 0.0077000000 15.338440895 0.3088000119 2.6314001083 3.4142999649 121.83350372 3.0165324211 76.558998108 144.56550598 5.3883252144 4.0434517860 6.2558999062
 3226.9174805 13.000000000 8.4711999893 8.5000000000 73.294944763 0.0048000002 15.575120926 0.3003000021 2.6291999817 3.3687999249 122.71089935 2.4401240349 76.606697083 144.52560425 5.5865788460 4.1532239914 6.3569998741
 3227.0698242 13.000000000 8.4786996841 8.5000000000 70.458663940 0.0031999999 14.811253548 0.3075000048 2.6289000511 3.3475999832 120.16860199 2.3323431015 78.434501648 144.60620117 7.3544254303 4.3170742989 7.4217000008
 3227.2224121 13.000000000 8.4637002945 8.5000000000 69.066925049 0.0051000002 15.252787590 0.3097000122 2.6361000538 3.3901998997 116.10420227 2.0414662361 79.120788574 145.77810669 6.5604834557 4.5760850906 6.5978999138
 3227.3747559 13.000000000 8.4637002945 8.5000000000 66.716865540 0.0091000004 14.407756805 0.3334999979 2.6447000504 3.4323999882 113.10199738 2.5355062485 80.477996826 148.90190125 6.9234151840 4.8925924301 7.0061998367
 3227.5270996 13.000000000 8.4561996460 8.5000000000 65.580711365 0.0103000002 14.110974312 0.3474000096 2.6461999416 3.4598999023 113.74970245 2.3015766144 81.383697510 150.70550537 6.6690092087 5.1754469872 7.0889000893
 3227.6794434 13.000000000 8.4786996841 8.5000000000 64.843833923 0.0074000000 14.136259079 0.3413000107 2.6333999634 3.4591999054 115.98609924 2.7314095497 82.295799255 152.70199585 5.0669708252 5.0764598846 5.0749998093
 3227.8317871 13.000000000 8.4598999023 8.5000000000 62.974739075 0.0023000001 13.171297073 0.3273999989 2.6178998947 3.4495000839 116.85089874 2.6047089100 82.350196838 152.88290405 5.3293495178 4.7492499352 6.1697998047
