# LAS format log file from PETREL
# Project units are specified as depth units
#==================================================================
~Version information
VERS.   2.0:
WRAP.   NO:
#==================================================================
~Well
STRT .m      2726.1311035 :
STOP .m      3477.3107910 :
STEP .m     0.00000000 :
NULL .        -999.250000 :
COMP.           : COMPANY
WELL.  35/9-5   : WELL
FLD.            : FIELD
LOC.            : LOCATION
SRVC.           : SERVICE COMPANY
DATE.  2018-09-11 14:49:02   : Log Export Date {yyyy-MM-dd HH:mm:ss}
PROV.           : PROVINCE
UWI.   35/9-5   : UNIQUE WELL ID
API.            : API NUMBER
#==================================================================
~Curve
DEPT .m                   : DEPTH
Lithology_geolink ._      : Lithology_geolink
CALI .in                  : CALI
BS .in                    : BS
ROP .m/h                  : ROP
DRHO .g/cm3               : DRHO
THOR .ppm                 : THOR
NPHI .m3/m3               : NPHI
RHOB .g/cm3               : RHOB
PEF .b/e                  : PEF
GR .gAPI                  : GR
URAN .ppm                 : URAN
DTC .us/ft                : DTC
DTS .us/ft                : DTS
RDEP .ohm.m               : RDEP
RMIC .ohm.m               : RMIC
RMED .ohm.m               : RMED
~Parameter
#==================================================================
~Ascii
# ...
 3273.0947266 6.0000000000 8.4111003876 8.5000000000 56.462928772 0.0005000000 14.203100204 0.3276000023 2.5924000740 3.5632998943 108.76159668 1.4664000273 90.396697998 184.83529663 2.6861000061 1.5000000000 2.9045999050
 3273.2473145 6.0000000000 8.4204998016 8.5000000000 56.162731171 0.0023000001 14.091199875 0.3707999885 2.5980999470 3.5311999321 114.90219879 1.4447000027 89.646499634 184.80679321 3.3557999134 1.5102000237 3.6963000298
 3273.3996582 6.0000000000 8.4260997772 8.5000000000 56.854984283 0.0017000000 13.148900032 0.3635999858 2.5980000496 3.7525000572 118.21389771 1.4203000069 89.847900391 184.85920715 3.1791000366 1.5921000242 2.9367001057
 3273.5520020 6.0000000000 8.4186000824 8.5000000000 54.986877441 -0.000400000 13.994299889 0.3689000010 2.5994999409 3.9663000107 118.01390076 1.0909999609 90.381103516 184.91940308 2.7888000011 1.6614999771 3.0580999851
 3273.7043457 6.0000000000 8.4260997772 8.5000000000 54.749671936 -0.002500000 13.421199799 0.3648000062 2.6082999706 4.1321997643 113.82489777 1.4982000589 90.496391296 184.95629883 3.6902999878 1.7965999842 4.7239999771
 3273.8566895 6.0000000000 8.4186000824 8.5000000000 55.193569183 -0.003400000 13.846799850 0.3655999899 2.6159999371 4.0564999580 107.47859955 1.5558999777 90.513893127 184.87069702 3.3478999138 1.8743000031 3.4156999588
 3274.0092773 6.0000000000 8.4260997772 8.5000000000 55.481956482 0.0155999996 15.318899155 0.3468999863 2.6307001114 3.9928998947 109.15249634 1.6775000095 90.409301758 184.77639771 2.8973999023 1.8983000517 3.2126998901
 3274.1616211 6.0000000000 8.4035997391 8.5000000000 53.974079132 0.0329999998 15.427900314 0.3382999897 2.6400001049 4.0317001343 114.31909943 1.9625999928 90.382301331 184.59379578 3.0271999836 1.8134000301 3.1368000507
 3274.3139648 6.0000000000 8.4260997772 8.5000000000 55.350067139 0.0375000015 15.910799980 0.3327000141 2.6394999027 4.1511998177 112.11620331 2.0797998905 90.390998840 184.55090332 3.8780999184 1.7619999647 4.0854997635
 3274.4663086 6.0000000000 8.4035997391 8.5000000000 53.842517853 0.0176999997 15.921699524 0.3224000037 2.6247999668 4.2642002106 106.59850311 2.5030999184 90.515296936 184.51249695 3.3842000961 1.8581999540 2.3873000145
 3274.6188965 6.0000000000 8.4186000824 8.5000000000 55.004917145 -0.000100000 16.377000809 0.3104000092 2.6087000370 4.2972998619 107.73079681 2.4809999466 90.621902466 184.51629639 3.1205999851 2.0295000076 3.3083999157
 3274.7712402 6.0000000000 8.4186000824 8.5000000000 57.172901154 0.0063999998 17.082300186 0.3321000040 2.5978000164 4.2178001404 114.16829681 2.1881000996 90.721199036 184.42839050 2.5552000999 2.1703000069 3.3696999550
 3274.9235840 6.0000000000 8.4260997772 8.5000000000 56.218505859 0.0241999999 18.467199326 0.3609000146 2.5917000771 4.2445998192 117.94789886 1.9773001671 90.756797791 184.37400818 2.4565000534 1.9089000225 2.9728000164
 3275.0759277 6.0000000000 8.3886003494 8.5000000000 58.745742798 0.0694999993 17.395000458 0.3621999919 2.6377000809 4.3137001991 117.89219666 2.2272999287 90.451896667 184.35809326 2.7342000008 1.6698000431 3.0729999542
 3275.2285156 6.0000000000 8.2910003662 8.5000000000 60.013774872 0.1053000018 17.566499710 0.3368000090 2.6875000000 4.4383001328 116.02079773 2.2551999092 90.444602966 184.34271240 2.4602000713 1.5599999428 2.3807001114
 3275.3808594 6.0000000000 8.7340002060 8.5000000000 57.704067230 0.1374000013 17.610900879 0.3235000074 2.7376000881 4.4526000023 112.16809845 1.9730998278 90.111701965 184.35009766 3.3517999649 1.6672999859 3.0016000271
 3275.5332031 6.0000000000 8.6589002609 8.5000000000 59.791996002 0.1454000026 17.864299774 0.3147000074 2.7416000366 4.4184999466 108.64230347 2.3162999153 90.333297729 184.35099792 4.4482002258 1.7655999660 5.0472002029
 3275.6855469 6.0000000000 8.5537996292 8.5000000000 59.954727173 0.1555999964 17.201799393 0.3294999897 2.7537999153 4.3821001053 112.27439880 2.5715999603 90.474197388 184.33569336 2.4052999020 1.7875000238 2.5487999916
 3275.8378906 7.0000000000 8.5388002396 8.5000000000 60.870079041 0.1630000025 17.663999557 0.3589999974 2.7597999573 4.3913998604 120.72280121 2.4456000328 90.370201111 184.35380554 2.6356999874 1.7906999588 2.6243999004
 3275.9904785 7.0000000000 8.4561996460 8.5000000000 61.145996094 0.1652999967 17.552299500 0.3731999993 2.7558000088 4.4232997894 125.31620026 2.3524999619 90.445198059 184.28329468 2.4393000603 1.8593000174 2.3262000084
 3276.1428223 7.0000000000 8.4317998886 8.5000000000 59.918640137 0.1634999961 16.988899231 0.3682999909 2.7472999096 4.4443998337 126.88279724 2.1031000614 90.458702087 184.26950073 2.3550999165 1.9688999653 3.0281000137
 3276.2951660 7.0000000000 8.4336996078 8.5000000000 60.724079132 0.1639000028 16.119600296 0.3436000049 2.7483000755 4.4135999680 130.09689331 2.2672998905 90.291793823 184.99650574 3.1138000488 2.0573999882 3.2370998859
 3276.4475098 7.0000000000 8.4186000824 8.5000000000 62.455379486 0.1632999927 16.034900665 0.3659000099 2.7539000511 4.3558998108 131.36430359 2.1800000668 91.180099487 187.27130127 3.2774999142 2.1124000549 3.4082000256
 3276.6000977 7.0000000000 8.4336996078 8.5000000000 59.419292450 0.1580999941 16.186800003 0.3720999956 2.7486000061 4.3246002197 129.85459900 2.4087998867 90.075897217 187.04801941 2.9821000099 2.1208000183 2.9600999355
 3276.7524414 7.0000000000 8.4412002563 8.5000000000 59.008529663 0.1542000026 16.322900772 0.3952000141 2.7435998917 4.3653998375 128.43110657 2.0583999157 89.011398315 186.52099609 2.8124001026 2.1171998978 3.3269000053
 3276.9047852 7.0000000000 8.4486999512 8.5000000000 60.580051422 0.1527000070 16.977300644 0.3610999882 2.7332999706 4.4609999657 127.38079834 2.0938999653 86.839889526 173.93080139 2.7221000195 2.0964000225 3.2053000927
 3277.0571289 7.0000000000 8.4336996078 8.5000000000 58.385501862 0.1562999934 16.309099197 0.3607000113 2.7295000553 4.5380997658 126.95020294 2.2456998825 86.218002319 175.36050415 2.9030001163 2.0964999199 3.1122999191
 3277.2097168 7.0000000000 8.4336996078 8.5000000000 56.154529572 0.1563999951 16.658000946 0.3526999950 2.7263000011 4.5289001465 124.73079681 2.1187000275 86.168296814 178.59869385 2.7629001141 2.0381000042 2.8445999622
 3277.3620605 6.0000000000 8.4412002563 8.5000000000 53.570541382 0.1532000005 16.147600174 0.3783999979 2.7169001102 4.4609999657 119.51139832 1.9391000271 86.066703796 182.05180359 3.1839001179 1.9668999910 3.0167000294
 3277.5144043 6.0000000000 8.4486999512 8.5000000000 40.859252930 0.1500999928 16.388399124 0.3838000000 2.7132999897 4.3580999374 113.65440369 1.9285000563 87.551101685 183.76049805 3.4252998829 1.9179999828 3.2481999397
 3277.6667480 6.0000000000 8.4186000824 8.5000000000 35.433727264 0.1412000060 16.629299164 0.3695999980 2.6967000961 4.2779998779 111.72730255 1.9179999828 88.905097961 186.36221313 4.1772999763 1.9458999634 3.7679998875
 3277.8190918 6.0000000000 8.4260997772 8.5000000000 31.417652130 0.1290999949 16.082099915 0.3576999903 2.6842000484 4.2206001282 113.27339935 1.8403999805 89.937896729 189.28529358 3.3852000237 1.9765000343 3.8824000359
 3277.9716797 6.0000000000 8.4561996460 8.5000000000 28.264434814 0.1129999980 16.815599442 0.3436999917 2.6642999649 4.2154002190 114.59380341 1.8281999826 89.560699463 187.38029480 3.1552999020 2.0350999832 3.2922999859
 3278.1240234 6.0000000000 8.4561996460 8.5000000000 25.828741074 0.0998999998 16.721799850 0.3601999879 2.6487998962 4.2506999969 116.27220154 1.7448999882 87.836898804 183.68409729 2.8922998905 2.1226000786 4.1209998131
 3278.2763672 6.0000000000 8.5237998962 8.5000000000 23.206693649 0.0930999964 16.181100845 0.3540999889 2.6454000473 4.3171000481 116.81590271 2.0344998837 85.878196716 174.83819580 2.9879999161 2.0443000793 2.9983999729
 3278.4287109 6.0000000000 8.5237998962 8.5000000000 21.759841919 0.0879999995 15.382699966 0.3452000022 2.6603999138 4.3902997971 112.92669678 2.1480000019 85.440895081 175.28709412 3.1510000229 1.8832000494 3.6730999947
 3278.5812988 6.0000000000 8.3961000443 8.5000000000 20.870735168 0.0886999965 15.275600433 0.3257000148 2.7035000324 4.4621000290 106.22899628 1.9142998457 85.914299011 179.07440186 3.6199998856 1.8299000263 3.1094999313
