# LAS format log file from PETREL
# Project units are specified as depth units
#==================================================================
~Version information
VERS.   2.0:
WRAP.   NO:
#==================================================================
~Well
STRT .m      2726.1311035 :
STOP .m      3477.3107910 :
STEP .m     0.00000000 :
NULL .        -999.250000 :
COMP.           : COMPANY
WELL.  35/9-5   : WELL
FLD.            : FIELD
LOC.            : LOCATION
SRVC.           : SERVICE COMPANY
DATE.  2018-09-11 14:49:02   : Log Export Date {yyyy-MM-dd HH:mm:ss}
PROV.           : PROVINCE
UWI.   35/9-5   : UNIQUE WELL ID
API.            : API NUMBER
#==================================================================
~Curve
DEPT .m                   : DEPTH
Lithology_geolink ._      : Lithology_geolink
CALI .in                  : CALI
BS .in                    : BS
ROP .m/h                  : ROP
DRHO .g/cm3               : DRHO
THOR .ppm                 : THOR
NPHI .m3/m3               : NPHI
RHOB .g/cm3               : RHOB
PEF .b/e                  : PEF
GR .gAPI                  : GR
URAN .ppm                 : URAN
DTC .us/ft                : DTC
DTS .us/ft                : DTS
RDEP .ohm.m               : RDEP
RMIC .ohm.m               : RMIC
RMED .ohm.m               : RMED
~Parameter
#==================================================================
~Ascii
# ...
 3171.5964355 13.000000000 8.4786996841 8.5000000000 47.559711456 -0.008200000 16.166999817 0.3637999892 2.6275999546 3.9372999668 113.41249847 3.3691000938 82.137298584 165.20190430 4.3587999344 5.7434000969 4.6968002319
 3171.7487793 13.000000000 8.4862003326 8.5000000000 48.930118561 -0.010900000 16.481199265 0.3684000075 2.6138999462 4.0124001503 111.55609894 3.5109999180 82.167999268 164.68099976 6.2895998955 5.5288000107 7.0275001526
 3171.9013672 13.000000000 8.4711999893 8.5000000000 50.171260834 -0.010300000 16.724000931 0.3709999919 2.6115000248 4.0615000725 111.37609863 3.4753999710 82.358299255 164.85279846 5.2727999687 5.4506998062 4.9021000862
 3172.0537109 13.000000000 8.4711999893 8.5000000000 53.960632324 -0.008700000 17.818199158 0.3540000021 2.6103000641 4.1066999435 112.46379852 3.1642000675 82.385299683 164.94209290 6.0451002121 5.5468997955 4.7032999992
 3172.2060547 13.000000000 8.4786996841 8.5000000000 52.955383301 -0.006000000 17.896200180 0.3278000057 2.6119000912 4.0581998825 105.96230316 2.8982000351 82.415000916 163.18370056 8.3839998245 6.1821999550 6.9210000038
 3172.3583984 13.000000000 8.4862003326 8.5000000000 51.575786591 -0.002900000 15.752598763 0.3305000067 2.6149001122 3.8645000458 97.195701599 2.8728001118 80.359199524 161.30749512 7.7883000374 7.7312998772 11.027500153
 3172.5109863 13.000000000 8.4486999512 8.5000000000 52.250331879 0.0026000000 15.729199409 0.3438999951 2.6277999878 3.5699000359 92.789596558 2.0810000896 78.408897400 160.45800781 10.855199814 9.7922000885 7.4836997986
 3172.6633301 13.000000000 8.4637002945 8.5000000000 53.811679840 0.0057000001 14.868000031 0.3303000033 2.6363000870 3.3294000626 94.582099915 1.9428000450 76.462089539 155.34759521 5.6884999275 9.9679002762 8.1819000244
 3172.8156738 13.000000000 8.4637002945 8.5000000000 54.534778595 0.0074000000 15.250100136 0.3084999919 2.6326000690 3.2658998966 101.83039856 2.0320999622 75.787696838 153.15589905 8.5790004730 7.1300997734 27.916000366
 3172.9680176 13.000000000 8.4561996460 8.5000000000 54.954067230 0.0016000000 14.996100426 0.2854999900 2.5826001167 3.3585999012 107.44909668 2.0176999569 75.470199585 152.89160156 6.2638001442 3.8448998928 7.2940001488
 3173.1206055 13.000000000 8.4937000275 8.5000000000 56.675846100 -0.001500000 15.197199821 0.2872999907 2.5336000919 3.4737999439 111.85430145 2.0754001141 76.227096558 153.00549316 5.9328999519 2.6496000290 6.6205000877
 3173.2729492 13.000000000 8.4637002945 8.5000000000 58.444557190 -0.000800000 15.444000244 0.2653000057 2.5099000931 3.5102999210 115.81559753 2.0051999092 77.111007690 153.77560425 6.9573998451 2.1668999195 7.1078000069
 3173.4252930 13.000000000 8.4561996460 8.5000000000 62.683078766 0.0253999997 15.664600372 0.2439000010 2.5729000568 3.4742000103 114.51170349 2.2815001011 79.059700012 153.67120361 6.4890999794 2.4955000877 5.8502001762
 3173.5776367 13.000000000 8.4711999893 8.5000000000 58.412403107 0.0318000019 15.060299873 0.2511000037 2.6273999214 3.4140000343 110.92269897 2.5636000633 80.536598206 153.35189819 7.4538998604 2.6112000942 6.9958000183
 3173.7299805 13.000000000 8.4637002945 8.5000000000 58.867126465 0.0272000004 14.928000450 0.2836999893 2.6556000710 3.4133000374 115.04879761 2.7716000080 80.782302856 157.00140381 3.8480999470 2.3747999668 4.3533000946
 3173.8825684 13.000000000 8.4937000275 8.5000000000 61.413387299 -0.0000000000 12.626099586 0.3154999912 2.6294999123 3.4333999157 122.36380005 2.5689001083 82.539001465 158.07460022 3.4767000675 2.0416998863 5.8280000687
 3174.0349121 13.000000000 8.4786996841 8.5000000000 63.619094849 -0.006600000 10.453800201 0.3273000121 2.6096999645 3.4842998981 108.75679779 2.0069000721 84.537902832 158.06880188 10.110799789 2.0046999454 12.523900032
 3174.1872559 13.000000000 8.4862003326 8.5000000000 60.740486145 -0.006700000 7.4292998314 0.2196000069 2.5994000435 3.6184000969 74.953598022 1.6404999495 84.801597595 152.49040222 214.67430115 2.5578999519 219.45069885
 3174.3395996 12.000000000 8.4937000275 8.5000000000 58.860897064 0.0110999998 6.5451998711 0.1669999957 2.6298000813 3.8824000359 54.477298737 1.6953999996 85.777397156 149.78030396 72.259300232 2.9282000065 138.87100220
 3174.4921875 12.000000000 8.4937000275 8.5000000000 56.960632324 0.0284000002 7.8548998833 0.1497000009 2.6858999729 4.1005001068 62.853401184 2.0676000118 61.679798126 146.60609436 6.6296000481 4.8131999969 8.3784999847
 3174.6445313 12.000000000 8.4862003326 8.5000000000 53.409122467 0.0292000007 10.540900230 0.1682000011 2.6942000389 4.0332999229 85.960296631 2.9107000828 62.884895325 139.30499268 6.5187997818 4.3920998573 8.5677003860
 3174.7968750 12.000000000 8.5275001526 8.5000000000 53.457019806 0.0129000004 12.148300171 0.1666000038 2.6584999561 3.7179999352 103.53160095 3.7476000786 70.348602295 135.11520386 5.8039999008 5.1774001122 6.3723001480
 3174.9492188 12.000000000 8.5011997223 8.5000000000 51.141407013 -0.002400000 13.858099937 0.1589999944 2.6113998890 3.3324000835 111.94280243 3.7451000214 76.459693909 137.54060364 6.4566998482 4.5019001961 7.8689999580
 3175.1018066 12.000000000 8.4937000275 8.5000000000 52.610897064 0.0022000000 13.496199608 0.1916999966 2.6161000729 3.1603999138 117.17099762 3.3078999519 79.241897583 141.18290710 6.3074002266 4.8260002136 7.0847997665
 3175.2541504 12.000000000 8.5011997223 8.5000000000 52.645343781 0.0057999999 13.439100266 0.2486000061 2.6233999729 3.0669999123 115.56510162 3.1301000118 80.508903503 144.95339966 6.5883998871 4.9717001915 7.4036998749
 3175.4064941 12.000000000 8.4937000275 8.5000000000 52.218502045 0.0065000001 12.102399826 0.3280000091 2.6184999943 3.0773999691 110.51029968 3.4328999519 80.537399292 146.25689697 6.8723998070 4.9036998749 6.9784002304
 3175.5588379 12.000000000 8.4862003326 8.5000000000 51.099411011 0.0062000002 12.390700340 0.3077000082 2.6115999222 3.0799000263 110.18460083 3.4126999378 80.037002563 147.05969238 5.6421999931 4.9130001068 5.5767002106
 3175.7111816 12.000000000 8.4862003326 8.5000000000 52.192256927 0.0055000000 12.988100052 0.2939000130 2.6077001095 3.1287999153 113.16770172 2.9551000595 80.511199951 148.84010315 5.9731998444 4.3856000900 6.3369998932
 3175.8637695 12.000000000 8.4786996841 8.5000000000 53.678478241 0.0048000002 13.009799957 0.3167000115 2.6150999069 3.3124001026 116.77780151 2.9474999905 80.408599854 149.33569336 5.4732999802 4.1452999115 6.1719999313
 3176.0161133 12.000000000 8.4486999512 8.5000000000 56.433723450 -0.002100000 13.929200172 0.3350000083 2.6133999825 3.5327000618 117.76950073 3.1003999710 80.558197021 149.20109558 5.2525000572 3.8926999569 5.0275998116
 3176.1684570 12.000000000 8.4561996460 8.5000000000 60.640419006 -0.006800000 13.880100250 0.3481999934 2.6191000938 3.7815001011 117.46450043 3.0929999352 80.719810486 149.95849609 5.9498000145 3.8401000500 5.9777998924
 3176.3208008 12.000000000 8.4486999512 8.5000000000 58.794288635 -0.008800000 13.534399986 0.3443000019 2.6263999939 3.8506999016 116.93280029 3.0919001102 80.796096802 150.17950439 6.2609000206 4.0767998695 5.8849000931
 3176.4733887 12.000000000 8.4336996078 8.5000000000 59.953083038 -0.005700000 13.193799973 0.3129000068 2.6394999027 3.7632000446 111.25129700 3.0571000576 80.951103210 150.39390564 5.2600002289 3.8819000721 6.4018998146
 3176.6257324 12.000000000 8.4260997772 8.5000000000 60.555114746 -0.002100000 13.639300346 0.2901000082 2.6456999779 3.5580999851 106.26039886 3.3592998981 81.023101807 150.51939392 5.5366001129 3.6054999828 5.9045000076
 3176.7780762 12.000000000 8.4786996841 8.5000000000 58.833663940 0.0003000000 14.694199562 0.2739000022 2.6442999840 3.3689999580 105.99289703 3.1812000275 81.000000000 149.74870300 5.7023000717 3.5362999439 5.8544998169
 3176.9304199 12.000000000 8.5050001144 8.5000000000 60.170604706 0.0041999999 15.016200066 0.2852999866 2.6475000381 3.2929999828 106.02269745 2.7281999588 80.684600830 149.70820618 5.9415998459 3.4688000679 6.7453999519
 3177.0830078 12.000000000 8.5011997223 8.5000000000 61.465549469 0.0103000002 14.387900352 0.2949999869 2.6556999683 3.2827999592 108.22360229 2.6696999073 80.524299622 149.97450256 5.9411997795 3.9853000641 6.3256998062
