# LAS format log file from PETREL
# Project units are specified as depth units
#==================================================================
~Version information
VERS.   2.0:
WRAP.   NO:
#==================================================================
~Well
STRT .m      2949.7507324 :
STOP .m      3605.5278320 :
STEP .m     0.00000000 :
NULL .        -999.250000 :
COMP.           : COMPANY
WELL.  35/9-10 S   : WELL
FLD.            : FIELD
LOC.            : LOCATION
SRVC.           : SERVICE COMPANY
DATE.  2018-09-11 14:49:01   : Log Export Date {yyyy-MM-dd HH:mm:ss}
PROV.           : PROVINCE
UWI.   35/9-10 S   : UNIQUE WELL ID
API.            : API NUMBER
#==================================================================
~Curve
DEPT .m                   : DEPTH
Lithology_geolink ._      : Lithology_geolink
CALI .in                  : CALI
BS .in                    : BS
ROP .m/h                  : ROP
DRHO .g/cm3               : DRHO
THOR .ppm                 : THOR
NPHI .m3/m3               : NPHI
RHOB .g/cm3               : RHOB
PEF .b/e                  : PEF
GR .gAPI                  : GR
URAN .ppm                 : URAN
DTC .us/ft                : DTC
DTS .us/ft                : DTS
RDEP .ohm.m               : RDEP
RMED .ohm.m               : RMED
~Parameter
#==================================================================
~Ascii
# ...
 3425.2385254 5.0000000000 8.5474004745 8.5000000000 78.214065552 0.0146298083 11.716699600 0.3140950203 2.6042692661 3.3906366825 88.426956177 0.3786999881 81.603225708 152.80834961 7.7762312889 7.6082372665
 3425.3908691 5.0000000000 8.5500001907 8.5000000000 79.279792786 -0.005068430 11.576899529 0.3199905455 2.6190764904 3.3873052597 88.611900330 0.4199000001 82.151016235 153.29382324 7.9438314438 7.7703399658
 3425.5432129 5.0000000000 8.5417995453 8.5000000000 79.720703125 -0.015466720 11.270000458 0.3297686577 2.6235857010 3.4805006981 87.745582581 0.5386000276 83.116409302 152.36279297 7.9584536552 7.7818636894
 3425.6958008 5.0000000000 8.5354995728 8.5000000000 81.606231689 -0.016198879 10.982799530 0.3399836719 2.6032326221 3.6683988571 86.981018066 0.7195000052 83.780349731 149.94267273 7.7580218315 7.5835185051
 3425.8481445 5.0000000000 8.5460996628 8.5000000000 83.053787231 -0.003720032 10.695699692 0.3416972756 2.5732481480 3.8702764511 86.837730408 0.9791000485 83.338119507 145.84437561 7.4400095940 7.2688045502
 3426.0004883 5.0000000000 8.5606002808 8.5000000000 85.681488037 0.0248541664 10.526399612 0.3328142762 2.5613191128 3.9899084568 87.707801819 1.2354999781 82.348396301 144.61566162 7.2119650841 7.0417637825
 3426.1528320 5.0000000000 8.5593996048 8.5000000000 86.864326477 0.0513151996 10.633999825 0.3274172843 2.5650877953 4.0039558411 89.526260376 1.3919999599 81.694686890 145.05059814 7.2590479851 7.0832653046
 3426.3054199 5.0000000000 8.5467996597 8.5000000000 84.560142517 0.0595868565 10.954099655 0.3352873325 2.5709905624 3.9134454727 90.928253174 1.4270999432 81.469764709 147.73300171 7.5641107559 7.3761301041
 3426.4577637 5.0000000000 8.5322999954 8.5000000000 81.067939758 0.0511000007 11.268699646 0.3477799594 2.5754928589 3.7695307732 90.902343750 1.3624999523 81.113571167 149.25755310 7.8653173447 7.6651368141
 3426.6101074 5.0000000000 8.5180997849 8.5000000000 75.739517212 0.0372000001 11.491399765 0.3507952094 2.5793938637 3.6838371754 90.570732117 1.1928000450 81.096130371 150.16384888 8.0068740845 7.7900004387
 3426.7624512 5.0000000000 8.5095996857 8.5000000000 73.899253845 0.0272000004 11.686200142 0.3472115397 2.5841846466 3.7114109993 90.116859436 0.9165999889 80.981964111 150.55146790 8.0499629974 7.8288760185
 3426.9150391 5.0000000000 8.5099000931 8.5000000000 71.636825562 0.0221999995 11.732500076 0.3407104313 2.5927860737 3.7815873623 88.452667236 0.6564000249 81.096023560 151.52952576 8.0038747787 7.7833733559
 3427.0673828 5.0000000000 8.5184001923 8.5000000000 71.211311340 0.0164000001 11.685700417 0.3290187418 2.6021850109 3.7552423477 85.853065491 0.5196999907 80.869468689 152.01312256 7.8130059242 7.5995945930
 3427.2197266 5.0000000000 8.5269002914 8.5000000000 71.435333252 0.0038999999 11.758399963 0.3170192242 2.6034977436 3.5594141483 84.514244080 0.4623000026 81.005569458 152.27238464 7.5284562111 7.3270368576
 3427.3720703 5.0000000000 8.5318002701 8.5000000000 72.082626343 -0.007700000 11.982399940 0.3101110458 2.6042988300 3.3667087555 84.505706787 0.4625000060 81.323585510 152.43614197 7.3412995338 7.1511812210
 3427.5244141 5.0000000000 8.5375003815 8.5000000000 74.666580200 -0.014500000 12.428099632 0.3081063926 2.5981197357 3.4198286533 85.283706665 0.4964999855 81.944305420 151.53399658 7.3521642685 7.1697392464
 3427.6770020 6.0000000000 8.5482997894 8.5000000000 80.434318542 -0.014500000 13.058199883 0.3098970950 2.5709435940 3.6540243626 87.501541138 0.5220999718 82.481826782 152.87445068 7.4221873283 7.2479743958
 3427.8293457 6.0000000000 8.5569000244 8.5000000000 83.323135376 -0.002900000 13.444800377 0.3235780299 2.5387516022 3.8554770947 90.680702209 0.5893999934 82.970611572 154.96295166 7.3548083305 7.1982803345
 3427.9816895 6.0000000000 8.5604000092 8.5000000000 84.115531921 0.0261000004 13.387800217 0.3470623195 2.5347063541 3.9438586235 92.624885559 0.7602000237 83.776008606 156.76380920 7.1808791161 7.0370583534
 3428.1340332 6.0000000000 8.5630998611 8.5000000000 84.509902954 0.0546999983 12.997200012 0.3603574336 2.5498514175 3.9412090778 92.408500671 1.0184999704 84.412971497 157.80009460 7.0424432755 6.9089107513
 3428.2866211 5.0000000000 8.5565996170 8.5000000000 86.130271912 0.0656000003 12.337800026 0.3487187326 2.5588858128 3.8544392586 91.440948486 1.3640999794 85.445648193 158.95054626 6.9695162773 6.8428053856
 3428.4389648 5.0000000000 8.5438995361 8.5000000000 86.942276001 0.0608000010 11.592399597 0.3315275609 2.5631930828 3.7054388523 91.377601624 1.7762000561 86.164642334 162.38029480 6.9286651611 6.8050603867
 3428.5913086 5.0000000000 8.5376996994 8.5000000000 84.759735107 0.0526000001 11.098400116 0.3311006427 2.5787749290 3.5801007748 91.741020203 2.1191999912 85.890640259 164.20497131 6.9480686188 6.8230710030
 3428.7436523 5.0000000000 8.5371999741 8.5000000000 83.665901184 0.0438000001 10.959799767 0.3520328104 2.5966427326 3.5518898964 91.900688171 2.2894001007 85.685646057 165.23002625 7.0860571861 6.9535813332
 3428.8962402 5.0000000000 8.5269002914 8.5000000000 82.265693665 0.0298999995 11.128700256 0.3722676337 2.5946033001 3.5857453346 92.077018738 2.3015999794 85.466354370 165.59980774 7.3958034515 7.2491264343
 3429.0485840 6.0000000000 8.5089998245 8.5000000000 81.565101624 0.0148000000 11.570500374 0.3793886304 2.5761296749 3.5876967907 92.383712769 2.1723001003 85.244461060 165.97070313 7.8999915123 7.7317261696
 3429.2009277 6.0000000000 8.4895000458 8.5000000000 78.253349304 0.0024999999 12.161800385 0.3821955025 2.5573301315 3.4841661453 93.249214172 1.9063999653 84.610931396 165.83422852 8.4587049484 8.2657432556
 3429.3532715 6.0000000000 8.4806003571 8.5000000000 77.420288086 -0.003100000 12.631299973 0.3743126690 2.5541052818 3.3401310444 95.064888000 1.5845999718 84.022048950 164.44422913 8.8388919830 8.6256237030
 3429.5056152 6.0000000000 8.4925003052 8.5000000000 76.118347168 -0.004400000 12.884499550 0.3508751988 2.5608782768 3.2982337475 95.680435181 1.2563999891 83.413253784 160.95280457 8.9283151627 8.7052459717
 3429.6582031 6.0000000000 8.5226001740 8.5000000000 75.639213562 -0.002200000 12.994199753 0.3385196924 2.5629966259 3.4152121544 94.207962036 0.9162999988 83.104003906 157.92196655 8.6999673843 8.4809608459
 3429.8105469 6.0000000000 8.5510997772 8.5000000000 79.136444092 0.0096000005 13.016099930 0.3427931070 2.5649969578 3.6421360970 92.110862732 0.6179999709 83.074943542 156.45852661 8.1812314987 7.9704189301
 3429.9628906 5.0000000000 8.5578002930 8.5000000000 83.115013123 0.0274999999 12.972200394 0.3546809256 2.5673961639 3.7953546047 90.389251709 0.3932999969 83.130302429 156.11737061 7.5331392288 7.3505935669
 3430.1152344 5.0000000000 8.5445995331 8.5000000000 80.105155945 0.0388000049 12.922599792 0.3674590588 2.5695929527 3.7332999706 89.183059692 0.2312999964 82.892059326 156.49548340 7.0316071510 6.8771166801
 3430.2678223 5.0000000000 8.5417003632 8.5000000000 73.101127625 0.0366000012 12.824500084 0.3680990338 2.5823795795 3.5516910553 88.622390747 0.1835999936 82.951202393 156.95326233 6.8259277344 6.6947903633
 3430.4201660 5.0000000000 8.5528001785 8.5000000000 70.658760071 0.0214000009 12.698100090 0.3526248336 2.5929830074 3.4881014824 89.801704407 0.2820000052 83.062828064 157.50152588 6.8474645615 6.7362332344
 3430.5725098 5.0000000000 8.5567998886 8.5000000000 79.781288147 0.0029000000 12.654299736 0.3411184251 2.5726325512 3.5755596161 92.562576294 0.4514999986 83.190696716 156.95388794 6.9410495758 6.8482203484
 3430.7248535 5.0000000000 8.5551004410 8.5000000000 79.944732666 0.0030000000 12.712599754 0.3469811082 2.5414998531 3.6542477608 94.419158936 0.6489999890 82.860160828 156.98689270 7.0534396172 6.9758906364
 3430.8774414 5.0000000000 8.5675001144 8.5000000000 80.242958069 0.0269000009 12.859800339 0.3577826917 2.5377058983 3.6206543446 94.161720276 0.8475999832 82.702049255 157.02894592 7.2346096039 7.1667943001
 3431.0297852 5.0000000000 8.5836000443 8.5000000000 77.597427368 0.0518999994 13.096699715 0.3576003313 2.5582671165 3.5228569508 93.758247375 0.9111999869 82.819206238 157.57362366 7.5268311501 7.4603295326
