# LAS format log file from PETREL
# Project units are specified as depth units
#==================================================================
~Version information
VERS.   2.0:
WRAP.   NO:
#==================================================================
~Well
STRT .m      2535.9846191 :
STOP .m      3240.0725098 :
STEP .m     0.00000000 :
NULL .        -999.250000 :
COMP.           : COMPANY
WELL.  35/9-8   : WELL
FLD.            : FIELD
LOC.            : LOCATION
SRVC.           : SERVICE COMPANY
DATE.  2018-09-11 14:49:02   : Log Export Date {yyyy-MM-dd HH:mm:ss}
PROV.           : PROVINCE
UWI.   35/9-8   : UNIQUE WELL ID
API.            : API NUMBER
#==================================================================
~Curve
DEPT .m                   : DEPTH
Lithology_geolink ._      : Lithology_geolink
CALI .in                  : CALI
BS .in                    : BS
ROP .m/h                  : ROP
DRHO .g/cm3               : DRHO
THOR .ppm                 : THOR
NPHI .m3/m3               : NPHI
RHOB .g/cm3               : RHOB
PEF .b/e                  : PEF
GR .gAPI                  : GR
URAN .ppm                 : URAN
DTC .us/ft                : DTC
DTS .us/ft                : DTS
RDEP .ohm.m               : RDEP
RMIC .ohm.m               : RMIC
RMED .ohm.m               : RMED
~Parameter
#==================================================================
~Ascii
# ...
 3139.3361816 7.0000000000 8.6515998840 8.5000000000 37.411418915 0.0542999990 17.813800812 0.3898999989 2.5434999466 5.5054001808 132.47599792 6.1560001373 89.773803711 175.01919556 2.6600999832 5.5831303596 2.7035000324
 3139.4885254 7.0000000000 8.6572999954 8.5000000000 40.750656128 0.0408000015 18.073999405 0.3939000070 2.5150001049 5.4661998749 136.28739929 6.1291999817 89.617202759 175.28379822 1.3931000233 3.9193594456 1.4229999781
 3139.6408691 7.0000000000 8.6518001556 8.5000000000 39.592517853 0.0383000001 18.134000778 0.3855000138 2.5139999390 5.5029997826 140.10659790 6.3347997665 89.261100769 175.20530701 1.4201999903 3.5841052532 1.4503999949
 3139.7934570 7.0000000000 8.6492004395 8.5000000000 37.275920868 0.0364999995 18.500799179 0.3734000027 2.5181999207 5.5743999481 144.63619995 6.4840002060 88.633796692 174.37930298 2.9756999016 4.4638886452 3.0206999779
 3139.9458008 7.0000000000 8.6563997269 8.5000000000 36.268043518 0.0428999998 19.094800949 0.3680999875 2.5459001064 5.4628000259 149.00039673 6.4193000793 87.867599487 173.13270569 5.4534997940 5.8315396309 5.5135002136
 3140.0981445 7.0000000000 8.6660003662 8.5000000000 34.252296448 0.0562999994 19.362800598 0.3695000112 2.5998001099 5.1600999832 151.62660217 6.3494000435 86.924003601 171.46121216 6.6592001915 6.1689357758 6.7491002083
 3140.2504883 7.0000000000 8.6767997742 8.5000000000 34.144027710 0.0557999983 19.309700012 0.3707000017 2.5947999954 5.2003998756 150.64250183 6.3762998581 85.933296204 169.58360291 6.3031001091 6.8166928291 6.4018998146
 3140.4028320 7.0000000000 8.6861000061 8.5000000000 33.927822113 0.0452000014 18.370700836 0.3693999946 2.5673000813 5.4320001602 142.40310669 6.4061999321 84.869400024 166.44329834 5.5830998421 8.3034410477 5.6645998955
 3140.5554199 7.0000000000 8.6815004349 8.5000000000 33.332023621 0.0199999996 16.968500137 0.3736999929 2.5541000366 5.8478999138 128.70069885 5.7500000000 83.732398987 162.06990051 5.0626001358 5.7703127861 5.1345000267
 3140.7077637 7.0000000000 8.6611003876 8.5000000000 32.140747070 -0.028800000 16.478799820 0.3837000132 2.5889999866 7.1844000816 120.09239960 4.9319000244 82.495796204 156.41888428 4.8713002205 4.4360284805 4.9349999428
 3140.8601074 7.0000000000 8.6511001587 8.5000000000 31.817258835 -0.032099999 16.801700592 0.3774000108 2.6677000523 8.1810998917 122.44049835 4.6936001778 81.337402344 151.42529297 5.4161000252 5.1409974098 5.4622998238
 3141.0124512 7.0000000000 8.6565999985 8.5000000000 31.169946671 0.0450000018 17.202600479 0.3564999998 2.8926000595 9.1379995346 126.98629761 4.4822001457 80.642097473 149.32130432 7.3263998032 6.2632331848 7.3338999748
 3141.1650391 7.0000000000 8.6520996094 8.5000000000 30.185039520 0.0918999985 17.211200714 0.3467999995 2.9361999035 8.5740995407 121.47540283 4.2081999779 80.465202332 149.58277893 7.4098000526 7.9014701843 7.3118000031
 3141.3173828 7.0000000000 8.6361999512 8.5000000000 28.214893341 0.1149000004 15.975999832 0.3488999903 2.7825000286 6.2430000305 105.95259857 4.0367999077 80.967399597 151.69459534 6.4615001678 7.2351522446 6.3018999100
 3141.4697266 7.0000000000 8.6398000717 8.5000000000 29.213253021 -0.056600001 14.851099968 0.3542000055 2.7291998863 5.1687002182 96.721397400 4.0100998878 81.952499390 154.26690674 6.2954001427 5.4594163895 6.1159000397
 3141.6220703 16.000000000 8.6642999649 8.5000000000 31.209648132 -0.039099999 14.895899773 0.3617999852 2.6586000919 4.1448001862 105.44740295 4.5499000549 83.379402161 157.02738953 6.0127000809 4.4714732170 5.8427000046
 3141.7746582 16.000000000 8.6864995956 8.5000000000 35.264762878 -0.025900001 15.659599304 0.3601000011 2.6092000008 3.5927999020 121.97370148 5.2933998108 84.993202209 160.05790710 5.0577001572 3.5800199509 4.9359002113
 3141.9270020 16.000000000 8.6978998184 8.5000000000 37.292652130 -0.015300000 16.914800644 0.3494000137 2.5787999630 3.5337998867 132.09840393 5.3832001686 86.422500610 163.33430481 4.3097000122 2.8058407307 4.2210001945
 3142.0793457 7.0000000000 8.6964998245 8.5000000000 37.837924957 -0.004500000 17.818199158 0.3546000123 2.5552000999 3.7955000401 136.52409363 5.0729999542 87.294601440 166.73989868 4.2371001244 1.7725679874 4.1669998169
 3142.2316895 7.0000000000 8.6585998535 8.5000000000 38.110565186 0.0089999996 17.971799850 0.3763000071 2.5383999348 4.1614999771 138.84269714 4.8716998100 87.620597839 170.24589539 4.7817997932 2.0044596195 4.7369999886
 3142.3840332 7.0000000000 8.5899000168 8.5000000000 40.007873535 0.0186999999 17.623100281 0.3855000138 2.5350000858 4.3812999725 138.98719788 4.8657999039 87.572601318 173.81939697 5.3256998062 3.6637065411 5.3039999008
 3142.5366211 7.0000000000 8.5382003784 8.5000000000 40.956691742 0.0164999999 17.197799683 0.3788999915 2.5550999641 4.3730998039 138.17469788 4.8696999550 87.487396240 177.25010681 5.8590998650 5.1642313004 5.8586001396
 3142.6889648 7.0000000000 8.5174999237 8.5000000000 39.599735260 0.0013000000 16.320999146 0.3707999885 2.6019001007 4.3140001297 136.60180664 4.9980001450 87.559303284 180.04249573 6.5907998085 5.5482316017 6.6223998070
 3142.8413086 7.0000000000 8.5106000900 8.5000000000 38.921588898 -0.014900000 15.361399651 0.3643000126 2.6612999439 4.3495998383 132.30540466 5.2361998558 87.820396423 182.22189331 6.7424001694 5.8789539337 6.7979998589
 3142.9936523 7.0000000000 8.5240001678 8.5000000000 35.320869446 -0.030300001 15.029100418 0.3585000038 2.6788001060 4.3090000153 127.74600220 5.3392000198 88.588401794 183.56900024 6.4520998001 5.6009755135 6.5184998512
 3143.1462402 7.0000000000 8.5514001846 8.5000000000 33.520671844 -0.038600001 15.118900299 0.3600000143 2.6296999454 4.1405000687 127.36009979 5.2550001144 89.795303345 184.61058044 6.1129999161 5.3970322609 6.2094998360
 3143.2985840 7.0000000000 8.5593996048 8.5000000000 31.358264923 -0.032600001 15.260998726 0.3679000139 2.5599999428 3.9902999401 130.86390686 4.9711999893 91.797500610 185.61250305 6.5746998787 4.8162703514 6.6993999481
 3143.4509277 7.0000000000 8.5522003174 8.5000000000 30.276903152 -0.017500000 15.304100037 0.3743999898 2.5146999359 3.9005000591 134.22479248 4.6503000259 94.085700989 186.83778381 7.4697999954 5.4854736328 7.5809001923
 3143.6032715 7.0000000000 8.5532999039 8.5000000000 29.196521759 -0.004900000 15.264100075 0.3794000149 2.4976999760 3.8378999233 134.53680420 4.4697999954 96.340499878 188.64979553 7.9063000679 6.9649386406 7.9935002327
 3143.7558594 7.0000000000 8.5539999008 8.5000000000 28.656496048 -0.000300000 15.099699974 0.3914000094 2.4930999279 3.8115999699 131.99180603 4.1542000771 98.266204834 190.63529968 8.0882997513 7.3003387451 8.1391000748
 3143.9082031 7.0000000000 8.5361995697 8.5000000000 31.740812302 -0.001500000 14.954799652 0.4081000090 2.4900000095 3.8313000202 128.40159607 3.5738999844 99.418098450 192.12159729 8.1312999725 7.2190356255 8.0740003586
 3144.0605469 7.0000000000 8.5097999573 8.5000000000 33.283138275 -0.003900000 14.874799728 0.4172999859 2.4849998951 3.8343999386 125.79450226 3.1387999058 100.04370117 192.57661438 7.9819002151 7.2418389320 7.8025999069
 3144.2128906 7.0000000000 8.4940996170 8.5000000000 32.771324158 -0.003800000 14.736499786 0.4251999855 2.4793999195 3.7813999653 124.70500183 3.0285000801 99.873001099 190.95129395 8.1774997711 7.6410470009 7.9085001945
 3144.3652344 7.0000000000 8.4925003052 8.5000000000 32.515419006 -0.000900000 14.647700310 0.4334000051 2.4753999710 3.7121999264 124.59410095 3.0931000710 99.022796631 187.92630005 8.4422998428 8.4178180695 8.0885000229
 3144.5178223 7.0000000000 8.5002002716 8.5000000000 39.942588806 0.0027999999 14.532699585 0.4419000149 2.4749000072 3.6789000034 124.78990173 3.2843999863 97.287193298 183.81680298 8.1286001205 8.4288721085 7.6944999695
 3144.6701660 7.0000000000 8.5167999268 8.5000000000 43.656169891 0.0031000001 14.296799660 0.4480000138 2.4776000977 3.7244999409 124.73100281 3.5803999901 95.027099609 179.38478088 7.3983998299 8.4105396271 6.9368000031
 3144.8225098 7.0000000000 8.5362997055 8.5000000000 41.544948578 -0.000600000 14.074799538 0.4329000115 2.4897999763 3.8691999912 123.90100098 3.9912002087 92.539703369 174.57200623 6.9626002312 7.5630302429 6.5029001236
