# LAS format log file from PETREL
# Project units are specified as depth units
#==================================================================
~Version information
VERS.   2.0:
WRAP.   NO:
#==================================================================
~Well
STRT .m      1350.9222412 :
STOP .m      2973.9824219 :
STEP .m     0.00000000 :
NULL .        -999.250000 :
COMP.           : COMPANY
WELL.  35/9-7   : WELL
FLD.            : FIELD
LOC.            : LOCATION
SRVC.           : SERVICE COMPANY
DATE.  2018-09-11 14:49:02   : Log Export Date {yyyy-MM-dd HH:mm:ss}
PROV.           : PROVINCE
UWI.   35/9-7   : UNIQUE WELL ID
API.            : API NUMBER
#==================================================================
~Curve
DEPT .m                   : DEPTH
Lithology_geolink ._      : Lithology_geolink
CALI .in                  : CALI
BS .in                    : BS
ROP .m/h                  : ROP
DRHO .g/cm3               : DRHO
THOR .ppm                 : THOR
NPHI .m3/m3               : NPHI
RHOB .g/cm3               : RHOB
PEF .b/e                  : PEF
GR .gAPI                  : GR
URAN .ppm                 : URAN
DTC .us/ft                : DTC
DTS .us/ft                : DTS
RDEP .ohm.m               : RDEP
RMIC .ohm.m               : RMIC
RMED .ohm.m               : RMED
~Parameter
#==================================================================
~Ascii
# ...
 1672.3339844 6.0000000000 12.281999588 12.250000954 71.423889160 0.0351999998  -999.250000 0.4507947266 2.2045950890 3.8586745262 71.972702026  -999.250000 142.88650513 388.67770386 0.7553755045  -999.250000 0.7669647932
 1672.4863281 6.0000000000 12.354000092 12.250000954 95.111549377 0.0313000008  -999.250000 0.4384099245 2.2007031441 3.7806625366 72.949211121  -999.250000 142.39010620 389.99313354 0.7866749167  -999.250000 0.8279511333
 1672.6387939 6.0000000000 12.281999588 12.250000954 116.89633179 0.0307000000  -999.250000 0.4356022477 2.1950044632 3.8274626732 72.240570068  -999.250000 142.15969849 390.34161377 0.7658167481  -999.250000 0.7330760360
 1672.7911377 6.0000000000 12.300000191 12.250000954 132.21784973 0.0326000005  -999.250000 0.4259077907 2.1921024323 3.9725837708 75.787155151  -999.250000 142.15100098 391.11187744 0.7450166941  -999.250000 0.7369967699
 1672.9434814 6.0000000000 12.300000191 12.250000954 125.75460815 0.0342000015  -999.250000 0.4190110564 2.1951949596 4.0285105705 74.262451172  -999.250000 142.03089905 392.69836426 0.7586780787  -999.250000 0.7479823828
 1673.0959473 6.0000000000 12.300000191 12.250000954 111.28608704 0.0416000001  -999.250000 0.4239960015 2.1995964050 4.3414492607 68.394706726  -999.250000 141.87399292 396.59088135 0.7785840034  -999.250000 0.7809735537
 1673.2482910 6.0000000000 12.354000092 12.250000954 103.28083801 0.0474999994  -999.250000 0.4414719939 2.1979026794 4.5565552711 68.270187378  -999.250000 141.98950195 399.98437500 0.7839913368  -999.250000 0.7919823527
 1673.4007568 6.0000000000 12.390000343 12.250000954 98.786094666 0.0644000024  -999.250000 0.4554888010 2.1876082420 5.0894727707 68.040184021  -999.250000 142.21000671 402.90155029 0.7690120339  -999.250000 0.7480353117
 1673.5531006 6.0000000000 12.534999847 12.250000954 102.29659271 0.0737000033  -999.250000 0.4625886381 2.1852037907 5.3652582169 68.758850098  -999.250000 142.30859375 401.01235962 0.7595152259  -999.250000 0.7240384221
 1673.7055664 6.0000000000 12.624999046 12.250000954 105.80709076 0.0825000033  -999.250000 0.4531075954 2.1879978180 5.6053080559 69.159683228  -999.250000 142.42559814 398.28378296 0.7549036741  -999.250000 0.7210023999
 1673.8579102 6.0000000000 12.624999046 12.250000954 108.72703552 0.0907000005  -999.250000 0.4481039941 2.1950943470 5.7800598145 68.920188904  -999.250000 142.61570740 392.96215820 0.7587969303  -999.250000 0.7319911718
 1674.0103760 6.0000000000 12.534999847 12.250000954 114.63254547 0.1024999991  -999.250000 0.4263174534 2.2120864391 5.9040007591 72.077468872  -999.250000 143.18539429 385.25332642 0.7647951841  -999.250000 0.7399936318
 1674.1627197 6.0000000000 12.588999748 12.250000954 109.77690125 0.1045999974  -999.250000 0.4185062647 2.2184946537 5.8843159676 71.670326233  -999.250000 143.63780212 385.04165649 0.7996720672  -999.250000 0.7969543338
 1674.3151855 6.0000000000 12.354000092 12.250000954 100.09842682 0.0980999991  -999.250000 0.4019132853 2.2250947952 5.6964507103 73.838256836  -999.250000 143.66560364 387.18859863 0.8019981384  -999.250000 0.7969999909
 1674.4675293 6.0000000000 12.354000092 12.250000954 98.195541382 0.0870999992  -999.250000 0.4131909311 2.2239010334 5.4629869461 70.862388611  -999.250000 143.25830078 388.69348145 0.8030990958  -999.250000 0.7969999909
 1674.6199951 6.0000000000 12.588999748 12.250000954 94.356956482 0.0715999976  -999.250000 0.4007100165 2.2236001492 5.0501303673 65.104606628  -999.250000 141.96060181 393.95388794 0.8045988083  -999.250000 0.8059927821
 1674.7723389 6.0000000000 12.651999474 12.250000954 102.32939911 0.0741999969  -999.250000 0.3975025713 2.2240996361 5.0525975227 63.841011047  -999.250000 141.16830444 395.00723267 0.8053993583  -999.250000 0.8109959960
 1674.9246826 6.0000000000 12.359999657 12.250000954 118.27427673 0.0771000013  -999.250000 0.3818251491 2.2130179405 5.0712699890 64.788482666  -999.250000 139.80490112 388.53134155 0.8154838681  -999.250000 0.8429487348
 1675.0771484 6.0000000000 12.390000343 12.250000954 123.78609467 0.0800999999  -999.250000 0.4095777273 2.1999104023 5.1293530464 70.045791626  -999.250000 140.08099365 382.19927979 0.7812274694  -999.250000 0.7520728707
 1675.2294922 6.0000000000 12.588999748 12.250000954 126.54199219 0.0886999965  -999.250000 0.4341605902 2.2078871727 5.3012242317 70.649040222  -999.250000 140.65179443 379.92623901 0.7683206797  -999.250000 0.7280384302
 1675.3819580 6.0000000000 12.300000191 12.250000954 109.48162842 0.0982000083  -999.250000 0.4863581955 2.2264850140 5.5779781342 69.660797119  -999.250000 142.00630188 383.77764893 0.7738955021  -999.250000 0.7609735131
 1675.5343018 6.0000000000 12.263998985 12.250000954 100.91864014 0.0949999988  -999.250000 0.4948863685 2.2243034840 5.5590305328 65.047401428  -999.250000 142.45269775 386.97668457 0.7716037035  -999.250000 0.7709839940
 1675.6867676 6.0000000000 12.263998985 12.250000954 110.36745453 0.0847999975  -999.250000 0.4697202146 2.2110106945 5.3864383698 66.808578491  -999.250000 142.69400024 382.52008057 0.7574113607  -999.250000 0.7410240173
 1675.8391113 6.0000000000 12.210000038 12.250000954 115.09187317 0.0812000036  -999.250000 0.4644042253 2.2065036297 5.3094615936 68.009040833  -999.250000 142.78559875 379.83532715 0.7506054044  -999.250000 0.7090256214
 1675.9915771 6.0000000000 12.313500404 12.250000954 128.01837158 0.0838999972  -999.250000 0.4664983451 2.2126948833 5.4663739204 64.063163757  -999.250000 142.41830444 371.53024292 0.7462035418  -999.250000 0.7199912071
 1676.1439209 6.0000000000 12.326999664 12.250000954 132.31628418 0.0864000022  -999.250000 0.4713960588 2.2168967724 5.5763115883 63.290618896  -999.250000 142.23590088 368.30865479 0.7476987839  -999.250000 0.7209992409
 1676.2963867 6.0000000000 12.444999695 12.250000954 146.62072754 0.0996000022  -999.250000 0.4554128051 2.2313883305 6.0382299423 66.827171326  -999.250000 140.42329407 355.45654297 0.7539949417  -999.250000 0.7359880209
 1676.4487305 6.0000000000 12.430998802 12.250000954 152.29658508 0.1063999981  -999.250000 0.4573983848 2.2378947735 6.1037473679 66.010658264  -999.250000 139.32460022 353.04873657 0.7571974397  -999.250000 0.7489895821
 1676.6011963 6.0000000000 12.281999588 12.250000954 132.34907532 0.1097000018  -999.250000 0.4763847888 2.2437949181 5.8171296120 66.549568176  -999.250000 140.78230286 363.68218994 0.7687907219  -999.250000 0.7749791741
 1676.7535400 6.0000000000 12.227999687 12.250000954 106.72571564 0.1059999987  -999.250000 0.4754008055 2.2414019108 5.6502337456 70.876525879  -999.250000 141.40220642 374.97964478 0.7508144379  -999.250000 0.7230416536
 1676.9060059 6.0000000000 12.263998985 12.250000954 79.593177795 0.1039000005  -999.250000 0.4548164904 2.2441978455 5.4674463272 68.142196655  -999.250000 141.76159668 393.19921875 0.7483020425  -999.250000 0.7070128322
 1677.0583496 5.0000000000 12.255000114 12.250000954 78.083984375 0.1040999964  -999.250000 0.4434091449 2.2480969429 5.3859653473 65.172378540  -999.250000 141.49369812 396.93951416 0.7631880641  -999.250000 0.7489663363
 1677.2106934 5.0000000000 12.137998581 12.250000954 78.707351685 0.0951000005  -999.250000 0.4359120131 2.2442061901 5.3045306206 62.833747864  -999.250000 140.97830200 395.45248413 0.7678924799  -999.250000 0.7599823475
 1677.3631592 5.0000000000 12.156000137 12.250000954 80.807083130 0.0869999975  -999.250000 0.4416953623 2.2364060879 5.3040003777 63.999061584  -999.250000 141.01960754 392.95947266 0.7765930295  -999.250000 0.7629976273
 1677.5155029 5.0000000000 12.354000092 12.250000954 86.450134277 0.0776000097  -999.250000 0.4441960156 2.2231211662 5.2129459381 62.422527313  -999.250000 141.29089355 387.93283081 0.7786966562  -999.250000 0.7809711695
 1677.6679688 5.0000000000 12.354000092 12.250000954 89.960632324 0.0794000030  -999.250000 0.4354070723 2.2236995697 5.1150779724 64.138618469  -999.250000 141.26040649 383.23223877 0.7708063126  -999.250000 0.7390336990
 1677.8203125 5.0000000000 12.263998985 12.250000954 100.65616608 0.0890000015  -999.250000 0.4128361940 2.2376775742 4.9591498375 64.539360046  -999.250000 140.23779297 374.71484375 0.7892704010  -999.250000 0.7819311619
