# LAS format log file from PETREL
# Project units are specified as depth units
#==================================================================
~Version information
VERS.   2.0:
WRAP.   NO:
#==================================================================
~Well
STRT .m      2726.1311035 :
STOP .m      3477.3107910 :
STEP .m     0.00000000 :
NULL .        -999.250000 :
COMP.           : COMPANY
WELL.  35/9-5   : WELL
FLD.            : FIELD
LOC.            : LOCATION
SRVC.           : SERVICE COMPANY
DATE.  2018-09-11 14:49:02   : Log Export Date {yyyy-MM-dd HH:mm:ss}
PROV.           : PROVINCE
UWI.   35/9-5   : UNIQUE WELL ID
API.            : API NUMBER
#==================================================================
~Curve
DEPT .m                   : DEPTH
Lithology_geolink ._      : Lithology_geolink
CALI .in                  : CALI
BS .in                    : BS
ROP .m/h                  : ROP
DRHO .g/cm3               : DRHO
THOR .ppm                 : THOR
NPHI .m3/m3               : NPHI
RHOB .g/cm3               : RHOB
PEF .b/e                  : PEF
GR .gAPI                  : GR
URAN .ppm                 : URAN
DTC .us/ft                : DTC
DTS .us/ft                : DTS
RDEP .ohm.m               : RDEP
RMIC .ohm.m               : RMIC
RMED .ohm.m               : RMED
~Parameter
#==================================================================
~Ascii
# ...
 3419.7036133 6.0000000000 8.4035997391 8.5000000000 62.150920868 0.0015000000 10.388699532 0.3425999880 2.5750999451 3.6177000999 103.81500244 3.0290999413 72.608497620 128.93159485 20.586948395 17.443700790 22.401800156
 3419.8559570 6.0000000000 8.4091997147 8.5000000000 63.788715363 0.0031999999 10.437500000 0.3476000130 2.5815000534 3.5799999237 101.39790344 2.9981999397 72.608596802 128.95120239 22.069917679 17.523399353 23.571100235
 3420.0083008 6.0000000000 8.4091997147 8.5000000000 65.541992188 0.0046000001 10.787699699 0.3458000124 2.5864000320 3.5397999287 96.790496826 2.6830999851 72.606498718 128.78599548 25.794851303 17.840999603 28.050800323
 3420.1608887 6.0000000000 8.4111003876 8.5000000000 65.621391296 0.0048000002 10.431300163 0.3357999921 2.5851998329 3.5485999584 96.828002930 2.6459000111 72.603797913 128.97380066 20.820602417 18.299600601 20.911699295
 3420.3132324 6.0000000000 8.4148998260 8.5000000000 66.705047607 0.0038000001 10.601900101 0.3587000072 2.5806000233 3.5638000965 101.58170319 2.8543000221 72.595199585 129.06520081 20.760183334 18.673700333 22.792999268
 3420.4655762 6.0000000000 8.4260997772 8.5000000000 69.169952393 0.0035999999 10.849900246 0.3452999890 2.5806000233 3.5622000694 108.28040314 3.0815000534 72.586502075 128.82029724 19.941314697 18.565700531 20.556600571
 3420.6179199 6.0000000000 8.4186000824 8.5000000000 69.236877441 0.0034000000 11.506899834 0.3420999944 2.5794999599 3.5502998829 113.73529816 2.9572000504 72.577400208 128.86729431 20.111150742 18.318899155 19.877099991
 3420.7705078 6.0000000000 8.3979997635 8.5000000000 71.481628418 0.0031999999 11.389599800 0.3188999891 2.5806999207 3.5438001156 113.38950348 3.1029999256 72.168701172 128.73289490 20.548200607 18.123100281 20.064100266
 3420.9228516 6.0000000000 8.4035997391 8.5000000000 73.815940857 0.0046000001 11.205800056 0.3343999982 2.5852999687 3.5799000263 110.99929810 3.0104000568 72.567901611 128.89559937 21.099416733 18.044599533 20.374500275
 3421.0751953 6.0000000000 8.4035997391 8.5000000000 75.780838013 0.0049999999 11.593099594 0.3291000128 2.5868000984 3.5947000980 111.04319763 3.0209000111 72.167900085 128.58320618 21.431268692 17.997200012 21.521400452
 3421.2275391 6.0000000000 8.3923997879 8.5000000000 72.339241028 0.0044000000 11.823300362 0.3348999918 2.5824000835 3.6108999252 113.54810333 2.9741001129 72.160598755 128.74319458 23.828153610 18.045299530 24.430999756
 3421.3798828 6.0000000000 8.3961000443 8.5000000000 71.618110657 0.0029000000 12.300800323 0.3425999880 2.5796999931 3.5606000423 112.94429779 3.1512999535 72.165298462 128.70280457 23.472951889 18.180200577 23.567399979
 3421.5324707 6.0000000000 8.4035997391 8.5000000000 66.903869629 0.0029000000 11.871700287 0.3565999866 2.5834999084 3.5118999481 109.91780090 2.9175999165 72.163597107 128.65179443 26.164777756 18.286300659 30.758800507
 3421.6848145 6.0000000000 8.3961000443 8.5000000000 66.560363770 0.0034000000 11.762399673 0.3465000093 2.5894999504 3.4618999958 112.97299957 3.1052000523 72.171997070 128.77510071 17.579387665 18.254400253 21.644800186
 3421.8371582 6.0000000000 8.3961000443 8.5000000000 64.472770691 0.0046999999 11.261400223 0.3395000100 2.5931999683 3.4849998951 120.74359894 3.3118999004 72.163002014 128.71270752 13.796250343 18.362600327 14.752099991
 3421.9895020 6.0000000000 8.3961000443 8.5000000000 64.576438904 0.0040000002 11.812600136 0.3528999984 2.5901000500 3.5230998993 123.70890045 3.1113998890 72.160400391 128.77980042 11.767299652 18.545499802 14.639499664
 3422.1420898 6.0000000000 8.3810997009 8.5000000000 62.579395294 0.0055999998 11.862099648 0.3646999896 2.5934998989 3.5954000950 117.20320129 2.9542000294 72.153297424 128.91760254 14.209600449 19.166799545 11.991700172
 3422.2944336 6.0000000000 8.3886003494 8.5000000000 61.282154083 0.0046000001 12.165800095 0.3652000129 2.5920999050 3.5889999866 111.01069641 2.8469998837 72.158096313 128.93840027 18.500000000 20.423400879 21.722000122
 3422.4467773 6.0000000000 8.4035997391 8.5000000000 58.677822113 0.0044999998 12.937000275 0.3666999936 2.5912001133 3.5843999386 115.29440308 2.3427999020 72.155197144 128.81919861 22.247800827 21.919000626 15.814200401
 3422.5991211 6.0000000000 8.3886003494 8.5000000000 57.682743073 0.0024000001 13.390800476 0.3684999943 2.5847001076 3.5490999222 122.33899689 2.2804000378 72.150299072 128.84309387 14.828399658 22.599199295 13.078300476
 3422.7517090 6.0000000000 8.3886003494 8.5000000000 59.248359680 0.0000000000 12.776700020 0.3653999865 2.5739998817 3.5785999298 122.62560272 2.4419000149 72.154197693 128.86450195 11.345199585 22.423000336 15.815999985
 3422.9040527 6.0000000000 8.3961000443 8.5000000000 57.118438721 -0.000800000 12.755000114 0.3454000056 2.5706000328 3.6019999981 114.90550232 2.6135001183 72.153900146 128.91220093 33.623100281 21.570600510 32.037899017
 3423.0563965 6.0000000000 8.3961000443 8.5000000000 56.012466431 -0.001100000 12.824700356 0.3397000134 2.5713999271 3.5996999741 105.99549866 2.4165999889 72.142501831 128.72549438 33.827499390 20.349700928 30.907400131
 3423.2087402 6.0000000000 8.3886003494 8.5000000000 55.324806213 0.0006000000 12.744000435 0.3201000094 2.5796999931 3.5720000267 107.21240234 2.4161999226 72.148200989 128.47520447 22.863599777 19.441400528 22.689599991
 3423.3610840 6.0000000000 8.3661003113 8.5000000000 56.721130371 -0.000600000 13.908499718 0.3248000145 2.5750999451 3.5843000412 112.75299835 2.2892999649 72.153198242 128.48539734 18.981899261 19.044700623 19.752099991
 3423.5136719 6.0000000000 8.3810997009 8.5000000000 55.676841736 -0.000700000 14.598199844 0.3291000128 2.5745999813 3.5933001041 112.71160126 2.0190000534 72.153198242 128.04699707 20.037799835 18.906400681 22.539400101
 3423.6660156 6.0000000000 8.3810997009 8.5000000000 56.880245209 -0.001300000 13.475399971 0.3476000130 2.5732998848 3.5936999321 110.77590179 2.4853000641 72.153800964 128.84150696 20.255199432 18.721599579 21.086500168
 3423.8183594 6.0000000000 8.3886003494 8.5000000000 55.893699646 0.0002000000 12.495900154 0.3407999873 2.5810000896 3.5576000214 111.22090149 2.5109999180 72.156097412 128.32020569 21.784900665 18.550199509 22.429500580
 3423.9707031 6.0000000000 8.3661003113 8.5000000000 56.949802399 0.0006000000 12.214599609 0.3305000067 2.5820999146 3.5376000404 110.66049957 2.5376999378 72.143402100 128.99710083 26.512500763 18.357599258 20.851699829
 3424.1232910 6.0000000000 8.3754997253 8.5000000000 57.734252930 0.0009000000 12.479399681 0.3273999989 2.5801999569 3.5436999798 109.65950012 2.7156999111 72.155502319 128.74980164 32.784198761 17.911399841 31.484699249
 3424.2756348 6.0000000000 8.3810997009 8.5000000000 55.646652222 0.0009000000  -999.250000 0.3337999880 2.5778999329 3.5501000881 114.39070129  -999.250000 72.148902893 128.64639282 27.263399124 17.377500534 33.262599945
 3424.4279785 6.0000000000 8.3736000061 8.5000000000 58.996067047 0.0005000000  -999.250000 0.3138999939 2.5755999088 3.5643000603 117.90129852  -999.250000 72.142196655 128.65690613 19.945299149 16.888399124 27.672599792
 3424.5803223 6.0000000000 8.3886003494 8.5000000000 63.342845917 0.0012000001  -999.250000 0.2890000045 2.5824000835 3.5399999619 115.78359985  -999.250000 72.143096924 128.80200195 17.802000046 16.658899307 20.363800049
 3424.7329102 6.0000000000 8.3585996628 8.5000000000 65.660110474 0.0020999999  -999.250000 0.2759999931 2.5894000530 3.5114998817 114.35060120  -999.250000 72.149101257 128.94830322 17.309099197 16.549600601 19.936199188
 3424.8852539 6.0000000000 8.3661003113 8.5000000000 66.254264832 0.0027000001  -999.250000 0.3057999909 2.5948998928 3.4742000103 114.16519928  -999.250000 72.151603699 128.98970032 15.632800102 16.623600006 17.588800430
 3425.0375977 6.0000000000 8.3736000061 8.5000000000 65.393371582 0.0020999999  -999.250000 0.3138999939 2.5924000740 3.4711000919 114.51869965  -999.250000 72.152198792 129.00559998 17.414699554 16.679700851 19.037799835
 3425.1899414 6.0000000000 8.3736000061 8.5000000000 66.589241028 0.0010000000  -999.250000 0.3240000010 2.5880000591 3.4862999916 114.19200134  -999.250000 72.150100708 128.89779663 18.135400772 16.639999390 18.331499100
