# LAS format log file from PETREL
# Project units are specified as depth units
#==================================================================
~Version information
VERS.   2.0:
WRAP.   NO:
#==================================================================
~Well
STRT .m      1350.9222412 :
STOP .m      2973.9824219 :
STEP .m     0.00000000 :
NULL .        -999.250000 :
COMP.           : COMPANY
WELL.  35/9-7   : WELL
FLD.            : FIELD
LOC.            : LOCATION
SRVC.           : SERVICE COMPANY
DATE.  2018-09-11 14:49:02   : Log Export Date {yyyy-MM-dd HH:mm:ss}
PROV.           : PROVINCE
UWI.   35/9-7   : UNIQUE WELL ID
API.            : API NUMBER
#==================================================================
~Curve
DEPT .m                   : DEPTH
Lithology_geolink ._      : Lithology_geolink
CALI .in                  : CALI
BS .in                    : BS
ROP .m/h                  : ROP
DRHO .g/cm3               : DRHO
THOR .ppm                 : THOR
NPHI .m3/m3               : NPHI
RHOB .g/cm3               : RHOB
PEF .b/e                  : PEF
GR .gAPI                  : GR
URAN .ppm                 : URAN
DTC .us/ft                : DTC
DTS .us/ft                : DTS
RDEP .ohm.m               : RDEP
RMIC .ohm.m               : RMIC
RMED .ohm.m               : RMED
~Parameter
#==================================================================
~Ascii
# ...
 1999.3843994 13.000000000 12.210000038 12.250000954 68.503936768 0.1052000001  -999.250000 0.3839995265 2.4530999660 5.6616997719 80.410003662  -999.250000 116.57270050 268.48748779 1.1715999842  -999.250000 1.1729999781
 1999.5367432 13.000000000 12.119999886 12.250000954 64.501312256 0.1094999984  -999.250000 0.3868953586 2.4498999119 5.5510997772 81.589996338  -999.250000 116.49980164 270.54129028 1.1649999619  -999.250000 1.1610000134
 1999.6892090 13.000000000 12.137998581 12.250000954 56.660110474 0.1172000021  -999.250000 0.3912999928 2.4655001163 5.3457999229 79.660003662  -999.250000 116.21690369 272.18359375 1.1612000465  -999.250000 1.1490000486
 1999.8415527 13.000000000 12.156000137 12.250000954 52.788715363 0.1230000034  -999.250000 0.3847999871 2.4916999340 5.3573999405 75.580001831  -999.250000 115.96840668 271.78604126 1.1734000444  -999.250000 1.1729999781
 1999.9940186 13.000000000 12.210000038 12.250000954 43.832019806 0.1263000071  -999.250000 0.3711999953 2.5411999226 5.7670998573 77.569999695  -999.250000 115.43598938 268.80087280 1.1936000586  -999.250000 1.2200000286
 2000.1463623 13.000000000 12.232000351 12.250000954 38.713912964 0.1207000017  -999.250000 0.3713999987 2.5453999043 6.0071001053 77.900001526  -999.250000 114.82949829 268.20584106 1.1993000507  -999.250000 1.2580000162
 2000.2988281 13.000000000 12.131999969 12.250000954 32.578742981 0.1093999967  -999.250000 0.3853000104 2.5260999203 6.1680998802 73.220001221  -999.250000 113.52140045 265.11007690 1.1684000492  -999.250000 1.1740000248
 2000.4511719 13.000000000 12.144000053 12.250000954 31.528871536 0.1022000015  -999.250000 0.3860000074 2.5014998913 6.0880999565 76.699996948  -999.250000 112.84580231 264.50048828 1.1480000019  -999.250000 1.1460000277
 2000.6036377 13.000000000 12.173999786 12.250000954 33.103675842 0.1010999978  -999.250000 0.3700999916 2.4544999599 5.8333001137 80.160003662  -999.250000 113.09159851 265.26748657 1.1179000139  -999.250000 1.1059999466
 2000.7559814 13.000000000 12.156000137 12.250000954 35.695537567 0.1120000035  -999.250000 0.3628999889 2.4511001110 5.7348999977 79.879997253  -999.250000 113.92680359 266.00860596 1.1001000404  -999.250000 1.0880000591
 2000.9084473 13.000000000 12.182999611 12.250000954 40.551181793 0.1199999973  -999.250000 0.3596000075 2.4472999573 5.5704002380 77.470001221  -999.250000 115.33309937 267.55743408 1.0982999802  -999.250000 1.0909999609
 2001.0607910 13.000000000 12.182999611 12.250000954 42.782154083 0.1168999970  -999.250000 0.3607000113 2.4454998970 5.4345998764 77.650001526  -999.250000 115.80439758 268.61425781 1.0990999937  -999.250000 1.0959999561
 2001.2132568 13.000000000 12.137998581 12.250000954 48.031497955 0.1061000004  -999.250000 0.3610999882 2.4505999088 5.1585001945 76.910003662  -999.250000 116.62840271 271.15994263 1.0935000181  -999.250000 1.1030000448
 2001.3656006 13.000000000 12.210000038 12.250000954 51.082675934 0.0987000018  -999.250000 0.3623999953 2.4519999027 5.1503000259 79.349998474  -999.250000 116.99710083 273.71975708 1.0881999731  -999.250000 1.0850000381
 2001.5179443 13.000000000 12.064999580 12.250000954 56.824146271 0.0879999995  -999.250000 0.3684999943 2.4416999817 5.3154997826 79.989997864  -999.250000 117.49829865 281.42355347 1.0767999887  -999.250000 1.0750000477
 2001.6704102 13.000000000 12.119999886 12.250000954 59.580051422 0.0883999988  -999.250000 0.3662999868 2.4368999004 5.2498002052 78.559997559  -999.250000 117.59010315 286.41030884 1.0738999844  -999.250000 1.0729999542
 2001.8227539 13.000000000 12.156000137 12.250000954 63.517063141 0.0895000026  -999.250000 0.3515000045 2.4388000965 4.9981999397 71.870002747  -999.250000 117.66529846 295.61743164 1.0518000126  -999.250000 1.0299999714
 2001.9752197 13.000000000 12.137998581 12.250000954 65.944885254 0.0996999964  -999.250000 0.3531000018 2.4669001102 5.1842999458 77.569999695  -999.250000 117.79709625 303.92715454 1.0556000471  -999.250000 1.0659999847
 2002.1275635 13.000000000 12.156000137 12.250000954 63.090553284 0.1052000001  -999.250000 0.3562000096 2.4788999557 5.3750000000 76.279998779  -999.250000 117.92089844 301.53744507 1.0551999807  -999.250000 1.0659999847
 2002.2800293 13.000000000 12.156000137 12.250000954 57.316272736 0.1050999984  -999.250000 0.3526999950 2.4702000618 5.6441998482 77.010002136  -999.250000 117.84309387 296.14724731 1.0499000549  -999.250000 1.0470000505
 2002.4323730 13.000000000 12.156000137 12.250000954 58.300529480 0.1018999964  -999.250000 0.3472000062 2.4542996883 5.6171998978 81.209999084  -999.250000 117.90380096 291.23034668 1.0472999811  -999.250000 1.0420000553
 2002.5848389 13.000000000 12.064999580 12.250000954 60.236217499 0.0967999995  -999.250000 0.3364999890 2.4312996864 5.2845997810 83.150001526  -999.250000 117.90760040 283.46502686 1.0526000261  -999.250000 1.0609999895
 2002.7371826 13.000000000 12.064999580 12.250000954 64.468505859 0.0948999971  -999.250000 0.3325000107 2.4261999130 5.1507000923 83.730003357  -999.250000 118.05789948 281.13796997 1.0530999899  -999.250000 1.0579999685
 2002.8896484 13.000000000 12.210000038 12.250000954 72.933067322 0.0952999964  -999.250000 0.3321000040 2.4277000427 5.1416001320 86.220001221  -999.250000 117.62000275 278.74942017 1.0601999760  -999.250000 1.0609999895
 2003.0419922 13.000000000 12.210000038 12.250000954 74.770347595 0.1002999991  -999.250000 0.3398000002 2.4367001057 5.2228999138 87.809997559  -999.250000 117.29450989 279.57794189 1.0721000433  -999.250000 1.0709999800
 2003.1944580 13.000000000 12.237000465 12.250000954 78.444885254 0.1097000018  -999.250000 0.3564999998 2.4586999416 5.4165000916 79.290000916  -999.250000 116.86119843 280.77951050 1.0721000433  -999.250000 1.0720000267
 2003.3468018 13.000000000 12.210000038 12.250000954 82.611549377 0.1079000011  -999.250000 0.3630999923 2.4598999023 5.4442000389 77.080001831  -999.250000 116.87819672 281.69607544 1.0799000263  -999.250000 1.0809999704
 2003.4991455 13.000000000 12.119999886 12.250000954 90.944877625 0.0930999964  -999.250000 0.3738000095 2.4321999550 5.2171998024 79.709999084  -999.250000 117.17739868 280.31182861 1.0951000452  -999.250000 1.0970000029
 2003.6516113 13.000000000 12.156000137 12.250000954 89.009185791 0.0900999978  -999.250000 0.3711000085 2.4196000099 5.0574998856 80.300003052  -999.250000 117.26799774 280.38055420 1.1028000116  -999.250000 1.1069999933
 2003.8039551 13.000000000 12.029000282 12.250000954 85.104988098 0.0935000032  -999.250000 0.3537000120 2.4184999466 4.8968000412 81.559997559  -999.250000 117.09111023 279.16275024 1.1114000082  -999.250000 1.1260000467
 2003.9564209 13.000000000 12.182999611 12.250000954 84.481628418 0.0961999968  -999.250000 0.3458999991 2.4249000549 4.8907999992 81.680000305  -999.250000 116.58160400 278.71627808 1.1131000519  -999.250000 1.1330000162
 2004.1087646 13.000000000 12.237000465 12.250000954 83.300521851 0.1000000015  -999.250000 0.3438999951 2.4356999397 4.9334001541 83.010002136  -999.250000 115.67099762 280.51870728 1.1167999506  -999.250000 1.1499999762
 2004.2612305 13.000000000 12.210000038 12.250000954 83.727035522 0.0992000028  -999.250000 0.3474999964 2.4354999065 4.9605998993 80.569999695  -999.250000 115.40740204 280.97738647 1.1213999987  -999.250000 1.1449999809
 2004.4135742 13.000000000 12.210000038 12.250000954 84.612861633 0.1013000011  -999.250000 0.3528000116 2.4449000359 5.0000000000 77.800003052  -999.250000 114.96759796 282.94540405 1.1231000423  -999.250000 1.1390000582
 2004.5660400 13.000000000 12.237000465 12.250000954 85.498687744 0.1071000025  -999.250000 0.3472000062 2.4626998901 5.0869998932 74.129997253  -999.250000 114.67729950 284.81900024 1.1319999695  -999.250000 1.1529999971
 2004.7183838 13.000000000 12.263998985 12.250000954 87.335960388 0.1301999986  -999.250000 0.3364000022 2.5253999233 5.4793000221 68.919998169  -999.250000 114.16230011 289.48168945 1.1462999582  -999.250000 1.1499999762
 2004.8708496 13.000000000 12.263998985 12.250000954 84.940940857 0.1407999992  -999.250000 0.3366999924 2.5583000183 5.7505998611 69.300003052  -999.250000 114.08450317 292.45770264 1.1862000227  -999.250000 1.2690000534
