# LAS format log file from PETREL
# Project units are specified as depth units
#==================================================================
~Version information
VERS.   2.0:
WRAP.   NO:
#==================================================================
~Well
STRT .m      2949.7507324 :
STOP .m      3605.5278320 :
STEP .m     0.00000000 :
NULL .        -999.250000 :
COMP.           : COMPANY
WELL.  35/9-10 S   : WELL
FLD.            : FIELD
LOC.            : LOCATION
SRVC.           : SERVICE COMPANY
DATE.  2018-09-11 14:49:01   : Log Export Date {yyyy-MM-dd HH:mm:ss}
PROV.           : PROVINCE
UWI.   35/9-10 S   : UNIQUE WELL ID
API.            : API NUMBER
#==================================================================
~Curve
DEPT .m                   : DEPTH
Lithology_geolink ._      : Lithology_geolink
CALI .in                  : CALI
BS .in                    : BS
ROP .m/h                  : ROP
DRHO .g/cm3               : DRHO
THOR .ppm                 : THOR
NPHI .m3/m3               : NPHI
RHOB .g/cm3               : RHOB
PEF .b/e                  : PEF
GR .gAPI                  : GR
URAN .ppm                 : URAN
DTC .us/ft                : DTC
DTS .us/ft                : DTS
RDEP .ohm.m               : RDEP
RMED .ohm.m               : RMED
~Parameter
#==================================================================
~Ascii
# ...
 3294.4792480 6.0000000000 8.5572996140 8.5000000000 48.256736755 0.0030000000 11.031800270 0.3113971055 2.5470366478 3.3809545040 89.022094727 1.2712999582 80.990707397 144.08331299 8.6815261841 8.4937553406
 3294.6318359 6.0000000000 8.5566997528 8.5000000000 51.217063904 0.0051000002 10.719400406 0.3153935969 2.5524911880 3.2801616192 89.122940063 1.3192000389 81.112808228 144.30635071 8.4642486572 8.2662649155
 3294.7841797 6.0000000000 8.5699996948 8.5000000000 54.966754913 0.0097000012 10.559900284 0.3124048114 2.5651798248 3.2232911587 89.185104370 1.2652000189 80.886863708 145.89344788 8.0951919556 7.8896040916
 3294.9365234 6.0000000000 8.5951004028 8.5000000000 56.845085144 0.0131000001 10.548100471 0.2992211580 2.5678956509 3.2691264153 88.850334167 1.1787999868 80.501327515 147.10575867 7.6287474632 7.4190545082
 3295.0888672 6.0000000000 8.6132001877 8.5000000000 55.074268341 0.0163000003 10.660599709 0.2889329493 2.5575332642 3.3249211311 88.758094788 1.0925999880 79.843208313 148.72132874 7.0779657364 6.8685646057
 3295.2414551 6.0000000000 8.6136999130 8.5000000000 54.180561066 0.0232999995 10.828200340 0.2860046625 2.5468170643 3.3068292141 88.750518799 1.0068999529 79.600387573 147.76333618 6.5650205612 6.3574175835
 3295.3937988 6.0000000000 8.6129999161 8.5000000000 71.162704468 0.0335999988 10.972299576 0.2844025493 2.5451023579 3.2533857822 88.517570496 0.9391999841 79.824638367 146.96946716 6.2510027885 6.0411062241
 3295.5461426 6.0000000000 8.6122999191 8.5000000000 79.681907654 0.0410000011 11.071499825 0.2895916700 2.5490934849 3.1997859478 89.355560303 0.8937000036 80.760795593 147.67147827 6.1559514999 5.9383640289
 3295.6984863 6.0000000000 8.6030998230 8.5000000000 65.922492981 0.0414999984 11.195199966 0.3026580811 2.5515918732 3.1500592232 92.073982239 0.8317000270 81.896667480 150.85627747 6.1430411339 5.9170675278
 3295.8510742 6.0000000000 8.5951004028 8.5000000000 58.980556488 0.0395999998 11.417799950 0.3121847808 2.5535969734 3.1700675488 94.069313049 0.7458999753 83.077606201 152.60650635 5.9660840034 5.7403836250
 3296.0034180 6.0000000000 8.5902996063 8.5000000000 70.121536255 0.0417000018 11.769700050 0.3174000084 2.5542988777 3.2587575912 94.202590942 0.7116000056 84.529472351 155.06884766 5.4934582710 5.2830338478
 3296.1557617 6.0000000000 8.5848999023 8.5000000000 75.715454102 0.0505999997 12.315400124 0.3278999925 2.5563967228 3.3280889988 94.432533264 0.8126999736 84.977684021 156.90306091 4.8725953102 4.6867561340
 3296.3081055 6.0000000000 8.5763998032 8.5000000000 79.896850586 0.0639000013 12.811599731 0.3395000100 2.5693793297 3.3481681347 96.102119446 1.0343999863 85.438354492 159.86386108 4.4032521248 4.2391171455
 3296.4604492 6.0000000000 8.5631999969 8.5000000000 81.986427307 0.0693999976 13.097299576 0.3395000100 2.5867443085 3.3278653622 98.249618530 1.3033000231 85.849479675 162.80746460 4.2375297546 4.0862884521
 3296.6130371 6.0000000000 8.5468997955 8.5000000000 85.494377136 0.0560000017 13.203499794 0.3316999972 2.5923910141 3.2381439209 101.07907104 1.5707000494 86.767326355 165.20974731 4.3154740334 4.1711630821
 3296.7653809 6.0000000000 8.5361003876 8.5000000000 87.250480652 0.0283000004 13.231300354 0.3296000063 2.5869088173 3.1156961918 103.88450623 1.7321000099 87.510910034 166.05015564 4.4716496468 4.3343381882
 3296.9177246 6.0000000000 8.5339002609 8.5000000000 89.200614929 -0.000100000 13.255999565 0.3366999924 2.5778145790 3.0492062569 103.91945648 1.7481000423 87.693115234 165.48860168 4.5801262856 4.4534091949
 3297.0700684 6.0000000000 8.5336999893 8.5000000000 90.175682068 -0.013900000 13.295700073 0.3409000039 2.5692274570 3.0565760136 101.22425079 1.6669000387 87.553047180 164.51611328 4.6115994453 4.4989547729
 3297.2226563 6.0000000000 8.5305995941 8.5000000000 92.570312500 -0.016200000 13.256999969 0.3323999941 2.5543239117 3.1393671036 98.628250122 1.5384999514 87.285430908 164.40626526 4.5993199348 4.5020952225
 3297.3750000 6.0000000000 8.5243997574 8.5000000000 93.840820313 -0.008200000 13.151100159 0.3258999884 2.5384254456 3.3259007931 97.218460083 1.4434000254 87.085517883 165.98756409 4.5925111771 4.5099873543
 3297.5273438 6.0000000000 8.5225000381 8.5000000000 93.913604736 0.0070000002 12.927800179 0.3287000060 2.5321099758 3.5856835842 96.689643860 1.4456000328 86.830009460 165.70547485 4.6156625748 4.5462417603
 3297.6796875 6.0000000000 8.5221996307 8.5000000000 92.491439819 0.0218000002 12.621700287 0.3318000138 2.5357880592 3.7641284466 97.993110657 1.5008000135 86.681678772 164.93627930 4.6612534523 4.6034164429
 3297.8322754 6.0000000000 8.5218000412 8.5000000000 90.991905212 0.0285999998 12.428799629 0.3316999972 2.5452847481 3.7499237061 99.841339111 1.4840999842 86.888267517 158.28536987 4.7013359070 4.6536197662
 3297.9846191 6.0000000000 8.5283002853 8.5000000000 96.867858887 0.0265999995 12.562800407 0.3409999907 2.5538861752 3.5759792328 99.593307495 1.2856999636 87.430831909 165.07885742 4.7122821808 4.6736679077
 3298.1369629 6.0000000000 8.5537004471 8.5000000000 104.25063324 0.0207000002 12.924799919 0.3544999957 2.5615875721 3.4070706367 97.540397644 1.0563000441 87.941581726 164.94075012 4.6833462715 4.6528334618
 3298.2893066 6.0000000000 8.5848999023 8.5000000000 103.12355042 0.0148000000 13.571100235 0.3571000099 2.5679898262 3.3310215473 95.567756653 0.7190999985 88.925720215 164.94239807 4.6109161377 4.5874047279
 3298.4416504 6.0000000000 8.5964002609 8.5000000000 94.623085022 0.0099999998 14.252900124 0.3544999957 2.5683987141 3.3116617203 94.484169006 0.4309000075 89.184577942 157.48475647 4.5195927620 4.5012760162
 3298.5942383 6.0000000000 8.5894002914 8.5000000000 88.167793274 0.0071999999 14.658699989 0.3643999994 2.5601134300 3.3889758587 94.388847351 0.3413999975 90.479621887 163.78045654 4.4630899429 4.4479846954
 3298.7465820 6.0000000000 8.5826997757 8.5000000000 90.242385864 0.0091000004 14.788000107 0.3741999865 2.5441257954 3.5995621681 95.891990662 0.4433999956 90.002067566 168.23765564 4.4755797386 4.4613785744
 3298.8989258 6.0000000000 8.5869998932 8.5000000000 93.206535339 0.0163000003 14.609800339 0.3677999973 2.5185410976 3.7929899693 99.163154602 0.6969000101 90.063697815 173.14852905 4.5353040695 4.5197067261
 3299.0512695 6.0000000000 8.5910997391 8.5000000000 94.086105347 0.0313000008 14.129500389 0.3610999882 2.4981653690 3.8683588505 102.84081268 1.0471999645 90.264648438 174.12338257 4.5996932983 4.5803060532
 3299.2038574 6.0000000000 8.5848999023 8.5000000000 103.93957520 0.0505999997 13.429200172 0.3686000109 2.4937071800 3.8337559700 105.29228973 1.3859000206 90.311614990 173.87181091 4.6345443726 4.6097531319
 3299.3562012 6.0000000000 8.5801000595 8.5000000000 112.92982483 0.0625000000 12.789699554 0.3752999902 2.4998900890 3.7193834782 106.52912140 1.5723999739 90.412742615 173.97094727 4.5856785774 4.5551877022
 3299.5085449 6.0000000000 8.5753002167 8.5000000000 113.72512054 0.0581000000 12.404999733 0.3628000021 2.5134782791 3.5693404675 107.13972473 1.5785000324 90.343208313 175.21609497 4.4193668365 4.3851728439
 3299.6608887 6.0000000000 8.5600996017 8.5000000000 105.54627228 0.0384000018 12.274000168 0.3409999907 2.5351307392 3.4110076427 105.96427917 1.4648000002 90.053939819 177.27070618 4.1980094910 4.1623148918
 3299.8134766 6.0000000000 8.5501003265 8.5000000000 99.576797485 0.0120999999 12.402600288 0.3310000002 2.5563662052 3.2697260380 103.08421326 1.2660000324 89.644760132 178.76510620 3.9895336628 3.9555306435
 3299.9658203 6.0000000000 8.5572004318 8.5000000000 101.81758881 -0.008100000 12.703800201 0.3382999897 2.5633888245 3.1822400093 100.48786163 1.0810999870 89.709991455 179.09327698 3.8090891838 3.7793822289
 3300.1181641 6.0000000000 8.5614004135 8.5000000000 104.07512665 -0.015900001 13.417699814 0.3528000116 2.5553128719 3.1525473595 98.625984192 0.9604999423 90.541061401 179.78630066 3.6753144264 3.6511054039
 3300.2705078 6.0000000000 8.5599002838 8.5000000000 104.08234406 -0.013200000 14.006099701 0.3682999909 2.5415222645 3.2102072239 96.549423218 0.9416999817 91.552383423 180.32363892 3.6156954765 3.5983843803
