# LAS format log file from PETREL
# Project units are specified as depth units
#==================================================================
~Version information
VERS.   2.0:
WRAP.   NO:
#==================================================================
~Well
STRT .m      1725.0000000 :
STOP .m      3754.9504395 :
STEP .m     0.00000000 :
NULL .        -999.250000 :
COMP.           : COMPANY
WELL.  35/9-6 S   : WELL
FLD.            : FIELD
LOC.            : LOCATION
SRVC.           : SERVICE COMPANY
DATE.  2018-09-11 14:49:02   : Log Export Date {yyyy-MM-dd HH:mm:ss}
PROV.           : PROVINCE
UWI.   35/9-6 S   : UNIQUE WELL ID
API.            : API NUMBER
#==================================================================
~Curve
DEPT .m                   : DEPTH
Lithology_geolink ._      : Lithology_geolink
CALI .in                  : CALI
DRHO .g/cm3               : DRHO
NPHI .m3/m3               : NPHI
RHOB .g/cm3               : RHOB
PEF .b/e                  : PEF
GR .gAPI                  : GR
DTC .us/ft                : DTC
RDEP .ohm.m               : RDEP
RMIC .ohm.m               : RMIC
RMED .ohm.m               : RMED
~Parameter
#==================================================================
~Ascii
# ...
 3071.4001465 13.000000000 9.8801002502 0.0055999998 0.2702000141 2.5338997841 3.7174999714 81.940597534 89.433403015 2.8694000244 3.0899000168 2.9256999493
 3071.5500488 13.000000000 10.333400726 0.0073000002 0.2531689405 2.5669536591 4.0149998665 78.875396729 88.779800415 2.6664085388 3.0833487511 2.7593646049
 3071.7001953 13.000000000 9.7426004410 0.0068000001 0.2340866476 2.5385279655 4.0302000046 77.097999573 87.085700989 4.1448383331 3.3598716259 4.0269250870
 3071.8500977 13.000000000 9.4194002151 0.0062000002 0.2259019464 2.5556344986 4.1915998459 74.924301147 85.260597229 3.9232425690 4.0163640976 3.9195096493
 3072.0002441 13.000000000 9.4194002151 0.0165999997 0.2271141708 2.5767416954 4.2369999886 72.037002563 84.410697937 3.8267118931 3.7474765778 3.8026313782
 3072.1501465 13.000000000 9.4527997971 0.0303000007 0.2358297557 2.4799535275 4.8394999504 72.558403015 83.696296692 3.8950731754 2.9966430664 3.7603037357
 3072.3002930 13.000000000 9.5679998398 0.0428000018 0.2541289926 2.6353943348 5.4171767235 76.401702881 83.507896423 3.8163659573 2.4094126225 3.5777301788
 3072.4501953 13.000000000 9.6794996262 0.0463000014 0.2719089389 2.5090951920 5.8940148354 81.303398132 83.068489075 3.3054895401 2.6611201763 3.1671824455
 3072.6000977 13.000000000 9.9878997803 0.0561839044 0.2773999870 2.3833999634 6.2713999748 79.581306458 82.694099426 3.4832000732 1.8753000498 3.1563999653
 3072.7500000 13.000000000 9.8206996918 0.0596943013 0.2752000093 2.4233000278 6.3694000244 78.008903503 82.912101746 3.6085999012 1.5944999456 3.2163999081
 3072.9001465 13.000000000 9.6534996033 0.0631943047 0.2730000019 2.4632999897 6.4674000740 76.439399719 83.130096436 3.7339000702 1.3136999607 3.2764000893
 3073.0500488 13.000000000 9.3524999619 0.0639986992 0.2696999907 2.7506000996 6.2624998093 73.967796326 84.015190125 3.9532999992 1.0642000437 3.5520999432
 3073.1999512 13.000000000 9.3524999619 0.0452999994 0.2563000023 2.7600998878 5.5258998871 74.425498962 84.599700928 4.0313000679 1.4751000404 4.3685998917
 3073.3500977 13.000000000 9.2967996597 0.0285000000 0.2529000044 2.5398001671 4.2286000252 76.767700195 84.760002136 4.3899998665 2.8879001141 4.2210998535
 3073.5000000 13.000000000 9.3079004288 0.0089999996 0.2578999996 2.5467998981 4.1532998085 80.434196472 85.158203125 3.8768999577 3.1126999855 3.8250999451
 3073.6501465 13.000000000 9.3747997284 0.0035999999 0.2727000117 2.4690001011 5.1072998047 82.942398071 86.115798950 2.8735001087 2.4112000465 2.7883000374
 3073.8000488 13.000000000 9.3524999619 0.0066000000 0.2802999914 2.4468998909 5.5648999214 84.168502808 86.921897888 3.2007269859 1.4387046099 2.8848218918
 3073.9501953 13.000000000 9.3227996826 0.0392000005 0.2793812752 2.5864977837 5.6729001999 83.544998169 87.488998413 3.5857160091 1.1341879368 3.1438229084
 3074.1000977 13.000000000 9.5866003036 0.0650999993 0.2678869963 2.6464447975 5.1817002296 83.469497681 87.499000549 3.5340814590 0.9434014559 3.0352783203
 3074.2502441 13.000000000 9.7909002304 0.0745000020 0.2598817647 2.6739735603 5.2114000320 82.897102356 87.270797729 3.4613404274 1.2524954081 3.0222728252
 3074.4001465 13.000000000 9.8503999710 0.0425000004 0.2486995012 2.6578426361 5.2918000221 82.004898071 87.170600891 3.4859635830 1.9884004593 3.1898801327
 3074.5502930 13.000000000 9.5086002350 0.0148999998 0.2484115660 2.6838414669 5.1864528656 81.337898254 88.002899170 3.3395683765 3.8921732903 3.4838757515
 3074.7001953 13.000000000 9.2707996368 0.0008000000 0.2555081248 2.5866410732 4.1146697998 80.647399902 88.381599426 2.6479878426 3.9367196560 2.9801273346
 3074.8503418 13.000000000 9.1147003174 0.0002000000 0.2604956031 2.5505309105 3.6661505699 80.430999756 87.573875427 3.9297218323 3.7642147541 3.8563954830
 3075.0000000 13.000000000 9.1370000839 0.0009986971 0.2578000128 2.5694999695 3.5132999420 81.205932617 87.193397522 3.8204998970 3.5280001163 3.7309999466
 3075.1499023 13.000000000 9.2187004089 0.0006013009 0.2396000028 2.5620000362 3.4974000454 79.738800049 86.900291443 3.8986001015 3.1533000469 3.6907999516
 3075.3000488 13.000000000 9.1742000580 0.0006998371 0.2190999985 2.5243999958 4.2288999557 77.789199829 86.591102600 3.6893999577 3.6152999401 3.6577999592
 3075.4499512 13.000000000 9.0552997589 0.0030000000 0.2143999934 2.6059999466 4.0778999329 74.826797485 86.418403625 3.3334999084 4.1757001877 3.5332000256
 3075.6000977 13.000000000 9.0403995514 0.0049999999 0.2228000015 2.5947999954 3.7100000381 72.963203430 85.670791626 3.5859000683 5.1837000847 3.9268999100
 3075.7500000 13.000000000 9.0515003204 0.0074000000 0.2346999943 2.6061999798 3.6951000690 71.951499939 84.342300415 3.6798999310 4.5029997826 3.8642001152
 3075.9001465 13.000000000 9.0850000381 0.0066000000 0.2392999977 2.5919001102 3.5638999939 69.892700195 82.899909973 3.1264998913 4.1269001961 3.3482999802
 3076.0500488 13.000000000 9.0775003433 0.0048000002 0.2264000028 2.5943999290 3.5408000946 68.299003601 81.321601868 2.7451999187 3.9340999126 2.9916000366
 3076.2001953 13.000000000 9.0998001099 0.0041000000 0.2099920064 2.6388411522 4.1483001709 64.145401001 79.790100098 4.3490118980 3.9311392307 4.2511167526
 3076.3500977 13.000000000 9.0700998306 0.0033000000 0.2051156163 2.6027514935 4.1076998711 62.236301422 78.742897034 5.1517510414 5.0590472221 5.1184291840
 3076.5002441 13.000000000 9.0255002975 0.0041000000 0.2147071660 2.6343026161 4.2715997696 62.119400024 78.473098755 4.2622532845 5.3342800140 4.4000501633
 3076.6501465 13.000000000 9.0255002975 0.0020999999 0.2190993428 2.5747528076 4.1616997719 64.447196960 78.799499512 4.4175972939 5.7503862381 4.6146945953
 3076.8002930 13.000000000 9.0107002258 0.0005000000 0.2187122256 2.6071069241 4.3031997681 65.494499207 79.819900513 4.4771218300 5.3736853600 4.6111950874
 3076.9501953 13.000000000 9.0031995773 -0.001800000 0.2262480408 2.6112635136 3.8920943737 64.803001404 80.417396545 4.3063473701 5.3646254539 4.4851136208
 3077.1003418 13.000000000 9.0031995773 -0.003200000 0.2557461858 2.5889010429 3.7047529221 64.972099304 80.972221375 4.0904607773 5.3792901039 4.3095607758
 3077.2500000 13.000000000 9.0180997849 -0.002800651 0.2698999941 2.5892000198 3.7209999561 69.001525879 82.571495056 4.2010998726 5.1003999710 4.3281002045
 3077.3999023 13.000000000 9.0291996002 -0.002301626 0.2648000121 2.5908999443 4.0188999176 76.410697937 85.062698364 4.0092000961 5.0248999596 4.1585001945
 3077.5500488 13.000000000 9.0291996002 -0.000902280 0.2599999905 2.5848000050 3.8434998989 82.316398621 87.088203430 3.9460000992 4.2716999054 3.9579999447
 3077.6999512 13.000000000 9.0627002716 -0.001797073 0.2705000043 2.5643999577 3.8322999477 86.371398926 88.400703430 2.7771999836 3.5230000019 2.9017999172
 3077.8500977 13.000000000 9.0850000381 -0.000600000 0.2669999897 2.6192998886 4.1540999413 86.348701477 89.055496216 2.7153000832 3.0648999214 2.7751998901
 3078.0000000 13.000000000 9.0403995514 0.0006000000 0.2524999976 2.6349999905 4.0008001328 82.380699158 89.430397034 2.8087000847 3.0083000660 2.8657000065
 3078.1501465 13.000000000 9.0069999695 0.0000000000 0.2422000021 2.5660998821 3.5072999001 76.647903442 89.212501526 4.5771999359 3.0597000122 4.3390002251
 3078.3000488 13.000000000 8.9958000183 -0.002800000 0.2363999933 2.5794999599 3.5864000320 74.107597351 88.765098572 4.6472997665 3.2843999863 4.4475998878
 3078.4501953 13.000000000 9.0069999695 -0.005000000 0.2386000007 2.6124000549 3.7732000351 74.938102722 88.829498291 4.5155000687 3.8826999664 4.4590001106
 3078.6000977 13.000000000 8.8992004395 -0.003800000 0.2463991791 2.5991742611 3.8492999077 76.376296997 89.976692200 4.4106616974 4.2816190720 4.4483785629
 3078.7502441 13.000000000 8.8768997192 -0.001600000 0.2458926737 2.5833890438 3.7353000641 76.537002563 90.984298706 4.0175886154 4.2929191589 4.1269898415
 3078.9001465 13.000000000 8.8768997192 -0.000600000 0.2413908839 2.5767068863 3.6537001133 80.838699341 91.948593140 3.3351097107 3.9980309010 3.5070283413
