# LAS format log file from PETREL
# Project units are specified as depth units
#==================================================================
~Version information
VERS.   2.0:
WRAP.   NO:
#==================================================================
~Well
STRT .m      1350.9222412 :
STOP .m      2973.9824219 :
STEP .m     0.00000000 :
NULL .        -999.250000 :
COMP.           : COMPANY
WELL.  35/9-7   : WELL
FLD.            : FIELD
LOC.            : LOCATION
SRVC.           : SERVICE COMPANY
DATE.  2018-09-11 14:49:02   : Log Export Date {yyyy-MM-dd HH:mm:ss}
PROV.           : PROVINCE
UWI.   35/9-7   : UNIQUE WELL ID
API.            : API NUMBER
#==================================================================
~Curve
DEPT .m                   : DEPTH
Lithology_geolink ._      : Lithology_geolink
CALI .in                  : CALI
BS .in                    : BS
ROP .m/h                  : ROP
DRHO .g/cm3               : DRHO
THOR .ppm                 : THOR
NPHI .m3/m3               : NPHI
RHOB .g/cm3               : RHOB
PEF .b/e                  : PEF
GR .gAPI                  : GR
URAN .ppm                 : URAN
DTC .us/ft                : DTC
DTS .us/ft                : DTS
RDEP .ohm.m               : RDEP
RMIC .ohm.m               : RMIC
RMED .ohm.m               : RMED
~Parameter
#==================================================================
~Ascii
# ...
 2106.5217285 13.000000000 12.300000191 12.250000954 71.310058594 0.1570137888  -999.250000 0.3054000139 2.6250998974 6.3646998405 75.160003662  -999.250000 106.97434235 231.02690125 1.1941000223  -999.250000 1.2339999676
 2106.6740723 13.000000000 12.354000092 12.250000954 61.717422485 0.1032449603  -999.250000 0.3068999946 2.6240999699 7.5609998703 70.010002136  -999.250000 107.31446838 229.39959717 1.2465000153  -999.250000 1.3020000458
 2106.8264160 13.000000000 12.276000023 12.250000954 64.730972290 0.0688999966  -999.250000 0.3125999868 2.5622999668 7.7210001945 62.029998779  -999.250000 107.60459900 229.28320313 1.2750999928  -999.250000 1.3710000515
 2106.9787598 13.000000000 12.300000191 12.250000954 70.702095032 0.0842999965  -999.250000 0.3228000104 2.4421999454 6.0376000404 69.050003052  -999.250000 108.42259979 233.44479370 1.2457000017  -999.250000 1.3209999800
 2107.1313477 13.000000000 12.326999664 12.250000954 115.13534546 0.1032086536  -999.250000 0.3319000006 2.4379000664 5.5620999336 73.440002441  -999.250000 109.11743164 237.50210571 1.1906000376  -999.250000 1.1480000019
 2107.2836914 13.000000000 12.300000191 12.250000954 203.52136230 0.1085951999  -999.250000 0.3569000065 2.4381000996 5.5349998474 75.889999390  -999.250000 110.19541168 248.68980408 1.2197999954  -999.250000 1.2779999971
 2107.4360352 13.000000000 12.300000191 12.250000954 189.82940674 0.1055999994  -999.250000 0.3637999892 2.4317998886 5.5560002327 77.480003357  -999.250000 110.69859314 252.70829773 1.2187999487  -999.250000 1.2819999456
 2107.5883789 13.000000000 12.300000191 12.250000954 162.43437195 0.0996999964  -999.250000 0.3472000062 2.4158000946 5.4197001457 81.510002136  -999.250000 110.29920197 250.44740295 1.1848000288  -999.250000 1.1740000248
 2107.7409668 13.000000000 12.300000191 12.250000954 167.23986816 0.1006054431  -999.250000 0.3431000113 2.4151999950 5.3255000114 81.480003357  -999.250000 109.93777466 247.02749634 1.1857000589  -999.250000 1.1629999876
 2107.8933105 13.000000000 12.354000092 12.250000954 176.88075256 0.1040006429  -999.250000 0.3458999991 2.4223999977 5.1989002228 79.470001221  -999.250000 109.30274963 236.36199951 1.1983000040  -999.250000 1.2079999447
 2108.0456543 13.000000000 12.354000092 12.250000954 183.55149841 0.1043993607  -999.250000 0.3479999900 2.4244000912 5.1623997688 79.410003662  -999.250000 109.26741791 230.16819763 1.2168999910  -999.250000 1.2560000420
 2108.1979980 13.000000000 12.340999603 12.250000954 196.85040283 0.1040000021  -999.250000 0.3280999959 2.4210000038 5.2251000404 78.889999390  -999.250000 109.34060669 228.63891602 1.2350000143  -999.250000 1.3070000410
 2108.3503418 13.000000000 12.354000092 12.250000954 190.15748596 0.1040000021  -999.250000 0.3161191940 2.4195024967 5.2496604919 78.021385193  -999.250000 109.35659790 232.03364563 1.2320047617  -999.250000 1.2990127802
 2108.5026855 13.000000000 12.317999840 12.250000954 176.77165222 0.1057000011  -999.250000 0.3075137734 2.4197995663 5.3072075844 76.282783508  -999.250000 109.55680084 240.13221741 1.2179226875  -999.250000 1.2510769367
 2108.6550293 13.000000000 12.354000092 12.250000954 175.45932007 0.1081999987  -999.250000 0.3084983826 2.4215972424 5.3565206528 78.975677490  -999.250000 109.57270050 244.30451965 1.2056196928  -999.250000 1.2220464945
 2108.8076172 13.000000000 12.354000092 12.250000954 172.90026855 0.1160999984  -999.250000 0.3194999993 2.4305000305 5.4491000175 79.910003662  -999.250000 109.80549622 245.45730591 1.1890000105  -999.250000 1.2239999771
 2108.9599609 13.000000000 12.354000092 12.250000954 174.60630798 0.1164000034  -999.250000 0.3337999880 2.4309000969 5.4260997772 79.599998474  -999.250000 109.73059845 246.06120300 1.1876000166  -999.250000 1.2339999676
 2109.1123047 13.000000000 12.354000092 12.250000954 177.98556519 0.1115999967  -999.250000 0.3489756882 2.4239110947 5.2604656219 79.809661865  -999.250000 110.16210175 245.13818359 1.1657350063  -999.250000 1.1980575323
 2109.2646484 13.000000000 12.300000191 12.250000954 171.65354919 0.1093999967  -999.250000 0.3491996825 2.4202060699 5.1694455147 80.498893738  -999.250000 110.76760101 243.73904419 1.1603087187  -999.250000 1.1890144348
 2109.4172363 13.000000000 12.300000191 12.250000954 158.98950195 0.1111000031  -999.250000 0.3388000131 2.4205000401 5.0998001099 82.319999695  -999.250000 112.15149689 239.60461426 1.1378999949  -999.250000 1.1200000048
 2109.5695801 13.000000000 12.300000191 12.250000954 155.97113037 0.1162000000  -999.250000 0.3384000063 2.4277000427 5.1289000511 81.839996338  -999.250000 112.50980377 237.14198303 1.1547000408  -999.250000 1.1519999504
 2109.7219238 13.000000000 12.300000191 12.250000954 149.93438721 0.1193000004  -999.250000 0.3385996819 2.4403796196 5.1570549011 77.467010498  -999.250000 112.63079834 237.87110901 1.1878467798  -999.250000 1.2358655930
 2109.8742676 13.000000000 12.281999588 12.250000954 119.06169128 0.1172999963  -999.250000 0.3387996852 2.4403002262 5.2421636581 78.408477783  -999.250000 111.20429993 244.73197937 1.2020772696  -999.250000 1.2649534941
 2110.0266113 13.000000000 12.227999687 12.250000954 103.60892487 0.1168999970  -999.250000 0.3408966362 2.4385027885 5.3046998978 80.296974182  -999.250000 110.63269806 246.25657654 1.1895201206  -999.250000 1.2310544252
 2110.1791992 13.000000000 12.263998985 12.250000954 78.248031616 0.1150000021  -999.250000 0.3644999862 2.4293000698 5.4485001564 80.830001831  -999.250000 108.93240356 244.21969604 1.1607999802  -999.250000 1.1590000391
 2110.3315430 13.000000000 12.300000191 12.250000954 65.583992004 0.1124000028  -999.250000 0.3603067100 2.4261050224 5.3936877251 79.851570129  -999.250000 108.41960144 240.79039001 1.1497178078  -999.250000 1.1240559816
 2110.4838867 13.000000000 12.263998985 12.250000954 61.811023712 0.1080000028  -999.250000 0.3447250128 2.4248020649 5.2036051750 78.032913208  -999.250000 107.32990265 234.21675110 1.1499994993  -999.250000 1.1269952059
 2110.6362305 13.000000000 12.263998985 12.250000954 59.908138275 0.1063999981  -999.250000 0.3371121883 2.4241011143 5.1306166649 78.329521179  -999.250000 107.13559723 232.38801575 1.1555910110  -999.250000 1.1349871159
 2110.7888184 13.000000000 12.300000191 12.250000954 58.562988281 0.1045000032  -999.250000 0.3212000132 2.4203999043 5.0661997795 77.029998779  -999.250000 107.23629761 232.39619446 1.1850999594  -999.250000 1.1829999685
 2110.9411621 13.000000000 12.300000191 12.250000954 57.874015808 0.1058999971  -999.250000 0.3142000139 2.4200000763 5.1078000069 74.050003052  -999.250000 107.46889496 234.89469910 1.1993999481  -999.250000 1.2079999447
 2111.0935059 13.000000000 12.300000191 12.250000954 71.555114746 0.1108999997  -999.250000 0.3065122962 2.4263896942 5.1675043106 72.222930908  -999.250000 107.97209930 234.69471741 1.2338447571  -999.250000 1.2579200268
 2111.2458496 13.000000000 12.300000191 12.250000954 78.412071228 0.1124999970  -999.250000 0.3063003421 2.4290957451 5.1635065079 72.599388123  -999.250000 108.29400635 235.20668030 1.2428855896  -999.250000 1.2739744186
 2111.3984375 13.000000000 12.300000191 12.250000954 76.640419006 0.1190000027  -999.250000 0.3161000013 2.4374001026 5.2930998802 73.790000916  -999.250000 108.91320038 237.51847839 1.2738000154  -999.250000 1.3539999723
 2111.5507813 13.000000000 12.276000023 12.250000954 75.721786499 0.1218999997  -999.250000 0.3353999853 2.4403998852 5.4025001526 71.089996338  -999.250000 109.05699921 240.10639954 1.2771999836  -999.250000 1.3669999838
 2111.7031250 13.000000000 12.210000038 12.250000954 89.698165894 0.1147999987  -999.250000 0.3459830284 2.4355077744 5.3384027481 74.424659729  -999.250000 108.91339874 243.40800476 1.2464492321  -999.250000 1.2951151133
 2111.8554688 13.000000000 12.210000038 12.250000954 96.653541565 0.1098000035  -999.250000 0.3455007970 2.4324049950 5.2585282326 77.165603638  -999.250000 108.55940247 243.12925720 1.2291277647  -999.250000 1.2540656328
 2112.0078125 13.000000000 12.300000191 12.250000954 102.49343872 0.1035000011  -999.250000 0.3473969698 2.4295046329 5.1633524895 72.158042908  -999.250000 107.85710144 236.50723267 1.1972510815  -999.250000 1.2070753574
