# LAS format log file from PETREL
# Project units are specified as depth units
#==================================================================
~Version information
VERS.   2.0:
WRAP.   NO:
#==================================================================
~Well
STRT .m      1725.0000000 :
STOP .m      3754.9504395 :
STEP .m     0.00000000 :
NULL .        -999.250000 :
COMP.           : COMPANY
WELL.  35/9-6 S   : WELL
FLD.            : FIELD
LOC.            : LOCATION
SRVC.           : SERVICE COMPANY
DATE.  2018-09-11 14:49:02   : Log Export Date {yyyy-MM-dd HH:mm:ss}
PROV.           : PROVINCE
UWI.   35/9-6 S   : UNIQUE WELL ID
API.            : API NUMBER
#==================================================================
~Curve
DEPT .m                   : DEPTH
Lithology_geolink ._      : Lithology_geolink
CALI .in                  : CALI
DRHO .g/cm3               : DRHO
NPHI .m3/m3               : NPHI
RHOB .g/cm3               : RHOB
PEF .b/e                  : PEF
GR .gAPI                  : GR
DTC .us/ft                : DTC
RDEP .ohm.m               : RDEP
RMIC .ohm.m               : RMIC
RMED .ohm.m               : RMED
~Parameter
#==================================================================
~Ascii
 1725.0000000 13.000000000 12.191800117  -999.250000 0.4140000045 2.3266000748  -999.250000 104.24310303 123.61609650 1.5023000240 1.2617000341 1.4430999756
 1725.1500244 13.000000000 12.247099876  -999.250000 0.3817999959 2.3120999336  -999.250000 100.12449646 120.83580017 1.5432000160 1.3001999855 1.4671000242
 1725.3000488 13.000000000 12.260100365  -999.250000 0.3675000072 2.3080999851  -999.250000 96.600700378 117.61940002 1.4768999815 1.3547999859 1.4976999760
 1725.4500732 13.000000000 12.295399666  -999.250000 0.3503000140 2.3273000717  -999.250000 92.311500549 115.78769684 1.4768999815 1.3547999859 1.4976999760
 1725.5999756 13.000000000 12.283100128  -999.250000 0.3517000079 2.3743999004  -999.250000 104.97299194 115.89750671 1.3797999620 1.2431999445 1.3415000439
 1725.7500000 13.000000000 12.300399780  -999.250000 0.3544000089 2.3684000969  -999.250000 106.18422699 116.36711884 1.3941999674 1.1872999668 1.3530999422
 1725.9000244 13.000000000 12.317700386  -999.250000 0.3564000130 2.3624000549  -999.250000 102.14778900 117.34739685 1.4134999514 1.2070000172 1.3726999760
 1726.0499268 13.000000000 12.309200287  -999.250000 0.3765999973 2.3601000309  -999.250000 96.161949158 119.42949677 1.4456000328 1.2220000029 1.4064999819
 1726.1999512 13.000000000 12.229500771  -999.250000 0.3655000031 2.3385000229  -999.250000 96.986602783 119.64660645 1.4709999561 1.2007000446 1.4328000546
 1726.3499756 13.000000000 12.197299957  -999.250000 0.3497000039 2.3206999302  -999.250000 106.83920288 119.13059998 1.4133000374 1.1683000326 1.3870999813
 1726.5000000 13.000000000 12.236500740  -999.250000 0.3657999933 2.3192999363  -999.250000 96.907798767 119.50679779 1.4435000420 1.2063000202 1.4191999435
 1726.6500244 13.000000000 12.275500298  -999.250000 0.3616999984 2.3164999485  -999.250000 97.303298950 117.70200348 1.4505000114 1.2051000595 1.4270999432
 1726.7999268 13.000000000 12.284700394  -999.250000 0.3725000024 2.3232998848  -999.250000 96.024841309 116.75576782 1.4573999643 1.2690000534 1.4258999825
 1726.9499512 13.000000000 12.243399620  -999.250000 0.3971000016 2.3280999660  -999.250000 106.73796844 116.28208923 1.4413000345 1.2407000065 1.4065999985
 1727.0999756 13.000000000 12.297400475  -999.250000 0.3682000041 2.3197000027  -999.250000 112.98422241 116.14410400 1.4134999514 1.1943999529 1.3760000467
 1727.2500000 13.000000000 12.377499580  -999.250000 0.3434000015 2.3336999416  -999.250000 115.47007751 117.41739655 1.3731000423 1.1174999475 1.3331999779
 1727.4000244 13.000000000 12.338899612  -999.250000 0.3571000099 2.3424000740  -999.250000 107.98609924 120.55429077 1.3825000525 1.1396000385 1.3580000401
 1727.5500488 13.000000000 12.369199753  -999.250000 0.3804999888 2.3262000084  -999.250000 100.03669739 121.02629089 1.3825000525 1.2215000391 1.3697999716
 1727.7000732 13.000000000 12.382399559  -999.250000 0.3693999946 2.3213999271  -999.250000 100.31220245 121.03749847 1.3762999773 1.1266000271 1.3442000151
 1727.8500977 13.000000000 12.347000122  -999.250000 0.3623999953 2.3220000267  -999.250000 97.850997925 120.92240143 1.3709385395 1.1096229553 1.3224405050
 1727.9998779 13.000000000 12.293999672  -999.250000 0.3713999987 2.3241999149  -999.250000 94.978187561 119.96446228 1.4182000160 1.1377999783 1.3720999956
 1728.1499023 13.000000000 12.282699585  -999.250000 0.3659999967 2.3141999245  -999.250000 95.409591675 119.32374573 1.3999999762 1.2338000536 1.3585000038
 1728.2999268 13.000000000 12.319298744  -999.250000 0.3655999899 2.3261001110  -999.250000 97.768455505 121.31674957 1.3705999851 1.2709000111 1.2792999744
 1728.4499512 13.000000000 12.241000175  -999.250000 0.3847000003 2.3433001041  -999.250000 97.469596863 121.46440125 1.3580000401 1.1618000269 1.2292000055
 1728.5999756 13.000000000 12.279999733  -999.250000 0.3558000028 2.3424999714  -999.250000 105.49199677 121.13590240 1.3723000288 1.1304999590 1.2659000158
 1728.7500000 13.000000000 12.282999992  -999.250000 0.3605000079 2.3392000198  -999.250000 100.67710114 120.78459930 1.4171999693 1.1548999548 1.3273999691
 1728.9000244 13.000000000 12.286999702  -999.250000 0.3659999967 2.3143999577  -999.250000 101.19529724 119.37870026 1.4186999798 1.1280000210 1.3341000080
 1729.0500488 13.000000000 12.284800529  -999.250000 0.3634000123 2.3153998852  -999.250000 102.89479828 118.13680267 1.4285215139 1.0641860962 1.3560669422
 1729.1999512 13.000000000 12.277600288  -999.250000 0.3817000091 2.3315999508  -999.250000 109.90958405 117.15530396 1.4548000097 1.1698999405 1.3155000210
 1729.3499756 13.000000000 12.275600433  -999.250000 0.3946000040 2.3322000504  -999.250000 109.71126556 116.78540802 1.4735000134 1.2403000593 1.3358000517
 1729.5000000 13.000000000 12.271300316  -999.250000 0.3564000130 2.3283998966  -999.250000 103.18580627 115.81110382 1.4657000303 1.1265000105 1.3336999416
 1729.6500244 13.000000000 12.260799408  -999.250000 0.3666000068 2.3264000416  -999.250000 99.352203369 115.77269745 1.4493000507 1.1138999462 1.3481999636
 1729.8000488 13.000000000 12.250301361  -999.250000 0.3768000007 2.3243999481  -999.250000 95.524002075 115.73500061 1.4329999685 1.1013000011 1.3625999689
 1729.9500732 13.000000000 12.269599915  -999.250000 0.3747999966 2.3248999119  -999.250000 98.307800293 116.60649872 1.4237999916 1.0716999769 1.3686000109
 1730.1000977 13.000000000 12.235700607  -999.250000 0.3693999946 2.3280999660  -999.250000 99.604698181 116.77380371 1.4606000185 1.0642999411 1.3336000443
 1730.2501221 13.000000000 12.254699707  -999.250000 0.3625999987 2.3464999199  -999.250000 99.307899475 116.94809723 1.4588713646 1.1794357300 1.3666875362
 1730.3999023 13.000000000 12.255900383  -999.250000 0.3594999909 2.3454000950  -999.250000 95.268882751 118.35081482 1.5026999712 1.2014000416 1.4204000235
 1730.5499268 13.000000000 12.237400055  -999.250000 0.3271999955 2.3412001133  -999.250000 92.704879761 120.41981506 1.4801000357 1.2020000219 1.4096000195
 1730.6999512 13.000000000 12.212699890  -999.250000 0.3544000089 2.3385999203  -999.250000 90.315048218 120.25289917 1.4222999811 1.1248999834 1.2756999731
 1730.8499756 13.000000000 12.157899857  -999.250000 0.3585000038 2.3426001072  -999.250000 112.75340271 119.32109833 1.4431999922 1.2085000277 1.3359999657
 1731.0000000 13.000000000 12.210000038  -999.250000 0.3564999998 2.3306999207  -999.250000 112.72200012 118.17440033 1.4167000055 1.1502000093 1.3015999794
 1731.1500244 13.000000000 12.217200279  -999.250000 0.3670000136 2.3355000019  -999.250000 101.48459625 116.95709991 1.4486000538 1.0525000095 1.3062000275
 1731.3000488 13.000000000 12.235099792  -999.250000 0.3605000079 2.3285000324  -999.250000 103.92449951 117.61710358 1.4725999832 1.0743000507 1.2898000479
 1731.4500732 13.000000000 12.338899612  -999.250000 0.3652898371 2.3204078674  -999.250000 103.64179993 118.66850281 1.4219981432 1.1749581099 1.2931908369
 1731.5999756 13.000000000 12.352100372  -999.250000 0.3528000116 2.3301000595  -999.250000 106.95340729 119.33096313 1.4197000265 1.2461999655 1.2819000483
 1731.7500000 13.000000000 12.333999634  -999.250000 0.3792000115 2.3252999783  -999.250000 103.52619171 118.85729218 1.4129999876 1.1792999506 1.2937999964
 1731.9000244 13.000000000 12.410500526  -999.250000 0.3813000023 2.3308999538  -999.250000 95.007133484 117.95720673 1.4144999981 1.1656999588 1.3085000515
 1732.0500488 13.000000000 12.353699684  -999.250000 0.3630000055 2.3489000797  -999.250000 94.646896362 117.23179626 1.4400999546 1.1729999781 1.3257000446
 1732.2000732 13.000000000 12.291299820  -999.250000 0.3632999957 2.3613998890  -999.250000 91.533401489 116.69069672 1.4483000040 1.1069999933 1.3205000162
 1732.3500977 13.000000000 12.168498993  -999.250000 0.3646000028 2.3482000828  -999.250000 82.371902466 116.37390137 1.4754999876 1.1827000380 1.3430999517
 1732.5000000 13.000000000 12.146499634  -999.250000 0.3485000134 2.3543999195  -999.250000 78.708000183 116.36128998 1.4830000401 1.1986999512 1.3461999893
