# LAS format log file from PETREL
# Project units are specified as depth units
#==================================================================
~Version information
VERS.   2.0:
WRAP.   NO:
#==================================================================
~Well
STRT .m      1350.9222412 :
STOP .m      2973.9824219 :
STEP .m     0.00000000 :
NULL .        -999.250000 :
COMP.           : COMPANY
WELL.  35/9-7   : WELL
FLD.            : FIELD
LOC.            : LOCATION
SRVC.           : SERVICE COMPANY
DATE.  2018-09-11 14:49:02   : Log Export Date {yyyy-MM-dd HH:mm:ss}
PROV.           : PROVINCE
UWI.   35/9-7   : UNIQUE WELL ID
API.            : API NUMBER
#==================================================================
~Curve
DEPT .m                   : DEPTH
Lithology_geolink ._      : Lithology_geolink
CALI .in                  : CALI
BS .in                    : BS
ROP .m/h                  : ROP
DRHO .g/cm3               : DRHO
THOR .ppm                 : THOR
NPHI .m3/m3               : NPHI
RHOB .g/cm3               : RHOB
PEF .b/e                  : PEF
GR .gAPI                  : GR
URAN .ppm                 : URAN
DTC .us/ft                : DTC
DTS .us/ft                : DTS
RDEP .ohm.m               : RDEP
RMIC .ohm.m               : RMIC
RMED .ohm.m               : RMED
~Parameter
#==================================================================
~Ascii
# ...
 2862.1208496 7.0000000000 8.6134004593 8.5000000000 37.038265228 0.0298999995 13.616900444 0.3851000071 2.5566999912 3.3975999355 117.57969666 1.3051999807 87.455398560 170.93550110 6.2086000443 8.0701999664 6.8608999252
 2862.2731934 7.0000000000 8.6140003204 8.5000000000 35.530342102 0.0185000002 13.220800400 0.3621999919 2.5673999786 3.2715001106 115.50610352 1.8279000521 87.474998474 171.45730591 6.1666002274 8.0946998596 6.6715998650
 2862.4257813 7.0000000000 8.6183004379 8.5000000000 34.808555603 0.0003000000 12.719300270 0.3264000118 2.5727000237 3.2520999908 115.05180359 2.4637000561 87.455101013 172.03952026 6.0766000748 7.0749001503 6.5507998466
 2862.5781250 7.0000000000 8.6280002594 8.5000000000 34.449398041 -0.013400000 12.136400223 0.3070000112 2.5741000175 3.3348999023 115.10649872 3.0179998875 87.255699158 172.32949829 6.1447000504 6.2498998642 6.6392998695
 2862.7304688 7.0000000000 8.6478004456 8.5000000000 34.813232422 -0.022200000 11.464400291 0.2967999876 2.5694000721 3.4695000648 114.50540161 3.3977000713 87.118598938 171.78649902 6.2358999252 6.2775001526 6.6438999176
 2862.8828125 7.0000000000 8.6759004593 8.5000000000 37.010711670 -0.023499999 10.762599945 0.2917999923 2.5573000908 3.5364999771 115.06250000 3.5861999989 86.899703979 172.09970093 6.0953001976 6.5173997879 6.5093998909
 2863.0354004 7.0000000000 8.6989002228 8.5000000000 38.786033630 -0.016200000 10.209199905 0.3005000055 2.5395998955 3.4535000324 117.40840149 3.5648000240 86.850311279 171.68370056 6.2017998695 7.1798000336 6.6153998375
 2863.1877441 7.0000000000 8.7105998993 8.5000000000 40.814014435 -0.000600000 9.8436002731 0.3222000003 2.5299999714 3.3306000233 118.93160248 3.4040999413 86.462600708 170.78199768 6.4050002098 7.2687001228 6.7371997833
 2863.3400879 7.0000000000 8.7154998779 8.5000000000 41.045146942 0.0236000009 9.6134004593 0.3418999910 2.5406000614 3.2751998901 118.14369965 3.2290999889 85.770599365 168.08399963 6.4684000015 7.0047001839 6.8515000343
 2863.4924316 7.0000000000 8.7124996185 8.5000000000 42.193073273 0.0366999991 9.4527997971 0.3456999958 2.5520000458 3.2736999989 115.87870026 3.1184000969 85.393806458 166.53259277 6.6346001625 6.8215999603 7.0205001831
 2863.6447754 7.0000000000 8.7034997940 8.5000000000 43.109394073 0.0320999995 9.3000001907 0.3384000063 2.5548000336 3.3211998940 113.95570374 3.1057999134 85.016998291 164.98118591 7.0472002029 7.4166998863 7.3597998619
 2863.7973633 7.0000000000 8.7021999359 8.5000000000 42.580890656 0.0165999997 9.2680997849 0.3328999877 2.5552999973 3.4551999569 113.57399750 3.1417999268 84.606002808 161.96139526 7.4363999367 8.1925001144 7.8014001846
 2863.9497070 7.0000000000 8.7152004242 8.5000000000 41.204250336 0.0008000000 9.4072999954 0.3287999928 2.5594000816 3.6119000912 113.83309937 3.1700000763 83.778800964 160.32569885 7.4821000099 8.8120002747 7.7933001518
 2864.1020508 7.0000000000 8.7218999863 8.5000000000 39.270866394 -0.007500000 9.6171998978 0.3233999908 2.5643000603 3.6438999176 112.93959808 3.2444000244 82.767402649 158.39840698 7.2723999023 8.6841001511 7.5425000191
 2864.2543945 7.0000000000 8.7076997757 8.5000000000 38.777473450 -0.010700000 9.9767999649 0.3258000016 2.5650000572 3.5260000229 111.52089691 3.3501999378 81.671203613 159.57960510 6.8972001076 7.9155998230 7.2319998741
 2864.4069824 7.0000000000 8.6835002899 8.5000000000 37.497692108 -0.008400000 10.490200043 0.3303999901 2.5717000961 3.4135999680 111.79699707 3.4328999519 81.560798645 160.62519836 6.8291997910 6.9443998337 7.0952000618
 2864.5593262 7.0000000000 8.6632003784 8.5000000000 36.779060364 -0.003600000 10.971599579 0.3222999871 2.5859000683 3.4247000217 113.87709808 3.5559000969 81.924507141 162.75509644 6.7227997780 6.1946997643 6.9819998741
 2864.7116699 7.0000000000 8.6363000870 8.5000000000 37.305252075 -0.002600000 11.322600365 0.3118999898 2.5934998989 3.4161999226 116.10479736 3.7869999409 82.801597595 163.38729858 6.2666001320 6.2523999214 6.5345001221
 2864.8640137 7.0000000000 8.5986003876 8.5000000000 38.617485046 -0.006300000 11.452099800 0.3134999871 2.5892000198 3.2558000088 117.73429871 4.0153999329 83.627700806 165.08389282 5.9074001312 7.1647000313 6.0764999390
 2865.0166016 7.0000000000 8.5622997284 8.5000000000 39.862205505 -0.010200000 11.349399567 0.3208000064 2.5833001137 3.1064000130 117.89759827 4.0770001411 84.557502747 167.14462280 5.7958998680 7.6245999336 5.9857997894
 2865.1689453 7.0000000000 8.5376996994 8.5000000000 39.863151550 -0.011600000 11.079999924 0.3242999911 2.5803000927 3.0934000015 116.55400085 3.9482002258 85.145690918 169.77389526 6.0570001602 7.4821000099 6.2817997932
 2865.3212891 7.0000000000 8.5295000076 8.5000000000 40.454807281 -0.011100000 10.658100128 0.3224000037 2.5771000385 3.1572999954 114.92610168 3.6380999088 85.227401733 171.38200378 6.3983998299 7.4177999496 6.5563998222
 2865.4736328 7.0000000000 8.5318002701 8.5000000000 41.734809875 -0.008900000 10.257900238 0.3185999990 2.5747001171 3.3371999264 112.96730042 3.2609999180 85.386398315 171.49180603 6.5784001350 7.8225002289 6.7713999748
 2865.6259766 7.0000000000 8.5303001404 8.5000000000 43.312080383 -0.004900000 10.131299973 0.3133000135 2.5752000809 3.7112998962 110.33940125 3.0539999008 85.527496338 170.58219910 6.8168001175 8.2069997787 6.9969000816
 2865.7785645 7.0000000000 8.5256004333 8.5000000000 46.418636322 -0.000100000 10.314399719 0.3003000021 2.5789000988 4.0397000313 108.42559814 3.0443000793 86.221702576 168.84120178 7.0703001022 7.5770001411 7.1714000702
 2865.9309082 7.0000000000 8.5277996063 8.5000000000 44.778205872 0.0046999999 10.733799934 0.2906000018 2.5859000683 3.9825999737 107.81939697 3.0720999241 86.541206360 168.04919434 7.2616000175 7.2484002113 7.4373002052
 2866.0832520 7.0000000000 8.5395002365 8.5000000000 41.501678467 0.0038000001 11.288399696 0.2973999977 2.5829999447 3.6812999249 109.32640076 3.0143001080 86.767799377 168.19889832 7.3260998726 7.9668002129 7.4976000786
 2866.2355957 7.0000000000 8.5531997681 8.5000000000 40.910236359 -0.000200000 11.987600327 0.3091000021 2.5657000542 3.5120000839 112.05410004 2.7188999653 86.459091187 166.00770569 7.3618001938 8.8937997818 7.4756999016
 2866.3881836 7.0000000000 8.5675001144 8.5000000000 39.762729645 0.0022000000 12.762200356 0.3066000044 2.5481998920 3.5782999992 113.12010193 2.1326999664 86.031501770 164.60620117 7.4924001694 9.5197000504 7.6986999512
 2866.5405273 7.0000000000 8.5860004425 8.5000000000 39.434593201 0.0152000003 13.289099693 0.2955000103 2.5415000916 3.7260999680 112.86620331 1.5386999846 85.375503540 161.48168945 7.6255002022 8.6928997040 7.7834000587
 2866.6928711 7.0000000000 8.5994997025 8.5000000000 38.748245239 0.0324000008 13.403200150 0.2901999950 2.5420999527 3.7432999611 113.73400116 1.1806000471 84.831596375 159.57659912 7.5212998390 7.8289999962 7.6066999435
 2866.8452148 7.0000000000 8.5995998383 8.5000000000 39.701164246 0.0461000018 13.158200264 0.2940999866 2.5478999615 3.5994999409 116.14340210 1.1175999641 84.286598206 157.85389709 7.2972002029 7.7709999084 7.4530000687
 2866.9978027 7.0000000000 8.5937004089 8.5000000000 41.566036224 0.0524999984 12.662899971 0.3046000004 2.5601000786 3.4223999977 117.47059631 1.3917000294 83.943000793 157.19540405 7.2838997841 7.7734999657 7.3853001595
 2867.1501465 7.0000000000 8.5910997391 8.5000000000 40.877056122 0.0498999991 12.111000061 0.3129999936 2.5776000023 3.2881000042 116.46240234 1.8351000547 83.746109009 157.09179688 7.3357000351 8.0179996490 7.4457001686
 2867.3024902 7.0000000000 8.5935001373 8.5000000000 39.502677917 0.0377999991 11.611800194 0.3124000132 2.5980000496 3.2764999866 114.80229950 2.2744998932 84.128196716 157.44110107 7.4221000671 8.0541000366 7.6312999725
 2867.4548340 7.0000000000 8.6056995392 8.5000000000 40.356960297 0.0175999999 11.198499680 0.3061999977 2.6057999134 3.5023000240 114.47389984 2.6559998989 84.636398315 158.59350586 7.6645998955 8.2566995621 7.8456001282
 2867.6071777 7.0000000000 8.6237001419 8.5000000000 41.996326447 -0.001700000 10.882599831 0.3037000000 2.5776000023 3.8466000557 115.08850098 2.9595999718 85.395401001 160.17999268 7.7641000748 8.2874002457 8.0080995560
