# LAS format log file from PETREL
# Project units are specified as depth units
#==================================================================
~Version information
VERS.   2.0:
WRAP.   NO:
#==================================================================
~Well
STRT .m      2726.1311035 :
STOP .m      3477.3107910 :
STEP .m     0.00000000 :
NULL .        -999.250000 :
COMP.           : COMPANY
WELL.  35/9-5   : WELL
FLD.            : FIELD
LOC.            : LOCATION
SRVC.           : SERVICE COMPANY
DATE.  2018-09-11 14:49:02   : Log Export Date {yyyy-MM-dd HH:mm:ss}
PROV.           : PROVINCE
UWI.   35/9-5   : UNIQUE WELL ID
API.            : API NUMBER
#==================================================================
~Curve
DEPT .m                   : DEPTH
Lithology_geolink ._      : Lithology_geolink
CALI .in                  : CALI
BS .in                    : BS
ROP .m/h                  : ROP
DRHO .g/cm3               : DRHO
THOR .ppm                 : THOR
NPHI .m3/m3               : NPHI
RHOB .g/cm3               : RHOB
PEF .b/e                  : PEF
GR .gAPI                  : GR
URAN .ppm                 : URAN
DTC .us/ft                : DTC
DTS .us/ft                : DTS
RDEP .ohm.m               : RDEP
RMIC .ohm.m               : RMIC
RMED .ohm.m               : RMED
~Parameter
#==================================================================
~Ascii
# ...
 2923.4890137 13.000000000 8.3510999680 8.5000000000 63.868103027 -0.001400000 5.7603201866 0.1502019167 2.5952999592 4.2220001221 46.527698517 0.3130659163 71.070602417 136.86360168 6.2341971397 7.2971549034 7.1919999123
 2923.6416016 13.000000000 8.3435001373 8.5000000000 60.653541565 -0.0000000000 6.0405483246 0.1463062465 2.6029999256 4.2102999687 48.475200653 0.3423538506 71.007698059 136.80459595 6.2271099091 6.8550157547 9.5897998810
 2923.7939453 13.000000000 8.3510999680 8.5000000000 67.312011719 0.0018000000 5.9250860214 0.1451019198 2.6122000217 4.1802000999 48.355201721 0.3528831601 70.987701416 136.88760376 6.8637781143 6.2039437294 8.7954998016
 2923.9462891 13.000000000 8.3585996628 8.5000000000 60.558399200 0.0009000000 6.1673107147 0.1459985524 2.6096999645 4.1683001518 47.732101440 0.3808551133 71.240097046 137.14129639 7.0144596100 5.8856091499 8.1281995773
 2924.0986328 13.000000000 8.3360004425 8.5000000000 52.563652039 -0.000400000 5.8624897003 0.1482963264 2.6031000614 4.1556000710 47.222198486 0.4300211370 72.446998596 137.87240601 7.4178528786 5.7291502953 8.6325998306
 2924.2509766 13.000000000 8.3510999680 8.5000000000 51.017391205 -0.001600000 5.3703784943 0.1479012817 2.5940001011 4.1683998108 46.591300964 0.3658064008 72.791496277 139.26300049 7.4747195244 5.6842436790 7.6147999763
 2924.4035645 13.000000000 8.3510999680 8.5000000000 52.520996094 -0.000100000 5.5967340469 0.1471012831 2.5964999199 4.1609997749 47.259300232 0.2693544924 73.014503479 140.80729675 6.0154428482 5.6792078018 6.3439002037
 2924.5559082 13.000000000 8.3585996628 8.5000000000 57.132877350 0.0015000000 4.9542317390 0.1432062387 2.6019999981 4.1361999512 51.466598511 0.3254097998 73.042701721 140.37939453 7.0612177849 5.6720113754 5.5858001709
 2924.7082520 13.000000000 8.3510999680 8.5000000000 47.797573090 0.0037000000 4.7360486984 0.1415027231 2.6112999916 4.1269998550 56.900398254 0.6512770653 73.085197449 139.79409790 5.7181587219 5.6722002029 7.2350001335
 2924.8605957 13.000000000 8.3585996628 8.5000000000 45.779197693 0.0049999999 4.5628552437 0.1364163160 2.6208000183 4.0964999199 57.342098236 0.8970128298 73.268203735 140.41409302 5.2907652855 5.6640000343 6.4678001404
 2925.0131836 13.000000000 8.3494997025 8.5000000000 48.425853729 0.0062000002 5.0721817017 0.1384966373 2.6268999577 4.1093997955 56.279201508 1.0788094997 73.330497742 141.15570068 7.5356941223 4.5116000175 6.6806001663
 2925.1655273 13.000000000 8.3585996628 8.5000000000 48.863189697 0.0054000001 5.0209832191 0.1426932663 2.6263999939 4.0662999153 55.558101654 0.9847514629 73.114402771 140.16850281 5.8736734390 3.6586000919 10.336500168
 2925.3178711 13.000000000 8.5388002396 8.5000000000 49.805118561 0.0040000002 4.4095811844 0.1429995298 2.6208000183 4.0402998924 52.338500977 1.2285084724 72.964698792 140.23829651 6.9921002388 3.1105999947 11.855600357
 2925.4702148 13.000000000 8.5444002151 8.5000000000 50.526905060 0.0013000000 4.3202838898 0.1437974423 2.6103000641 4.0089998245 52.354900360 1.2184336185 72.597503662 139.40139771 9.1614418030 3.0922999382 6.1563000679
 2925.6228027 13.000000000 8.5331001282 8.5000000000 59.423885345 0.0002000000 4.6145272255 0.1393072158 2.6066000462 3.9802999496 54.317001343 1.2215949297 72.422599792 138.67100525 7.4986801147 3.1010000706 8.4181995392
 2925.7751465 13.000000000 8.5331001282 8.5000000000 60.386482239 0.0004000000 5.0296344757 0.1374030411 2.6064999104 3.9637999535 52.473701477 1.2116159201 71.454200745 137.88110352 7.0400319099 3.0982999802 9.9236001968
 2925.9274902 13.000000000 8.5275001526 8.5000000000 57.653873444 0.0019000000 4.5290045738 0.1356028914 2.6136000156 3.9277000427 53.836601257 1.1252386570 71.079902649 137.30209351 6.9780983925 3.0957999229 7.2817001343
 2926.0798340 13.000000000 8.5331001282 8.5000000000 56.374019623 0.0027000001 4.1345319748 0.1382956803 2.6194999218 3.9073998928 57.631599426 0.9477846026 71.190498352 137.14480591 6.2247090340 3.0938000679 6.9574999809
 2926.2321777 13.000000000 8.5219001770 8.5000000000 69.728019714 0.0029000000 3.8379499912 0.1401939243 2.6231000423 3.9015998840 53.817699432 0.9636481404 71.392501831 136.75639343 6.9586400986 3.0896999836 7.5767002106
 2926.3847656 13.000000000 8.5275001526 8.5000000000 78.515090942 0.0027000001 4.2565264702 0.1422966272 2.6245000362 3.9028000832 47.048500061 0.6684738398 72.547401428 137.62100220 6.1207485199 3.0810999870 7.1212000847
 2926.5371094 13.000000000 8.5275001526 8.5000000000 68.666664124 0.0031000001 4.0480356216 0.1450955123 2.6264998913 3.8935000896 43.161201477 0.6905637383 72.562896729 137.54479980 7.2132444382 3.0683999062 7.8031001091
 2926.6894531 13.000000000 8.5163002014 8.5000000000 74.306106567 0.0026000000 4.6611151695 0.1425041705 2.6247999668 3.8682999611 42.413898468 0.6211115122 72.463401794 137.77299500 6.2795014381 3.0594000816 8.1429996490
 2926.8417969 13.000000000 8.5275001526 8.5000000000 64.653541565 0.0016000000 5.0238389969 0.1360208094 2.6184999943 3.8733000755 45.341999054 0.5766423941 71.835098267 137.61759949 7.4853243828 3.0559000969 8.3513002396
 2926.9943848 13.000000000 8.5275001526 8.5000000000 73.542648315 0.0004000000 5.6436071396 0.1359001696 2.6112999916 3.8942000866 49.529499054 0.4680740535 71.768997192 138.36570740 7.3570122719 3.0603001118 6.9587001801
 2927.1467285 13.000000000 8.5275001526 8.5000000000 72.594490051 0.0003000000 5.7348551750 0.1384958327 2.6092000008 3.9258000851 53.310398102 0.4402444065 71.591003418 137.50300598 6.4415693283 3.0671000481 6.0893001556
 2927.2990723 13.000000000 8.5275001526 8.5000000000 74.408470154 0.0012000001 5.4260959625 0.1370023936 2.6129999161 3.9203000069 54.487899780 0.4038583338 71.579101563 137.33729553 12.005267143 3.0769000053 6.0405998230
 2927.4514160 13.000000000 8.5331001282 8.5000000000 52.497707367 0.0018000000 5.0332593918 0.1351060867 2.6157999039 3.9089999199 53.595600128 0.2544793785 72.933799744 137.80250549 5.5204467773 3.1050000191 6.8765001297
 2927.6040039 13.000000000 8.5275001526 8.5000000000 43.646984100 0.0017000000 5.3960156441 0.1363979131 2.6170001030 3.8924000263 54.880401611 0.3582326770 73.337501526 138.20629883 5.8851809502 3.1468999386 7.7859997749
 2927.7563477 13.000000000 8.5275001526 8.5000000000 43.222770691 0.0012000001 6.2309603691 0.1398943961 2.6173000336 3.8703000546 57.806598663 0.4424650669 74.400802612 140.43310547 5.5818877220 3.1772999763 6.8063998222
 2927.9086914 13.000000000 8.5219001770 8.5000000000 43.651248932 0.0027999999 6.0936226845 0.1392011195 2.6199998856 3.8664000034 58.468299866 0.6072357297 74.384696960 140.81970215 5.2844767570 3.1709001064 6.0861001015
 2928.0610352 13.000000000 8.5163002014 8.5000000000 41.422245026 0.0086000003 5.6894483566 0.1374028921 2.6312003136 3.8754000664 55.813098907 0.7669440508 73.658996582 140.87969971 5.8034658432 3.1452999115 6.1124000549
 2928.2136230 13.000000000 8.5106000900 8.5000000000 41.998687744 0.0126000000 5.3654184341 0.1377993524 2.6384999752 3.9058001041 54.312801361 0.4992294908 73.666496277 139.72039795 5.2747488022 3.1294999123 6.4656000137
 2928.3659668 13.000000000 8.5237998962 8.5000000000 40.380252838 0.0124000004 5.1917781830 0.1333072186 2.6379001141 3.9070000648 52.786201477 0.5046905279 73.233596802 139.09829712 5.4844617844 3.1284000874 5.4672999382
 2928.5183105 13.000000000 8.5237998962 8.5000000000 38.599735260 0.0071999999 5.5530195236 0.1317025572 2.6280999184 3.8726999760 49.518199921 0.7155615687 72.681800842 139.27369690 6.0938224792 3.1328001022 5.6792998314
 2928.6706543 13.000000000 8.5163002014 8.5000000000 38.910434723 0.0027999999 6.3100857735 0.1312008053 2.6161000729 3.8550000191 47.937000275 0.7009240389 72.342201233 138.47810364 9.8078403473 3.1185998917 10.636300087
 2928.8229980 13.000000000 8.5163002014 8.5000000000 35.174869537 0.0014000000 5.9932208061 0.1339910477 2.6126999855 3.8287999630 46.548698425 0.6781729460 71.570602417 138.10099792 7.3127288818 3.1040000916 8.0900001526
 2928.9755859 13.000000000 8.5163002014 8.5000000000 45.594161987 0.0019000000 4.9685430527 0.1329017580 2.6149001122 3.8073999882 47.761901855 0.9032385945 71.309898376 137.48249817 5.5360388756 3.1015999317 7.1840000153
