# LAS format log file from PETREL
# Project units are specified as depth units
#==================================================================
~Version information
VERS.   2.0:
WRAP.   NO:
#==================================================================
~Well
STRT .m      2535.9846191 :
STOP .m      3240.0725098 :
STEP .m     0.00000000 :
NULL .        -999.250000 :
COMP.           : COMPANY
WELL.  35/9-8   : WELL
FLD.            : FIELD
LOC.            : LOCATION
SRVC.           : SERVICE COMPANY
DATE.  2018-09-11 14:49:02   : Log Export Date {yyyy-MM-dd HH:mm:ss}
PROV.           : PROVINCE
UWI.   35/9-8   : UNIQUE WELL ID
API.            : API NUMBER
#==================================================================
~Curve
DEPT .m                   : DEPTH
Lithology_geolink ._      : Lithology_geolink
CALI .in                  : CALI
BS .in                    : BS
ROP .m/h                  : ROP
DRHO .g/cm3               : DRHO
THOR .ppm                 : THOR
NPHI .m3/m3               : NPHI
RHOB .g/cm3               : RHOB
PEF .b/e                  : PEF
GR .gAPI                  : GR
URAN .ppm                 : URAN
DTC .us/ft                : DTC
DTS .us/ft                : DTS
RDEP .ohm.m               : RDEP
RMIC .ohm.m               : RMIC
RMED .ohm.m               : RMED
~Parameter
#==================================================================
~Ascii
# ...
 3049.1154785 6.0000000000 8.5293998718 8.5000000000 44.844791412 -0.009000000 9.3304004669 0.3091000021 2.6384999752 4.7382001877 107.79660034 4.9443998337 77.323699951 146.24049377 10.116999626 11.527104378 9.8482999802
 3049.2678223 6.0000000000 8.5315999985 8.5000000000 65.333610535 -0.006400000 9.2349004745 0.3028999865 2.6386001110 4.4980998039 107.38140106 5.0769000053 77.497909546 146.64190674 10.132800102 10.033844948 9.8648996353
 3049.4201660 6.0000000000 8.5315999985 8.5000000000 106.12477875 -0.005800000 9.0934000015 0.2863999903 2.6235001087 3.8740999699 106.16729736 5.1784000397 77.795501709 146.48410034 9.9113998413 9.6868667603 9.6325998306
 3049.5727539 6.0000000000 8.5313997269 8.5000000000 71.589096069 -0.007300000 9.0437049866 0.2763999999 2.6001999378 3.5090000629 106.21219635 5.2206411362 78.046096802 146.08039856 8.9306001663 9.0377616882 8.6111001968
 3049.7250977 6.0000000000 8.5384998322 8.5000000000 54.378005981 -0.008700000 9.0763063431 0.2748999894 2.5780999660 3.5137000084 107.44979858 5.2023448944 78.077201843 145.86500549 7.8670001030 7.3432741165 7.5385999680
 3049.8774414 6.0000000000 8.5461997986 8.5000000000 55.229682922 -0.007600000 9.0804100037 0.2754999995 2.5652000904 3.6187000275 108.38420105 5.1678524017 77.808898926 146.04359436 7.4805002213 6.9535417557 7.1468000412
 3050.0297852 6.0000000000 8.5436000824 8.5000000000 55.648357391 -0.004800000 9.0860548019 0.2779999971 2.5641999245 3.6296000481 108.83270264 5.1380095482 77.344490051 146.44859314 7.3200001717 7.1025276184 6.9846000671
 3050.1823730 6.0000000000 8.5420999527 8.5000000000 51.591934204 -0.001400000 8.8684854507 0.2820000052 2.5815999508 3.6452000141 107.40390015 5.0810589790 76.913497925 146.80810547 7.5879998207 6.0639400482 7.2383999825
 3050.3347168 6.0000000000 8.5480003357 8.5000000000 49.570465088 0.0038000001 8.1464529037 0.2824000120 2.6222000122 3.8146998882 102.15799713 4.9434642792 76.699096680 147.00360107 9.9265003204 7.0510330200 9.4303998947
 3050.4870605 6.0000000000 8.5517997742 8.5000000000 49.730113983 0.0065000001 7.4313879013 0.2824999988 2.6600000858 4.0036001205 95.052902222 4.8589258194 76.878005981 147.05529785 13.310600281 12.617867470 12.599399567
 3050.6394043 16.000000000 8.5528001785 8.5000000000 49.805862427 -0.000900000 7.3621373177 0.2840000093 2.6552000046 3.9881999493 92.741798401 4.8752889633 77.325500488 147.07789612 11.999400139 13.526801109 11.361900330
 3050.7917480 16.000000000 8.5502004623 8.5000000000 47.201652527 -0.009100000 7.7624387741 0.2836000025 2.6219000816 3.8863000870 106.51599884 5.0555653572 78.022903442 147.12089539 10.279800415 10.037002563 9.7428998947
 3050.9443359 6.0000000000 8.5460996628 8.5000000000 45.909122467 -0.011700000 9.6682014465 0.2816999853 2.5919001102 3.8568999767 108.87059784 5.2823243141 78.762496948 147.23129272 9.7855997086 9.0425281525 9.3104000092
 3051.0966797 6.0000000000 8.5454998016 8.5000000000 48.568737030 -0.009400000 13.503671646 0.2791000009 2.5722000599 3.8731000423 111.90570068 5.0714273453 79.333892822 147.52499390 9.6556997299 9.3001308441 9.2273998260
 3051.2490234 6.0000000000 8.5447998047 8.5000000000 49.901874542 -0.005800000 15.663277626 0.2727999985 2.5590999126 3.8856000900 109.40540314 4.7767553329 79.711997986 147.91510010 9.6652002335 9.1316432953 9.2666997910
 3051.4013672 6.0000000000 8.5384998322 8.5000000000 51.314453125 -0.002300000 13.587469101 0.2669999897 2.5571000576 3.8852999210 110.15450287 4.6865105629 79.667503357 148.31210327 9.7175998688 8.7220945358 9.3380002975
 3051.5539551 6.0000000000 8.5413999557 8.5000000000 52.010570526 -0.000700000 10.260532379 0.2685999870 2.5685000420 3.8275001049 111.89520264 4.5070910454 79.424896240 148.62399292 9.6556997299 8.4681806564 9.2826995850
 3051.7062988 6.0000000000 8.5488004684 8.5000000000 49.067516327 -0.001500000 8.4631137848 0.2795000076 2.5911002159 3.6881999969 110.50749969 4.7541189194 78.977302551 148.75010681 9.3997001648 7.9927644730 9.0444002151
 3051.8586426 6.0000000000 8.5382003784 8.5000000000 47.591369629 -0.003300000 8.0357036591 0.2931999862 2.6168000698 3.5415000916 107.29080200 5.1397070885 78.532501221 148.79750061 9.1382999420 6.6616635323 8.8094997406
 3052.0109863 6.0000000000 8.5185003281 8.5000000000 45.444805145 -0.005600000 8.2251911163 0.3000000119 2.6287999153 3.4749999046 107.67960358 5.1441450119 78.290199280 148.78680420 8.8444995880 6.3906850815 8.5296001434
 3052.1635742 6.0000000000 8.5120000839 8.5000000000 44.467338562 -0.007600000 8.4700908661 0.2984000146 2.6217999458 3.5021998882 107.99079895 5.1096606255 78.300201416 148.76420593 8.7147998810 6.8822059631 8.4420995712
 3052.3159180 6.0000000000 8.5163002014 8.5000000000 73.969886780 -0.007700000 8.8730077744 0.2962000072 2.6078999043 3.5457999706 108.91940308 5.0036349297 78.682899475 148.75469971 8.9757995605 7.6946167946 8.7438001633
 3052.4682617 6.0000000000 8.5267000198 8.5000000000 88.691299438 -0.006900000 9.2518510818 0.2955000103 2.5991001129 3.5464999676 110.28050232 4.8382205963 79.296096802 148.79890442 9.1487998962 8.1405658722 8.9436998367
 3052.6206055 7.0000000000 8.5434999466 8.5000000000 62.529876709 -0.006300000 9.4707241058 0.2971000075 2.5982000828 3.5852999687 111.91580200 4.6640906334 80.026901245 148.95010376 8.9216995239 7.7444548607 8.7491998672
 3052.7729492 7.0000000000 8.5504999161 8.5000000000 54.580375671 -0.006400000 9.6103410721 0.2872999907 2.5947000980 3.7451000214 114.56449890 4.5963611603 80.679397583 149.17059326 8.3409996033 7.0929269791 8.1927003860
 3052.9255371 7.0000000000 8.5482997894 8.5000000000 59.703899384 -0.005200000 9.7613010406 0.2842999995 2.5768001080 3.8922998905 117.36129761 4.6972751617 81.084999084 149.38011169 7.8819999695 6.8597636223 7.7512998581
 3053.0778809 7.0000000000 8.5528001785 8.5000000000 64.091354370 0.0033000000 9.8870086670 0.2799000144 2.5574998856 3.8735001087 118.28890228 4.8691272736 81.174896240 149.51809692 8.5791997910 6.6514630318 8.4324998856
 3053.2302246 7.0000000000 8.5657997131 8.5000000000 63.362400055 0.0240000002 9.9551210403 0.2788000107 2.5597999096 3.7421998978 117.36150360 5.0731329918 81.081001282 149.67449951 9.2791996002 7.3783006668 9.1030998230
 3053.3825684 7.0000000000 8.5795001984 8.5000000000 62.664085388 0.0423000008 10.030223846 0.2892000079 2.5697000027 3.6438000202 116.58920288 5.2809829712 81.052894592 150.08889771 9.4179000854 8.8119277954 9.2421998978
 3053.5351563 7.0000000000 8.5826997757 8.5000000000 62.694709778 0.0465000011 9.9195890427 0.2944999933 2.5703001022 3.5897998810 117.69689941 5.5832028389 81.248397827 150.84460449 9.3548002243 9.0140819550 9.1864004135
 3053.6875000 7.0000000000 8.5676002502 8.5000000000 63.049076080 0.0384999998 9.6359596252 0.3037000000 2.5752000809 3.4324998856 120.28939819 5.9892587662 81.720001221 151.86849976 8.9902000427 8.2297592163 8.8371000290
 3053.8398438 7.0000000000 8.5541000366 8.5000000000 63.367938995 0.0248000007 9.6743793488 0.3043999970 2.6029999256 3.1198000908 122.32550049 6.1503376961 82.227798462 152.77250671 8.2580995560 8.2034063339 8.1451997757
 3053.9921875 7.0000000000 8.5557003021 8.5000000000 59.783432007 0.0030000000 10.222938538 0.2872000039 2.6368000507 2.8238999844 123.59929657 5.9241695404 82.459701538 153.01170349 7.7743000984 7.5220460892 7.6851000786
 3054.1447754 7.0000000000 8.5551996231 8.5000000000 55.863899231 -0.021400001 10.871977806 0.2734000087 2.6528999805 2.6819999218 124.62460327 5.5927791595 82.393600464 152.70919800 7.6862998009 7.5512709618 7.5975999832
 3054.2971191 7.0000000000 8.5483999252 8.5000000000 50.871273041 -0.044000000 11.489344597 0.2624000013 2.6466999054 2.6517999172 124.37259674 5.2427554131 81.841300964 151.77200317 7.8622999191 7.6355876923 7.7813000679
 3054.4494629 7.0000000000 8.5525999069 8.5000000000 49.777980804 -0.053900000 12.202801704 0.2655999959 2.6382000446 2.7181999683 122.61430359 4.7783632278 81.106903076 150.72450256 8.5269002914 7.6281404495 8.4218997955
 3054.6018066 7.0000000000 8.5651998520 8.5000000000 51.475276947 -0.052099999 12.514850616 0.2820999920 2.6287000179 2.8478999138 120.89530182 4.5062589645 80.370002747 149.92390442 9.2136001587 7.7165303230 9.0738000870
