# LAS format log file from PETREL
# Project units are specified as depth units
#==================================================================
~Version information
VERS.   2.0:
WRAP.   NO:
#==================================================================
~Well
STRT .m      2949.7507324 :
STOP .m      3605.5278320 :
STEP .m     0.00000000 :
NULL .        -999.250000 :
COMP.           : COMPANY
WELL.  35/9-10 S   : WELL
FLD.            : FIELD
LOC.            : LOCATION
SRVC.           : SERVICE COMPANY
DATE.  2018-09-11 14:49:01   : Log Export Date {yyyy-MM-dd HH:mm:ss}
PROV.           : PROVINCE
UWI.   35/9-10 S   : UNIQUE WELL ID
API.            : API NUMBER
#==================================================================
~Curve
DEPT .m                   : DEPTH
Lithology_geolink ._      : Lithology_geolink
CALI .in                  : CALI
BS .in                    : BS
ROP .m/h                  : ROP
DRHO .g/cm3               : DRHO
THOR .ppm                 : THOR
NPHI .m3/m3               : NPHI
RHOB .g/cm3               : RHOB
PEF .b/e                  : PEF
GR .gAPI                  : GR
URAN .ppm                 : URAN
DTC .us/ft                : DTC
DTS .us/ft                : DTS
RDEP .ohm.m               : RDEP
RMED .ohm.m               : RMED
~Parameter
#==================================================================
~Ascii
# ...
 3555.9980469 3.0000000000 8.7100000381 8.5000000000 108.08661652 0.0786999986 12.280200005 0.1771000028 2.5566000938 7.5237998962 73.720497131 0.0331000015 68.227798462 116.58439636 8.8345003128 8.0866003036
 3556.1503906 3.0000000000 8.5805997849 8.5000000000 112.11942291 -0.014300000 11.860699654 0.1881999969 2.5610001087 4.0257000923 75.244697571 0.0359999985 68.700500488 117.11849976 8.9418001175 8.2284002304
 3556.3027344 3.0000000000 8.5569000244 8.5000000000 114.30249786 -0.002600000 11.458900452 0.1846999973 2.5341000557 4.2905998230 74.524696350 0.0280000009 69.453796387 117.49239349 8.7264003754 8.0689001083
 3556.4550781 3.0000000000 8.5506000519 8.5000000000 112.45243073 0.0313000008 11.224900246 0.1884000003 2.5065000057 4.3603000641 71.885002136 0.0155999996 70.032897949 117.59738922 8.1071996689 7.5276999474
 3556.6076660 3.0000000000 8.5517997742 8.5000000000 110.27427673 0.0731000006 11.246700287 0.2037999928 2.5072999001 4.2477002144 70.906600952 0.0016000000 70.220298767 118.37709808 7.3798999786 6.8744997978
 3556.7600098 5.0000000000 8.5509996414 8.5000000000 109.94586945 0.1020999998 11.565199852 0.2221000046 2.5385000706 4.0581002235 73.750297546 0.0016000000 70.148498535 118.12200928 6.9535999298 6.4980001450
 3556.9123535 5.0000000000 8.5601997375 8.5000000000 108.67191315 0.0983000025 12.132699966 0.2340999991 2.5662000179 3.9261999130 78.924499512 0.0016000000 70.330596924 118.64379883 6.9096999168 6.4660000801
 3557.0646973 5.0000000000 8.5775003433 8.5000000000 107.72637939 0.0661000013 12.499199867 0.2364999950 2.5720000267 3.8814001083 83.131797791 0.0016000000 70.744201660 118.77670288 6.9939999580 6.5489997864
 3557.2172852 5.0000000000 8.5873003006 8.5000000000 105.32578278 0.0285999998 12.541600227 0.2266000062 2.5617001057 3.8640000820 85.070999146 0.0016000000 70.787300110 118.90609741 7.0440001488 6.5964999199
 3557.3696289 5.0000000000 8.5888996124 8.5000000000 103.87073517 0.0073000002 12.325300217 0.2124000043 2.5522000790 3.8824999332 85.379898071 0.0016000000 70.650901794 119.46810150 7.2476000786 6.7866997719
 3557.5219727 5.0000000000 8.5873003006 8.5000000000 106.39041901 0.0034000000 11.625200272 0.2088000029 2.5466001034 3.9514000416 83.719200134 0.0016000000 70.220298767 121.12099457 7.8345999718 7.3365998268
 3557.6743164 5.0000000000 8.5726995468 8.5000000000 114.34022522 0.0063000000 10.337499619 0.2213000059 2.5406999588 4.0230998993 80.888000488 0.1710000038 69.917503357 125.03019714 8.8550996780 8.2951002121
 3557.8269043 3.0000000000 8.5529003143 8.5000000000 111.24049377 0.0109000001 9.0571002960 0.2370000035 2.5369999409 4.0486998558 78.602203369 0.3896999955 69.267501831 124.95899963 9.8582000732 9.2420997620
 3557.9792480 3.0000000000 8.5443000793 8.5000000000 105.04100800 0.0179999992 8.1549997330 0.2382999957 2.5332999229 4.0559000969 76.176498413 0.4618999958 68.738296509 122.57530212 10.078100204 9.4602003098
 3558.1313477 3.0000000000 8.5448999405 8.5000000000 99.933067322 0.0286828522 7.7563395500 0.2265189141 2.5207202435 4.1111111641 72.575782776 0.4167724550 68.201660156 120.12922668 9.5382671356 8.9688882828
 3558.2836914 5.0000000000 8.5495996475 8.5000000000 89.708984375 0.0436759591 7.9724516869 0.2111246735 2.5075211525 4.1678090096 70.312522888 0.3239488900 68.305831909 121.12289429 8.9773988724 8.4619121552
 3558.4360352 5.0000000000 8.5581998825 8.5000000000 87.862518311 0.0605729185 8.4324617386 0.1988197118 2.5142891407 4.1257677078 73.150733948 0.2865597904 69.720123291 123.02206421 8.8151597977 8.3336048126
 3558.5883789 5.0000000000 8.5629997253 8.5000000000 84.205307007 0.0668798387 9.0182218552 0.1949124932 2.5364289284 4.0033922195 80.039199829 0.2913843095 71.672935486 127.59483337 9.0225334167 8.5565834045
 3558.7409668 5.0000000000 8.5615997314 8.5000000000 85.538520813 0.0552187487 9.5581359863 0.1963976026 2.5608608723 3.9330122471 85.996269226 0.3712717891 73.711730957 130.51683044 9.4290485382 8.9692392349
 3558.8933105 5.0000000000 8.5625000000 8.5000000000 88.230590820 0.0301402230 10.092443466 0.1934048086 2.5790708065 3.8829801083 88.723136902 0.5850570202 74.077117920 129.66188049 9.7816352844 9.3284254074
 3559.0456543 5.0000000000 8.5634002686 8.5000000000 88.572952271 0.0071368590 10.656295776 0.1895062476 2.5904817581 3.7660872936 90.786399841 0.8523715138 74.630218506 132.18833923 9.9338569641 9.4817552567
 3559.1979980 5.0000000000 8.5586004257 8.5000000000 89.248161316 -0.000675040 11.415964127 0.1971753538 2.5941879749 3.6460845470 93.457435608 0.8985531330 75.748718262 135.86840820 9.9272222519 9.4739255905
 3559.3505859 6.0000000000 8.5525999069 8.5000000000 90.751853943 0.0075866990 12.411306381 0.2201631367 2.5890083313 3.5133123398 95.822517395 0.6839447021 76.266677856 137.15405273 9.7882232666 9.3434095383
 3559.5029297 6.0000000000 8.5565996170 8.5000000000 93.756988525 0.0268690716 13.225096703 0.2463580072 2.5904977322 3.3395783901 96.767990112 0.5003941059 76.947906494 138.69422913 9.5068511963 9.0940999985
 3559.6552734 6.0000000000 8.5654001236 8.5000000000 96.012458801 0.0446714759 13.798381805 0.2653695345 2.6052763462 3.2124035358 95.915672302 0.4583669901 77.064323425 139.19839478 8.9195423126 8.5638504028
 3559.8076172 6.0000000000 8.5701999664 8.5000000000 100.51050568 0.0498833582 14.324513435 0.2792555094 2.6236410141 3.2184796333 96.030227661 0.4609913528 76.749710083 139.41441345 7.8543167114 7.5701870918
 3559.9602051 6.0000000000 8.5677995682 8.5000000000 100.88688660 0.0419128202 14.830590248 0.2865882814 2.6320867538 3.4461345673 98.515312195 0.5100213289 76.432800293 138.99856567 6.6263656616 6.4223370552
 3560.1125488 6.0000000000 8.5645999908 8.5000000000 101.61104584 0.0281221159 15.240243912 0.2639364004 2.6192207336 3.8742134571 101.00581360 0.6214212775 75.560104370 135.82818604 5.6195130348 5.4853010178
 3560.2648926 6.0000000000 8.5609998703 8.5000000000 103.59327698 0.0186152253 15.532132149 0.2204697132 2.5879499912 4.1210050583 101.10913849 0.7564834952 75.113914490 133.49293518 4.8049049377 4.7281131744
 3560.4172363 6.0000000000 8.5502996445 8.5000000000 107.55827332 0.0151056098 15.681661606 0.1956397444 2.5458674431 3.8158903122 99.125984192 0.8823982477 74.356414795 127.89379120 4.1063189507 4.0749468803
 3560.5695801 6.0000000000 8.5356998444 8.5000000000 107.17218781 0.0102156801 15.315874100 0.1975936145 2.4928700924 3.2310757637 96.381103516 1.0113866329 74.071113586 125.87554169 3.6269354820 3.6244428158
 3560.7221680 5.0000000000 8.5321998596 8.5000000000 106.38479614 0.0021129807 14.129102707 0.2089817375 2.4373886585 2.7830162048 92.130012512 1.0903738737 73.666946411 124.26766205 3.4281165600 3.4426894188
 3560.8745117 5.0000000000 8.5383996964 8.5000000000 105.28588104 -0.000296154 12.587471962 0.2102979124 2.3993608952 2.5915064812 83.702018738 1.0429762602 73.285812378 124.42733765 3.4544572830 3.4821360111
 3561.0268555 5.0000000000 8.5380001068 8.5000000000 104.73513794 0.0106823724 11.270509720 0.1994174570 2.3872194290 2.6378252506 72.723800659 0.8644863963 73.082725525 124.59153748 3.5758051872 3.6133894920
 3561.1791992 3.0000000000 8.5243997574 8.5000000000 102.67001343 0.0315331183 10.336193085 0.1857438385 2.3876984119 2.8183209896 64.506217957 0.6273603439 72.732521057 124.27920532 3.6245441437 3.6635398865
 3561.3317871 3.0000000000 8.5099000931 8.5000000000 101.62993622 0.0534649044 9.5516538620 0.1765147299 2.3909947872 2.9551811218 60.907333374 0.4604666829 72.638748169 123.62614441 3.5158748627 3.5463883877
 3561.4841309 3.0000000000 8.5069999695 8.5000000000 97.090293884 0.0670782104 8.8139820099 0.1717076898 2.3991868496 2.9146652222 59.231082916 0.4000964761 72.630813599 121.95069122 3.3197145462 3.3361370564
 3561.6364746 3.0000000000 8.5111999512 8.5000000000 94.814002991 0.0672996864 8.1149206161 0.1668078601 2.4176704884 2.7389817238 57.271041870 0.4024960101 72.703384399 121.30033875 3.2028868198 3.2040114403
 3561.7888184 3.0000000000 8.5270004272 8.5000000000 88.349807739 0.0496566407 7.4775428772 0.1649060845 2.4351439476 2.5511021614 54.561885834 0.4412755072 72.976921082 121.24228668 3.2215394974 3.2064914703
