# LAS format log file from PETREL
# Project units are specified as depth units
#==================================================================
~Version information
VERS.   2.0:
WRAP.   NO:
#==================================================================
~Well
STRT .m      2535.9846191 :
STOP .m      3240.0725098 :
STEP .m     0.00000000 :
NULL .        -999.250000 :
COMP.           : COMPANY
WELL.  35/9-8   : WELL
FLD.            : FIELD
LOC.            : LOCATION
SRVC.           : SERVICE COMPANY
DATE.  2018-09-11 14:49:02   : Log Export Date {yyyy-MM-dd HH:mm:ss}
PROV.           : PROVINCE
UWI.   35/9-8   : UNIQUE WELL ID
API.            : API NUMBER
#==================================================================
~Curve
DEPT .m                   : DEPTH
Lithology_geolink ._      : Lithology_geolink
CALI .in                  : CALI
BS .in                    : BS
ROP .m/h                  : ROP
DRHO .g/cm3               : DRHO
THOR .ppm                 : THOR
NPHI .m3/m3               : NPHI
RHOB .g/cm3               : RHOB
PEF .b/e                  : PEF
GR .gAPI                  : GR
URAN .ppm                 : URAN
DTC .us/ft                : DTC
DTS .us/ft                : DTS
RDEP .ohm.m               : RDEP
RMIC .ohm.m               : RMIC
RMED .ohm.m               : RMED
~Parameter
#==================================================================
~Ascii
# ...
 3235.1955566 6.0000000000 8.5493001938 8.5000000000 100.32513428 0.0753000006  -999.250000 0.2197999954 2.5453999043 5.5295000076 113.17739105  -999.250000 69.792999268 118.77536774 13.489692688 17.668300629 13.525876999
 3235.3481445 6.0000000000 8.5493001938 8.5000000000 100.56101990 0.0778999999  -999.250000 0.2134000063 2.5332999229 5.3536000252 110.62471008  -999.250000 68.385696411 116.82831573 7.6876239777 8.3485002518 7.7521786690
 3235.5004883 6.0000000000 8.4977998734 8.5000000000 101.03280640 0.0671999976  -999.250000 0.1891999990 2.4725000858 5.1833000183 114.31137848  -999.250000 66.819000244 115.31761932 4.5141787529 3.1814999580 4.5563149452
 3235.6528320 6.0000000000 8.4977998734 8.5000000000 99.524276733 0.0579999983  -999.250000 0.1680999994 2.4570999146 5.2846999168 115.84114838  -999.250000 65.176902771 114.22375488 3.9515948296 2.0360000134 3.9905998707
 3235.8051758 6.0000000000 8.5493001938 8.5000000000 96.507545471 0.0417999998  -999.250000 0.1319999993 2.4698998928 5.6595001221 109.62477875  -999.250000 63.652900696 113.70613098 5.4223375320 3.1219000816 5.4718208313
 3235.9575195 6.0000000000 8.5493001938 8.5000000000 93.200134277 0.0381000005  -999.250000 0.1299999952 2.5030000210 5.9103999138 113.17915344  -999.250000 62.471199036 113.32842255 14.174510002 15.088399887 14.227101326
 3236.1101074 6.0000000000 8.5493001938 8.5000000000 86.584976196 0.0493000001  -999.250000 0.1555999964 2.6003999710 6.3227000237 99.923896790  -999.250000 62.166801453 112.94242096 41.908729553 35.229400635 41.544795990
 3236.2624512 5.0000000000 8.5286998749 8.5000000000 78.597434998 0.0610000007  -999.250000 0.1639000028 2.6396999359 6.3624000549 87.574493408  -999.250000 62.516601563 112.53495789 41.759807587 31.916999817 40.983173370
 3236.4147949 5.0000000000 8.5493001938 8.5000000000 62.621715546 0.0738999993  -999.250000 0.1542000026 2.6616001129 6.1879000664 71.038009644  -999.250000 63.470199585 112.23756409 33.415393829 24.044200897 32.656661987
 3236.5671387 4.0000000000 8.5493001938 8.5000000000 59.378936768 0.0755999982  -999.250000 0.1511999965 2.6522998810 6.0567998886 67.251266479  -999.250000 64.488601685 112.11489105 32.192085266 21.090099335 31.334800720
 3236.7197266 4.0000000000 8.5493001938 8.5000000000 52.893043518 0.0731000006  -999.250000 0.1720000058 2.6120998859 5.7600998878 71.527717590  -999.250000 65.212303162 112.17380524 31.026964188 16.587999344 30.076511383
 3236.8720703 4.0000000000 8.5493001938 8.5000000000 53.820533752 0.0707999989  -999.250000 0.1826000065 2.5938999653 5.6272997856 74.292076111  -999.250000 65.572502136 112.28282166 21.959899902 11.321499825 21.228500366
 3237.0244141 4.0000000000 8.5493001938 8.5000000000 55.675201416 0.0657000020  -999.250000 0.2001000047 2.5701000690 5.4418997765 79.784988403  -999.250000 65.690002441 112.35298920 15.188300133 6.7074999809 14.672300339
 3237.1767578 4.0000000000 8.5493001938 8.5000000000 50.704399109 0.0595999993  -999.250000 0.2203000039 2.5578999519 5.3492999077 84.044853210  -999.250000 65.716102600 112.36735535 14.014900208 7.0321998596 13.541399956
 3237.3293457 5.0000000000 8.5493001938 8.5000000000 48.218830109 0.0588999987  -999.250000 0.2240999937 2.5578999519 5.3389000893 86.124580383  -999.250000 65.973503113 112.38147736 14.098799706 12.120400429 13.659000397
 3237.4816895 5.0000000000 8.5493001938 8.5000000000 50.813320160 0.0648000017  -999.250000 0.2181999981 2.5564999580 5.3192000389 88.132881165  -999.250000 67.048599243 112.45877838 13.065899849 10.384599686 12.782400131
 3237.6340332 5.0000000000 8.5493001938 8.5000000000 52.110565186 0.0685999990  -999.250000 0.2134999931 2.5490999222 5.2863001823 87.130020142  -999.250000 68.879898071 112.59838104 9.0246000290 7.0170001984 9.0040998459
 3237.7863770 5.0000000000 8.4977998734 8.5000000000 53.191928864 0.0778999999  -999.250000 0.2102999985 2.5046000481 5.1528000832 79.599281311  -999.250000 70.892501831 112.75754547 5.8232002258 3.8178999424 5.9031000137
 3237.9389648 5.0000000000 8.4977998734 8.5000000000 53.732616425 0.0775000006  -999.250000 0.2069000006 2.4786000252 5.0964999199 77.092994690  -999.250000 72.250099182  -999.250000 4.4656000137 2.5443999767 4.5706000328
 3238.0913086 5.0000000000 8.4977998734 8.5000000000 66.256561279 0.0623000003  -999.250000  -999.250000 2.4526000023 5.0802001953 80.148689270  -999.250000 72.229896545  -999.250000 4.1529998779 2.0694000721 4.2993998528
 3238.2436523 5.0000000000 8.4977998734 8.5000000000 72.518371582 0.0531999990  -999.250000  -999.250000 2.4586999416 5.1574001312 81.599182129  -999.250000 71.635398865  -999.250000 5.7923998833 2.2486999035 6.0805997849
 3238.3959961 5.0000000000 8.5493001938 8.5000000000 68.516403198 0.0535000004  -999.250000  -999.250000 2.5109999180 5.4404997826 86.847274780  -999.250000 71.065399170  -999.250000 11.060299873 4.9114999771 11.777400017
 3238.5483398 5.0000000000 8.5493001938 8.5000000000 66.515419006 0.0645999983  -999.250000  -999.250000 2.5415000916 5.5212998390 92.647209167  -999.250000 70.736000061  -999.250000 16.833400726 14.841799736 18.110500336
 3238.7009277 5.0000000000 8.5150003433 8.5000000000 64.250000000 0.0896999985  -999.250000  -999.250000 2.5594000816 5.3200001717 94.999450684  -999.250000 70.735198975  -999.250000 15.815299988 22.351299286 17.130699158
 3238.8532715 5.0000000000 8.4977998734 8.5000000000 63.117446899 0.0882999972  -999.250000  -999.250000 2.5220999718 5.0114998817 91.325904846  -999.250000 70.986099243  -999.250000 10.597399712 15.508500099 11.559800148
 3239.0056152 5.0000000000 8.4977998734 8.5000000000 61.835304260 0.0653999969  -999.250000  -999.250000 2.4442999363 4.6121001244 82.272521973  -999.250000 71.903297424  -999.250000 6.4380998611 4.5745000839 7.0714001656
 3239.1579590 5.0000000000 8.4977998734 8.5000000000 61.194553375 0.0588000007  -999.250000  -999.250000 2.4361999035 4.6421999931 79.105613708  -999.250000 73.165100098  -999.250000 5.1482000351 1.8767000437 5.6631999016
 3239.3105469 4.0000000000 8.4977998734 8.5000000000 68.458663940 0.0555999987  -999.250000  -999.250000 2.4593999386 5.0413999557 73.966835022  -999.250000 74.318099976  -999.250000 5.6627998352 1.6059999466 6.2280998230
 3239.4628906 4.0000000000 8.4977998734 8.5000000000 72.090553284 0.0595000014  -999.250000  -999.250000 2.4800999165 5.2137999535 75.831192017  -999.250000 74.571090698  -999.250000 6.8692998886 1.6269999743 7.5493998528
 3239.6152344 4.0000000000 8.4977998734 8.5000000000 71.927818298 0.0680000037  -999.250000  -999.250000 2.5044999123 5.2452001572 78.103363037  -999.250000 72.819702148  -999.250000 7.7842001915 1.7661999464 8.5208997726
 3239.7675781 5.0000000000 8.4977998734 8.5000000000 71.764762878 0.0702999979  -999.250000  -999.250000 2.5074999332 5.1936001778 79.518165588  -999.250000 69.815200806  -999.250000 7.6585001945 2.0188999176 8.3108997345
 3239.9201660 5.0000000000 8.5493001938 8.5000000000 68.535102844 0.0733999982  -999.250000  -999.250000 2.4942998886 5.0220999718 83.391586304  -999.250000 66.661201477  -999.250000 6.8594999313 2.0732998848 7.3365001678
 3240.0725098 5.0000000000 8.5493001938 8.5000000000 62.401580811 0.0753000006  -999.250000  -999.250000 2.4742000103 4.8889999390 90.536041260  -999.250000 64.398498535  -999.250000 5.6909999847 1.9528000355 6.0131001472
