# LAS format log file from PETREL
# Project units are specified as depth units
#==================================================================
~Version information
VERS.   2.0:
WRAP.   NO:
#==================================================================
~Well
STRT .m      2726.1311035 :
STOP .m      3477.3107910 :
STEP .m     0.00000000 :
NULL .        -999.250000 :
COMP.           : COMPANY
WELL.  35/9-5   : WELL
FLD.            : FIELD
LOC.            : LOCATION
SRVC.           : SERVICE COMPANY
DATE.  2018-09-11 14:49:02   : Log Export Date {yyyy-MM-dd HH:mm:ss}
PROV.           : PROVINCE
UWI.   35/9-5   : UNIQUE WELL ID
API.            : API NUMBER
#==================================================================
~Curve
DEPT .m                   : DEPTH
Lithology_geolink ._      : Lithology_geolink
CALI .in                  : CALI
BS .in                    : BS
ROP .m/h                  : ROP
DRHO .g/cm3               : DRHO
THOR .ppm                 : THOR
NPHI .m3/m3               : NPHI
RHOB .g/cm3               : RHOB
PEF .b/e                  : PEF
GR .gAPI                  : GR
URAN .ppm                 : URAN
DTC .us/ft                : DTC
DTS .us/ft                : DTS
RDEP .ohm.m               : RDEP
RMIC .ohm.m               : RMIC
RMED .ohm.m               : RMED
~Parameter
#==================================================================
~Ascii
# ...
 3120.8471680 13.000000000 8.5687999725 8.5000000000 45.040683746 0.0082999999 17.473199844 0.3684999943 2.5441999435 3.1080000401 126.24530029 2.4012999535 94.832099915 196.65029907 2.8273000717 1.7445000410 2.9619998932
 3120.9995117 13.000000000 8.5687999725 8.5000000000 46.486221313 0.0258000009 18.033199310 0.3659999967 2.5780000687 3.2197000980 121.56809998 2.1054999828 94.472198486 194.11250305 3.8729999065 2.0794000626 7.2121000290
 3121.1520996 13.000000000 8.5762996674 8.5000000000 41.509189606 0.0909999982 18.122299194 0.3425999880 2.7030999660 3.3276000023 111.76470184 2.0009000301 93.295196533 193.16479492 2.6389000416 2.2367000580 2.3155999184
 3121.3044434 13.000000000 8.5913000107 8.5000000000 37.200130463 0.1419000030 18.494300842 0.3531999886 2.8278000355 3.4070000648 114.66880035 1.6368999481 92.877700806 192.82200623 2.6798999310 2.1789999008 2.7525999546
 3121.4567871 13.000000000 8.6213998795 8.5000000000 35.253940582 0.1433999985 17.951700211 0.3560000062 2.8269000053 3.4021999836 122.26930237 1.9665001631 92.611602783 190.60157776 2.6159999371 1.7930999994 2.8415999413
 3121.6091309 13.000000000 8.6288995743 8.5000000000 33.555118561 0.0797000006 17.995800018 0.3695000112 2.7046000957 3.2616999149 126.70290375 2.5978999138 93.027297974 193.06689453 2.8002998829 1.7473000288 3.0032000542
 3121.7614746 13.000000000 8.6063995361 8.5000000000 33.507549286 0.0197999999 18.455499649 0.3779999912 2.5724999905 3.1226999760 132.64939880 2.6846001148 94.472702026 194.70419312 2.7376000881 1.6646000147 3.0748999119
 3121.9140625 13.000000000 8.5275001526 8.5000000000 33.945537567 -0.000400000 19.540599823 0.3756999969 2.5208001137 3.0204000473 135.69209290 2.3763000965 95.358795166 200.74050903 2.5913000107 1.5759999752 2.6616001129
 3122.0664063 13.000000000 8.5312995911 8.5000000000 34.236877441 0.0010000000 19.316799164 0.3524999917 2.5213000774 2.9563000202 135.29899597 2.2990000248 96.580101013 202.26069641 2.3101000786 1.5226999521 2.4205999374
 3122.2187500 13.000000000 8.5462999344 8.5000000000 34.974082947 0.0023000001 19.236900330 0.3382000029 2.5287001133 2.8789000511 133.38999939 2.1610000134 97.235893250 202.35150146 2.4651999474 1.5319999456 2.5107998848
 3122.3710938 13.000000000 8.5312995911 8.5000000000 36.580711365 0.0044000000 19.011100769 0.3361999989 2.5420000553 2.8468999863 128.62919617 2.4937999249 98.341499329 200.94869995 2.4073998928 1.5485999584 2.4456999302
 3122.5236816 13.000000000 8.5163002014 8.5000000000 38.236549377 0.0023000001 19.021400452 0.3650000095 2.5360999107 2.9182000160 128.09599304 2.2246000767 98.158996582 199.00759888 2.4351000786 1.5815000534 2.4690001011
 3122.6760254 13.000000000 8.5237998962 8.5000000000 42.033138275 0.0018000000 18.346399307 0.3459999859 2.5348999500 3.0220000744 131.05459595 2.2253000736 98.475097656 200.87109375 2.5232999325 1.6000000238 2.6851000786
 3122.8283691 13.000000000 8.5462999344 8.5000000000 46.349082947 0.0014000000 18.520000458 0.3307999969 2.5339999199 3.0868000984 130.20759583 2.0992000103 98.496902466 201.25259399 2.5225000381 1.5800000429 2.7560000420
 3122.9807129 13.000000000 8.5237998962 8.5000000000 47.846458435 0.0019000000 18.971300125 0.3027000129 2.5399999619 3.0666999817 131.95520020 2.1194000244 98.423500061 200.60360718 2.4523000717 1.5647000074 2.7657999992
 3123.1333008 13.000000000 8.5613002777 8.5000000000 51.534446716 0.0017000000 18.407100677 0.3080999851 2.5460000038 3.0030000210 135.81730652 1.8633999825 97.500999451 199.31779480 2.5053999424 1.5721999407 2.5409998894
 3123.2856445 13.000000000 8.5913000107 8.5000000000 50.013126373 0.0016000000 18.878400803 0.3097999990 2.5536999702 2.9333999157 134.11889648 1.4757000208 97.013702393 200.73019409 2.5041999817 1.6527999640 2.5590999126
 3123.4379883 13.000000000 8.5762996674 8.5000000000 48.182086945 0.0010000000 18.265300751 0.3185000122 2.5608999729 2.9179999828 131.87789917 1.2788000107 96.990402222 201.04119873 2.5511999130 1.6942000389 2.7795999050
 3123.5903320 13.000000000 8.5557003021 8.5000000000 49.739173889 0.0002000000 18.104200363 0.3458000124 2.5527999401 2.9509000778 131.10749817 1.2345000505 96.535797119 201.52909851 2.7987999916 1.7122000456 3.1117000580
 3123.7426758 13.000000000 8.5462999344 8.5000000000 50.895343781 0.0000000000 17.848699570 0.3625999987 2.5638999939 3.0360999107 128.93209839 1.5370999575 96.499610901 202.68888855 2.5257000923 1.6599999666 2.6991000175
 3123.8952637 13.000000000 8.5462999344 8.5000000000 52.160106659 -0.001100000 17.191499710 0.3745999932 2.5671000481 3.2994000912 124.80290222 1.8788000345 96.468101501 201.58859253 2.2657001019 1.6259000301 2.5913999081
 3124.0476074 13.000000000 8.5537996292 8.5000000000 51.523952484 -0.001500000 17.497600555 0.3759999871 2.5785000324 3.5269000530 124.19599915 1.8119000196 95.739601135 199.08250427 2.7939999104 1.6280000210 3.0064001083
 3124.1999512 13.000000000 8.5331001282 8.5000000000 51.375984192 -0.002600000 18.405899048 0.3851000071 2.6110999584 3.7153000832 127.49649811 1.6362999678 94.154098511 196.76240540 2.4835999012 1.6901999712 2.6135001183
 3124.3522949 13.000000000 8.6063995361 8.5000000000 35.805446625 -0.001200000 19.241199493 0.3871000111 2.6435999870 3.6640999317 125.35269928 1.7753000259 90.105499268 190.20680237 2.6048998833 1.8086999655 2.5109999180
 3124.5048828 13.000000000 8.7133998871 8.5000000000 34.745735168 0.0126999998 17.208799362 0.3495999873 2.6761000156 3.5650999546 116.88999939 1.8415999413 87.876304626 188.75700378 2.3203001022 1.8159999847 10.367799759
 3124.6572266 13.000000000 8.7189998627 8.5000000000 33.543964386 0.0364000015 16.010099411 0.3235999942 2.7086999416 3.3606998920 106.98059845 1.6283999681 87.801498413 188.68190002 2.6308999062 1.8777999878 2.9302000999
 3124.8095703 13.000000000 8.5087003708 8.5000000000 33.243766785 0.0914999992 15.564599037 0.3165999949 2.7411999702 3.0564999580 105.46970367 1.6847000122 88.721496582 188.65759277 2.9393000603 2.1552999020 2.8334999084
 3124.9619141 13.000000000 8.4937000275 8.5000000000 32.270668030 0.1835999936 16.600099564 0.3273999989 2.6737000942 2.7362999916 113.21440125 1.9735000134 90.392196655 190.30929565 2.4084999561 3.4883999825 2.5504000187
 3125.1145020 13.000000000 8.5163002014 8.5000000000 30.553478241 0.2702000141 17.393400192 0.3508999944 2.6006999016 2.4711000919 121.20320129 2.1161000729 92.578300476 193.95620728 2.6229999065 6.3041000366 2.5490000248
 3125.2668457 13.000000000 8.5050001144 8.5000000000 30.515747070 0.3355000019 17.714899063 0.3371999860 2.5487999916 2.2578999996 128.38800049 2.1517999172 94.995201111 198.19389343 2.4279999733 7.7961001396 2.6807999611
 3125.4191895 13.000000000 8.5087003708 8.5000000000 29.583005905 0.3553000093 16.913799286 0.3348000050 2.5511000156 2.0903999805 131.88740540 2.0085999966 96.554901123 201.13891602 2.2641999722 5.2003998756 2.6717998981
 3125.5715332 13.000000000 8.4937000275 8.5000000000 27.996063232 0.3761000037 16.985300064 0.3206999898 2.5534000397 1.9678000212 130.44540405 2.0608000755 96.285499573 200.57539368 2.2997999191 3.7741999626 2.4393000603
 3125.7241211 13.000000000 8.5163002014 8.5000000000 28.595472336 0.3819000125 16.568700790 0.3181000054 2.5555999279 1.9218000174 124.11959839 1.9764000177 96.007797241 199.70509338 2.1463999748 3.0866000652 2.2816998959
 3125.8764648 13.000000000 8.5050001144 8.5000000000 39.473754883 0.3761999905 16.313400269 0.3303999901 2.6682000160 1.9006999731 105.29039764 2.3554000854 93.111602783 198.53642273 17.213600159 2.7737998962 16.975900650
 3126.0288086 13.000000000 8.4937000275 8.5000000000 40.169948578 0.3537999988 16.920799255 0.3273999989 2.8719000816 1.8904999495 91.822799683 1.9895001650 89.074203491 196.77000427 16.509799957 2.7523999214 8.5310001373
 3126.1811523 13.000000000 8.5011997223 8.5000000000 41.188648224 0.3348000050 15.781599045 0.3289999962 2.8429000378 1.8780000210 102.97250366 1.9857000113 84.837600708 190.05859375 2.2776000500 2.8592000008 2.4828000069
 3126.3334961 13.000000000 8.5106000900 8.5000000000 42.291339874 0.3233999908 14.538700104 0.3183000088 2.8008999825 1.9459999800 118.48310089 1.9685001373 84.485000610 186.45179749 2.3873000145 2.9346001148 2.6296999454
