# LAS format log file from PETREL
# Project units are specified as depth units
#==================================================================
~Version information
VERS.   2.0:
WRAP.   NO:
#==================================================================
~Well
STRT .m      2726.1311035 :
STOP .m      3477.3107910 :
STEP .m     0.00000000 :
NULL .        -999.250000 :
COMP.           : COMPANY
WELL.  35/9-5   : WELL
FLD.            : FIELD
LOC.            : LOCATION
SRVC.           : SERVICE COMPANY
DATE.  2018-09-11 14:49:02   : Log Export Date {yyyy-MM-dd HH:mm:ss}
PROV.           : PROVINCE
UWI.   35/9-5   : UNIQUE WELL ID
API.            : API NUMBER
#==================================================================
~Curve
DEPT .m                   : DEPTH
Lithology_geolink ._      : Lithology_geolink
CALI .in                  : CALI
BS .in                    : BS
ROP .m/h                  : ROP
DRHO .g/cm3               : DRHO
THOR .ppm                 : THOR
NPHI .m3/m3               : NPHI
RHOB .g/cm3               : RHOB
PEF .b/e                  : PEF
GR .gAPI                  : GR
URAN .ppm                 : URAN
DTC .us/ft                : DTC
DTS .us/ft                : DTS
RDEP .ohm.m               : RDEP
RMIC .ohm.m               : RMIC
RMED .ohm.m               : RMED
~Parameter
#==================================================================
~Ascii
# ...
 3470.4528809 5.0000000000 8.7076997757 8.5000000000 84.198165894 -0.000700000  -999.250000 0.2415000051 2.6289999485 3.1250998974 93.467102051  -999.250000 69.096000671 121.38210297 19.378000259 19.510299683 17.275199890
 3470.6052246 5.0000000000 8.6964998245 8.5000000000 81.630249023 -0.002800000  -999.250000 0.2075999975 2.6224999428 3.0611000061 89.964897156  -999.250000 68.393997192 118.68890381 26.657899857 18.286899567 22.954799652
 3470.7578125 5.0000000000 8.7010002136 8.5000000000 81.042984009 -0.005100000  -999.250000 0.1939000040 2.6164000034 3.0113000870 90.685203552  -999.250000 66.905601501 117.98229980 23.641500473 18.542200089 19.953399658
 3470.9101563 5.0000000000 8.7054996490 8.5000000000 81.017715454 -0.001300000  -999.250000 0.2245000005 2.6308999062 3.0374000072 94.512199402  -999.250000 66.884300232 117.86540222 20.559200287 20.402399063 22.214300156
 3471.0625000 5.0000000000 8.6785001755 8.5000000000 83.114173889 0.0126999998  -999.250000 0.2410999984 2.6584000587 3.1343998909 98.600997925  -999.250000 67.357803345 118.63469696 22.423099518 22.737800598 24.877000809
 3471.2148438 5.0000000000 8.7054996490 8.5000000000 80.819221497 0.0271000005  -999.250000 0.2469000071 2.6886000633 3.2018001080 100.78679657  -999.250000 68.685501099 120.87979889 21.785800934 24.756999969 24.002099991
 3471.3671875 5.0000000000 8.7145004272 8.5000000000 83.059379578 0.0308999997  -999.250000 0.2472999990 2.6944000721 3.2049999237 100.78109741  -999.250000 69.474502563 122.68900299 24.455099106 24.738100052 24.706399918
 3471.5197754 5.0000000000 8.6964998245 8.5000000000 79.292984009 0.0203000009  -999.250000 0.2635000050 2.6765999794 3.1603999138 100.50019836  -999.250000 70.571800232 124.05410004 26.773399353 25.188899994 27.421300888
 3471.6721191 5.0000000000 8.7145004272 8.5000000000 80.820213318 0.0131999999  -999.250000 0.2858999968 2.6649999619 3.1463999748 99.193298340  -999.250000 70.960098267 124.53429413 24.813999176 25.224899292 24.953599930
 3471.8244629 5.0000000000 8.7076997757 8.5000000000 77.318893433 0.0116999997  -999.250000 0.2908999920 2.6607999802 3.1556000710 94.837097168  -999.250000 71.082603455 124.82450104 21.684499741 24.841999054 22.217899323
 3471.9768066 5.0000000000 8.7100000381 8.5000000000 75.124015808 0.0205000006  -999.250000 0.3001999855 2.6728999615 3.1872000694 92.251899719  -999.250000 70.910598755 124.88420105 26.114200592 24.672199249 26.513700485
 3472.1293945 5.0000000000 8.7054996490 8.5000000000 77.926834106 0.0195000004  -999.250000 0.3012999892 2.6707003117 3.1793000698 92.292098999  -999.250000 70.913803101 124.74800873 26.650199890 24.631099701 30.985900879
 3472.2817383 5.0000000000 8.7100000381 8.5000000000 75.991470337 0.0182000007  -999.250000 0.3059999943 2.6693000793 3.1686999798 95.289901733  -999.250000 70.921798706 124.68520355 28.286300659 23.986700058 29.574100494
 3472.4340820 5.0000000000 8.7054996490 8.5000000000 79.095802307 0.0122999996  -999.250000 0.2985000014 2.6633999348 3.1637001038 101.07340240  -999.250000 70.838996887 124.65660095 25.183200836 24.147199631 31.047000885
 3472.5864258 5.0000000000 8.7010002136 8.5000000000 77.906494141 0.0088999998  -999.250000 0.2775999904 2.6545000076 3.1770999432 102.81020355  -999.250000 71.236503601 124.42359924 25.006000519 24.037000656 43.466201782
 3472.7390137 5.0000000000 8.6920003891 8.5000000000 80.770668030 0.0035000001  -999.250000 0.2540000081 2.6373999119 3.2184998989 98.570899963  -999.250000 72.305297852 125.16329956 29.563899994 23.245100021 23.252599716
 3472.8913574 5.0000000000 8.7145004272 8.5000000000 79.365814209 -0.003300000  -999.250000 0.2547999918 2.6194999218 3.2588000298 95.382400513  -999.250000 72.442100525 125.61920166 30.705200195 18.581100464 33.598201752
 3473.0437012 5.0000000000 8.7235002518 8.5000000000 83.517715454 -0.006000000  -999.250000 0.2619999945 2.6161999702 3.3297998905 97.007003784  -999.250000 72.356101990 126.07260132 25.172599792 18.605400085 26.283300400
 3473.1960449 5.0000000000 8.7325000763 8.5000000000 84.127624512 -0.004800000  -999.250000 0.2736999989 2.6291999817 3.3907001019 98.604896545  -999.250000 72.200599670 126.45829773 27.667400360 23.169599533 31.423200607
 3473.3483887 5.0000000000 8.7325000763 8.5000000000 84.591865540 -0.002900000  -999.250000 0.2773000002 2.6419000626 3.4500999451 98.538902283  -999.250000 72.401702881 126.89579773 27.377000809 25.950300217 30.787300110
 3473.5009766 5.0000000000 8.7414999008 8.5000000000 85.397972107 -0.000900000  -999.250000 0.3030000031 2.6503999233 3.4858000278 98.747200012  -999.250000 71.754096985 126.96869659 25.953500748 23.640399933 27.474500656
 3473.6533203 6.0000000000 8.7460002899 8.5000000000 86.382545471 0.0012000001  -999.250000 0.3014999926 2.6536002159 3.4904000759 100.54910278  -999.250000 72.387001038 127.09850311 22.746200562 21.248100281 26.003200531
 3473.8056641 6.0000000000 8.7527999878 8.5000000000 89.244094849 0.0020999999  -999.250000 0.2953999937 2.6475000381 3.4588000774 103.32740021  -999.250000 71.445800781 127.60409546 22.516099930 20.047599792 25.870100021
 3473.9580078 6.0000000000 8.7583999634 8.5000000000 87.407157898 0.0024000001  -999.250000 0.2937000096 2.6373999119 3.3979001045 103.20500183  -999.250000 71.711303711 127.57340240 22.459800720 21.004999161 23.763000488
 3474.1105957 6.0000000000 8.7133998871 8.5000000000 91.040031433 0.0005000000  -999.250000 0.2910999954 2.6245999336 3.3427000046 104.28520203  -999.250000 71.675102234 127.56590271 19.497699738 18.893800735 18.054500580
 3474.2629395 6.0000000000 8.6626996994 8.5000000000 89.199150085 0.0001000000  -999.250000 0.2885000110 2.6236999035 3.2987000942 109.02369690  -999.250000 71.688697815 127.67849731 21.543800354 16.827100754 20.419500351
 3474.4152832 6.0000000000 8.6401996613 8.5000000000 89.088256836 -0.001100000  -999.250000 0.2937000096 2.6149001122 3.3247001171 111.37950134  -999.250000 71.694801331 127.64289856 19.918399811 15.353699684 19.165199280
 3474.5676270 6.0000000000 8.6401996613 8.5000000000 88.840873718 -0.000800000  -999.250000 0.2982000113 2.6041998863 3.3729999065 113.97799683  -999.250000 71.716598511 127.70369720 17.514499664 15.210399628 19.187099457
 3474.7202148 6.0000000000 8.6288995743 8.5000000000 87.450790405 -0.001000000  -999.250000 0.2985000014 2.5889000893 3.4223001003 116.53829956  -999.250000 72.281303406 127.78730011 15.979299545 15.209099770 18.732000351
 3474.8725586 6.0000000000 8.5388002396 8.5000000000 90.817260742 0.0046999999  -999.250000 0.3107999861 2.6003999710 3.4391000271 112.40550232  -999.250000 72.303100586 127.54100037 16.520099640 12.534700394 17.444999695
 3475.0249023 6.0000000000 8.5613002777 8.5000000000 94.213256836 0.0094999997  -999.250000 0.3156000078 2.6219000816 3.4762001038 105.00749969  -999.250000 72.273803711 127.49130249 16.497299194 11.808600426 17.036600113
 3475.1772461 6.0000000000 8.5951004028 8.5000000000 91.799537659 0.0071000000  -999.250000 0.3039999902 2.6219000816 3.6117999554 102.53130341  -999.250000 72.280998230 127.45480347 18.609399796 11.833600044 19.149400711
 3475.3295898 5.0000000000 8.5838003159 8.5000000000 91.773292542 0.0022000000  -999.250000 0.2939000130 2.6154999733 3.7295999527 104.22119904  -999.250000 71.641403198 127.18789673 21.700399399 11.410400391 21.929399490
 3475.4821777 5.0000000000 8.5838003159 8.5000000000 89.705711365 -0.000200000  -999.250000 0.2874000072 2.6096999645 3.7764999866 103.04519653  -999.250000 71.225799561 126.91100311 23.499799728 11.313400269 26.877199173
 3475.6345215 5.0000000000 8.5726003647 8.5000000000 83.241470337 0.0020999999  -999.250000 0.2879000008 2.6126999855 3.7444000244 98.676498413  -999.250000 70.920196533 126.55999756 21.566900253 11.986000061 26.202199936
 3475.7868652 5.0000000000 8.5951004028 8.5000000000 78.971130371 0.0017000000  -999.250000 0.2775000036 2.5992000103 3.8928999901 98.469200134  -999.250000 70.619201660 125.76580048 22.090999603 13.522800446 23.969100952
 3475.9392090 5.0000000000 8.5838003159 8.5000000000 75.871391296 -0.000800000  -999.250000 0.2799000144 2.5836000443 4.0685000420 103.64990234  -999.250000 70.410202026 125.71009827 21.362800598 14.040699959 23.278200150
