# LAS format log file from PETREL
# Project units are specified as depth units
#==================================================================
~Version information
VERS.   2.0:
WRAP.   NO:
#==================================================================
~Well
STRT .m      2726.1311035 :
STOP .m      3477.3107910 :
STEP .m     0.00000000 :
NULL .        -999.250000 :
COMP.           : COMPANY
WELL.  35/9-5   : WELL
FLD.            : FIELD
LOC.            : LOCATION
SRVC.           : SERVICE COMPANY
DATE.  2018-09-11 14:49:02   : Log Export Date {yyyy-MM-dd HH:mm:ss}
PROV.           : PROVINCE
UWI.   35/9-5   : UNIQUE WELL ID
API.            : API NUMBER
#==================================================================
~Curve
DEPT .m                   : DEPTH
Lithology_geolink ._      : Lithology_geolink
CALI .in                  : CALI
BS .in                    : BS
ROP .m/h                  : ROP
DRHO .g/cm3               : DRHO
THOR .ppm                 : THOR
NPHI .m3/m3               : NPHI
RHOB .g/cm3               : RHOB
PEF .b/e                  : PEF
GR .gAPI                  : GR
URAN .ppm                 : URAN
DTC .us/ft                : DTC
DTS .us/ft                : DTS
RDEP .ohm.m               : RDEP
RMIC .ohm.m               : RMIC
RMED .ohm.m               : RMED
~Parameter
#==================================================================
~Ascii
# ...
 2827.6296387 13.000000000 8.4111003876 8.5000000000 106.78641510 -0.003500000 9.3898000717 0.2372000068 2.5573999882 3.6679000854 75.728996277 1.4584000111 85.418998718 173.06539917 3.3417999744 2.0964000225 4.1013998985
 2827.7819824 13.000000000 8.3961000443 8.5000000000 107.37401581 -0.003800000 9.5822000504 0.2372999936 2.5585999489 3.6677000523 77.581901550 1.6799000502 85.721199036 173.34599304 3.3847000599 2.0957000256 3.7927999496
 2827.9343262 13.000000000 8.4186000824 8.5000000000 111.06594849 -0.003800000 9.1505002975 0.2508000135 2.5643999577 3.6767001152 75.506896973 1.6398999691 86.310401917 173.45120239 3.3866999149 2.3564000130 5.0233001709
 2828.0869141 13.000000000 8.4111003876 8.5000000000 110.54462433 -0.001500000 8.7196998596 0.2453999966 2.5743000507 3.6619999409 70.292900085 1.7843999863 85.652397156 173.41070557 6.0412001610 2.6659998894 4.3509001732
 2828.2392578 13.000000000 8.3961000443 8.5000000000 112.13681030 0.0013000000 9.4940004349 0.2518000007 2.5803000927 3.5792999268 67.896499634 1.4277000427 86.272201538 173.09159851 3.2897000313 2.7046999931 3.6586000919
 2828.3916016 13.000000000 8.4111003876 8.5000000000 113.38058472 0.0030000000 9.4146003723 0.2560999990 2.5845000744 3.4481999874 76.794097900 1.5162999630 85.657798767 173.03689575 3.5515999794 2.3478999138 3.2353000641
 2828.5439453 13.000000000 8.4111003876 8.5000000000 110.42618561 0.0006000000 10.047699928 0.2470999956 2.5759000778 3.3394000530 85.724601746 1.5626000166 85.628402710 173.01489258 3.0933001041 2.1303000450 3.3706998825
 2828.6962891 13.000000000 8.4111003876 8.5000000000 111.93963623 -0.001300000 9.9385995865 0.2417999953 2.5668001175 3.2711999416 85.950302124 1.4974000454 86.222900391 172.98599243 2.8153998852 1.9903999567 3.2421000004
 2828.8488770 13.000000000 8.4111003876 8.5000000000 113.19880676 -0.001700000 9.7349996567 0.1995999962 2.5585999489 3.2218000889 82.617797852 1.3653000593 86.275604248 172.92520142 2.7723999023 1.9098000526 3.1184999943
 2829.0012207 13.000000000 8.4186000824 8.5000000000 111.47571564 0.0012000001 9.4103002548 0.1614000052 2.5646998882 3.2237999439 79.292098999 1.2845000029 85.444801331 172.12550354 2.7667000294 1.9900000095 3.9463999271
 2829.1535645 13.000000000 8.4186000824 8.5000000000 127.83203125 0.0038000001 9.5889997482 0.1321000010 2.5778999329 3.2655999660 76.340797424 1.1391999722 86.273002625 172.01210022 4.6008000374 2.1545000076 3.9600999355
 2829.3059082 13.000000000 8.3886003494 8.5000000000 118.65648651 0.0035000001 10.557800293 0.1404999942 2.5847001076 3.3777999878 75.524200439 0.9085999727 86.323097229 173.01280212 3.4818999767 2.3208999634 3.7974998951
 2829.4584961 13.000000000 8.4035997391 8.5000000000 109.66338348 0.0038000001 11.216099739 0.1576000005 2.5938000679 3.4728999138 76.986900330 0.6363000274 85.376304626 173.59260559 3.6078999043 2.3185999393 3.8419001102
 2829.6108398 13.000000000 8.3961000443 8.5000000000 109.58792877 0.0044999998 11.533599854 0.1599999964 2.6043000221 3.5624001026 77.890403748 0.5156000257 85.325897217 173.26980591 3.5441000462 2.3375000954 3.6772000790
 2829.7631836 13.000000000 8.4111003876 8.5000000000 114.37894440 0.0052000000 10.724499702 0.1515000015 2.6164000034 3.6164999008 79.019897461 0.4770000279 85.690795898 172.82679749 3.4460999966 2.3362998962 3.7960999012
 2829.9155273 13.000000000 8.4035997391 8.5000000000 90.945533752 0.0020999999 10.353199959 0.1458999962 2.6092000008 3.6387000084 80.192703247 0.5460000038 86.452201843 173.33929443 3.5957999229 2.6375000477 4.5604000092
 2830.0681152 13.000000000 8.3923997879 8.5000000000 83.955055237 -0.002600000 10.472800255 0.1393000036 2.5826001167 3.6068999767 79.490501404 0.7013999820 86.851799011 174.35389709 3.2634000778 2.4590001106 3.4677000046
 2830.2204590 13.000000000 8.4111003876 8.5000000000 82.282485962 -0.003400000 10.193900108 0.1397999972 2.5622999668 3.5183999538 78.393997192 0.7670999765 87.203903198 175.28770447 3.2695999146 2.1600999832 3.4533998966
 2830.3728027 13.000000000 8.4035997391 8.5000000000 74.385826111 -0.003400000 10.077599525 0.1427000016 2.5471000671 3.4189000130 79.799201965 1.0240000486 87.258003235 174.51109314 3.1001999378 1.8634999990 3.2797999382
 2830.5251465 13.000000000 8.3961000443 8.5000000000 73.046913147 -0.003500000 10.154500008 0.1508000046 2.5423998833 3.3617000580 82.844100952 1.1130000353 86.319801331 171.97810364 3.1607000828 1.8023999929 3.1763999462
 2830.6774902 13.000000000 8.4035997391 8.5000000000 75.667327881 -0.004800000 9.9597997665 0.1586000025 2.5411999226 3.3485999107 82.438400269 0.9308999777 84.972801208 171.86579895 3.5425000191 1.7913000584 3.6147000790
 2830.8300781 13.000000000 8.3961000443 8.5000000000 69.679130554 -0.005100000 9.4090003967 0.1537999958 2.5446999073 3.3526000977 78.816596985 0.8120999932 84.567901611 172.02621460 3.6073999405 1.8173999786 4.7445001602
 2830.9824219 13.000000000 8.3961000443 8.5000000000 70.082344055 -0.004100000 9.9657001495 0.1474999934 2.5517001152 3.3478000164 70.897201538 0.6654999852 84.387199402 172.13029480 3.9547998905 1.8375999928 3.5520000458
 2831.1347656 13.000000000 8.3961000443 8.5000000000 56.834648132 -0.003800000 10.199500084 0.1442999989 2.5532000065 3.3427000046 62.571098328 0.8291000128 84.429603577 171.70300293 5.4942998886 1.8466000557 7.3053002357
 2831.2871094 13.000000000 8.4035997391 8.5000000000 50.041667938 -0.002500000 10.082799911 0.1456999928 2.5571000576 3.3392999172 64.536399841 1.0207999945 84.414192200 170.23689270 3.4823000431 1.8444999456 4.1833000183
 2831.4396973 13.000000000 8.3886003494 8.5000000000 52.958660126 -0.003500000 10.067799568 0.1445000023 2.5534999371 3.3341000080 72.122596741 0.8799999952 84.890602112 168.67439270 3.4307000637 1.8401000500 3.6301999092
 2831.5920410 13.000000000 8.3810997009 8.5000000000 58.460956573 -0.004900000 9.9833002090 0.1465000063 2.5466001034 3.3355998993 78.801498413 0.7547000051 84.809196472 169.13189697 3.2804000378 1.8344000578 3.7181999683
 2831.7443848 13.000000000 8.3961000443 8.5000000000 60.959980011 -0.006300000 10.380599976 0.1479000002 2.5395998955 3.3478999138 81.704299927 0.6341999769 85.096298218 169.69740295 3.3255000114 1.8279999495 3.6542999744
 2831.8967285 13.000000000 8.3810997009 8.5000000000 56.386814117 -0.004000000 10.548000336 0.1527999938 2.5441999435 3.3631999493 79.520599365 0.8474000096 86.296600342 170.90159607 3.6296000481 1.8140000105 3.4395999908
 2832.0493164 13.000000000 8.3810997009 8.5000000000 46.492782593 -0.001900000 10.322199821 0.1553999931 2.5481998920 3.4093000889 77.293701172 0.8418999910 85.096099854 170.08000183 3.6633000374 1.8237999678 3.9913001060
 2832.2016602 13.000000000 8.3923997879 8.5000000000 44.944881439 0.0022000000 9.6310997009 0.1583999991 2.5629999638 3.4456999302 72.807800293 1.0200999975 84.525398254 168.82220459 4.0943999290 1.9952000380 5.1751999855
 2832.3540039 13.000000000 8.3923997879 8.5000000000 45.158466339 0.0035000001 8.5899000168 0.1553999931 2.5722999573 3.4888000488 68.690902710 1.0470999479 84.462097168 168.65080261 3.9979999065 2.2416999340 3.6282000542
 2832.5063477 13.000000000 8.3961000443 8.5000000000 45.025260925 0.0049000001 8.1978998184 0.1523000002 2.5838999748 3.5592000484 71.288696289 1.0238000154 84.498802185 168.88310242 3.7393999100 2.7170000076 4.2495999336
 2832.6586914 13.000000000 8.3886003494 8.5000000000 55.475391388 0.0054000001 7.4534997940 0.1501999944 2.5894999504 3.7283999920 73.429000854 1.2473000288 85.188201904 171.67012024 3.5919001102 3.4163000584 3.9105999470
 2832.8112793 13.000000000 8.3810997009 8.5000000000 55.910758972 0.0060000001 8.0336999893 0.1506000012 2.5966999531 3.9272000790 73.773498535 1.4007999897 86.463302612 172.60420227 3.3784000874 4.4376001358 3.7288000584
 2832.9636230 13.000000000 8.3923997879 8.5000000000 53.246391296 0.0062000002 8.3964996338 0.1539999992 2.6047999859 4.0655999184 79.595901489 1.3681000471 86.891403198 174.49020386 3.2797999382 5.0289998055 3.4576001167
 2833.1159668 13.000000000 8.3810997009 8.5000000000 48.126312256 0.0046999999 8.7058000565 0.1526000053 2.6085999012 4.1005001068 83.148101807 1.3364000320 86.537399292 174.16859436 3.6682000160 4.9307999611 3.9298000336
