# LAS format log file from PETREL
# Project units are specified as depth units
#==================================================================
~Version information
VERS.   2.0:
WRAP.   NO:
#==================================================================
~Well
STRT .m      2535.9846191 :
STOP .m      3240.0725098 :
STEP .m     0.00000000 :
NULL .        -999.250000 :
COMP.           : COMPANY
WELL.  35/9-8   : WELL
FLD.            : FIELD
LOC.            : LOCATION
SRVC.           : SERVICE COMPANY
DATE.  2018-09-11 14:49:02   : Log Export Date {yyyy-MM-dd HH:mm:ss}
PROV.           : PROVINCE
UWI.   35/9-8   : UNIQUE WELL ID
API.            : API NUMBER
#==================================================================
~Curve
DEPT .m                   : DEPTH
Lithology_geolink ._      : Lithology_geolink
CALI .in                  : CALI
BS .in                    : BS
ROP .m/h                  : ROP
DRHO .g/cm3               : DRHO
THOR .ppm                 : THOR
NPHI .m3/m3               : NPHI
RHOB .g/cm3               : RHOB
PEF .b/e                  : PEF
GR .gAPI                  : GR
URAN .ppm                 : URAN
DTC .us/ft                : DTC
DTS .us/ft                : DTS
RDEP .ohm.m               : RDEP
RMIC .ohm.m               : RMIC
RMED .ohm.m               : RMED
~Parameter
#==================================================================
~Ascii
# ...
 2581.0949707  -999.250000 8.7849998474 8.5000000000 22.166009903 -0.002600000 7.9376997948 0.2110999972 2.5371000767 3.8620998859 65.951301575 1.0852999687 85.667793274 178.86831665 3.3097000122 3.3933999538 3.3017001152
 2581.2473145  -999.250000 8.7772998810 8.5000000000 22.794620514 -0.004500000 7.8364000320 0.2020999938 2.5397000313 3.9353001118 63.484699249 0.9731000066 85.192901611 176.14909363 3.3510999680 3.4767999649 3.3478000164
 2581.3999023  -999.250000 8.7812995911 8.5000000000 28.392061234 -0.004200000 7.6774005890 0.1961999983 2.5422000885 3.9059998989 60.753200531 0.8522999883 84.800003052 173.88270569 3.3745999336 3.5834000111 3.3717999458
 2581.5522461  -999.250000 8.7817001343 8.5000000000 33.361221313 -0.004300000 7.2456002235 0.1922000051 2.5404999256 3.8350000381 59.415699005 0.8838999867 84.572891235 172.30169678 3.4700999260 3.8182001114 3.4609999657
 2581.7045898  -999.250000 8.7672996521 8.5000000000 39.287403107 -0.004300000 6.6013998985 0.1912000030 2.5406000614 3.8018999100 59.004299164 1.0627000332 84.693298340 171.89239502 3.5927000046 3.9825000763 3.5687999725
 2581.8569336  -999.250000 8.7555999756 8.5000000000 39.765747070 -0.004600000 5.8372998238 0.1924999952 2.5434000492 3.8908998966 58.587001801 1.3270000219 84.964698792 171.92990112 3.6415998936 3.9467000961 3.6205999851
 2582.0095215  -999.250000 8.7625999451 8.5000000000 41.201114655 -0.006600000 5.1265001297 0.1915999949 2.5425000191 4.0082001686 58.049499512 1.6058000326 85.312797546 172.40950012 3.6345999241 3.7339999676 3.6149001122
 2582.1618652  -999.250000 8.7761001587 8.5000000000 49.420932770 -0.008700000 4.4070000648 0.1881999969 2.5402998924 3.9855999947 58.447299957 1.9550000429 85.605903625 173.06311035 3.5857999325 3.5011000633 3.5652999878
 2582.3142090  -999.250000 8.7819995880 8.5000000000 65.860893250 -0.009200000 3.8488001823 0.1865999997 2.5399000645 3.8912999630 60.214801788 2.3468000889 85.746597290 173.74119568 3.4616999626 3.2936000824 3.4386999607
 2582.4665527  -999.250000 8.7895002365 8.5000000000 60.955387115 -0.008200000 3.9339001179 0.1860000044 2.5392000675 3.8499999046 61.678100586 2.4928998947 85.745903015 174.26319885 3.3687999249 3.3087000847 3.3403999805
 2582.6191406  -999.250000 8.7930002213 8.5000000000 51.144031525 -0.006300000 4.4711999893 0.1881999969 2.5404000282 3.7948000431 62.241401672 2.3663001060 85.571502686 174.59190369 3.3868000507 3.4453001022 3.3633000851
 2582.7714844  -999.250000 8.7819995880 8.5000000000 48.328083038 -0.004000000 5.1884999275 0.1969999969 2.5471999645 3.6956000328 62.954498291 2.1103999615 85.299003601 175.04980469 3.4054000378 3.5864000320 3.3831000328
 2582.9238281  -999.250000 8.7714996338 8.5000000000 42.696521759 -0.003400000 5.8952999115 0.2060000002 2.5541999340 3.6484999657 63.551101685 1.8413000107 85.035896301 176.06950378 3.3731000423 3.7086999416 3.3545999527
 2583.0761719  -999.250000 8.7769002914 8.5000000000 42.656497955 -0.006300000 6.3330001831 0.2031999975 2.5541000366 3.6554000378 63.658298492 1.6667000055 84.898498535 177.78192139 3.3329000473 3.8208999634 3.3234000206
 2583.2285156  -999.250000 8.7822999954 8.5000000000 42.636482239 -0.011200000 6.4503998756 0.1976999938 2.5485999584 3.6480998993 63.989498138 1.6050000191 84.942596436 179.88879395 3.3896999359 3.8643999100 3.3886001110
 2583.3811035  -999.250000 8.7777996063 8.5000000000 45.343173981 -0.015799999 6.3942999840 0.2048999965 2.5420999527 3.6356000900 63.765701294 1.6085000038 85.167198181 181.88110352 3.3770000935 3.8406000137 3.3861999512
 2583.5334473  -999.250000 8.7749996185 8.5000000000 46.696521759 -0.019200001 6.2957000732 0.2181999981 2.5355999470 3.6308999062 63.378101349 1.6506999731 85.488098145 183.47770691 3.2581000328 3.7068998814 3.2655999660
 2583.6857910  -999.250000 8.7729997635 8.5000000000 41.725723267 -0.020700000 5.9805998802 0.2184000015 2.5306999683 3.5892999172 64.788299561 1.8207000494 85.884002686 184.59809875 3.1951000690 3.5278000832 3.2037999630
 2583.8381348  -999.250000 8.7636003494 8.5000000000 39.240158081 -0.019900000 5.6329998970 0.2105000019 2.5304000378 3.5193998814 67.770599365 2.0931000710 86.340805054 185.53810120 3.1182000637 3.3015000820 3.1308999062
 2583.9907227  -999.250000 8.7600002289 8.5000000000 39.222110748 -0.017800000 5.8031001091 0.2081999928 2.5309998989 3.4723000526 70.731002808 2.1912000179 86.904098511 186.38240051 3.0122001171 3.0761001110 3.0248999596
 2584.1430664  -999.250000 8.7686996460 8.5000000000 39.213253021 -0.015500000 6.2796998024 0.2137999982 2.5274999142 3.4628000259 72.958999634 2.0734999180 87.519004822 187.13519287 2.9263999462 2.9728000164 2.9403998852
 2584.2954102  -999.250000 8.7733001709 8.5000000000 36.218833923 -0.011500000 6.5659999847 0.2187000066 2.5244998932 3.4716000557 74.168502808 1.9792001247 88.093200684 187.51029968 2.8856000900 2.9546000957 2.8921000957
 2584.4477539  -999.250000 8.7709999084 8.5000000000 34.721786499 -0.005600000 6.7395000458 0.2192000002 2.5264999866 3.4786000252 73.813400269 1.9500999451 88.556701660 187.44790649 2.8852000237 3.0913000107 2.8945999146
 2584.6003418  -999.250000 8.7786998749 8.5000000000 33.664367676 -0.000800000 6.9812998772 0.2192000002 2.5283999443 3.4712998867 72.227600098 1.9305000305 88.683799744 186.08180237 2.9342999458 3.1156001091 2.9433000088
 2584.7526855  -999.250000 8.7932996750 8.5000000000 33.135826111 -0.000200000 7.1638998985 0.2205000073 2.5250999928 3.4772999287 70.663597107 1.9436999559 88.592597961 184.04179382 2.9521999359 3.1091001034 2.9590001106
 2584.9050293  -999.250000 8.7997999191 8.5000000000 33.001312256 -0.002700000 7.2083001137 0.2190999985 2.5192000866 3.5422000885 70.212600708 1.9740000963 88.163803101 181.72540283 2.9360001087 3.0548000336 2.9428000450
 2585.0573730  -999.250000 8.8011999130 8.5000000000 32.934055328 -0.006600000 7.1977000237 0.2152999938 2.5130999088 3.6505000591 69.714897156 1.9577001333 87.610000610 180.02630615 2.8891000748 2.9433999062 2.8984999657
 2585.2097168  -999.250000 8.8018999100 8.5000000000 31.533792496 -0.009800000 7.0209999084 0.2104000002 2.5083999634 3.7026000023 67.488800049 1.8715000153 86.992202759 179.73840332 2.9230000973 3.0408000946 2.9402000904
 2585.3623047  -999.250000 8.7917995453 8.5000000000 30.833662033 -0.009900000 6.6255998611 0.1993999928 2.5107998848 3.6343998909 64.654403687 1.7863999605 86.409591675 180.07600403 2.9827001095 3.1528999805 2.9997000694
 2585.5146484  -999.250000 8.7698001862 8.5000000000 29.338253021 -0.006800000 6.1542000771 0.1863999963 2.5218000412 3.5532999039 63.001300812 1.7518999577 85.901199341 180.30079651 3.0613000393 3.2265000343 3.0799000263
 2585.6669922  -999.250000 8.7568998337 8.5000000000 28.590883255 -0.003200000 5.6868000031 0.1811999977 2.5325000286 3.5929999352 61.701000214 1.6807999611 85.435699463 179.81930542 3.1677000523 3.4995999336 3.1903998852
 2585.8193359  -999.250000 8.7658996582 8.5000000000 29.922897339 -0.001500000 5.3052000999 0.1835000068 2.5355999470 3.6902999878 60.061000824 1.4902000427 84.986099243 178.36862183 3.1447999477 3.3090000153 3.1751000881
 2585.9719238  -999.250000 8.7825002670 8.5000000000 30.588582993 -0.002300000 5.1490001678 0.1852000058 2.5316998959 3.6942999363 58.575099945 1.2062000036 84.533599854 176.39830017 3.1415998936 3.1665999889 3.1828999519
 2586.1242676  -999.250000 8.7912998199 8.5000000000 31.062337875 -0.003900000 5.2315001488 0.1817999929 2.5267000198 3.6256999969 57.171501160 0.8847000003 84.088500977 174.41889954 3.1628000736 3.3368999958 3.2023000717
 2586.2766113  -999.250000 8.7917003632 8.5000000000 30.881235123 -0.004200000 5.3909001350 0.1777999997 2.5271999836 3.5927999020 55.642299652 0.5767999887 83.677696228 172.82310486 3.2444000244 3.3898000717 3.2899000645
 2586.4289551  -999.250000 8.7861003876 8.5000000000 30.463256836 -0.002200000 5.4180002213 0.1764999926 2.5344998837 3.6073000431 54.368598938 0.3671000004 83.302391052 171.55380249 3.4110999107 3.5913999081 3.4663999081
 2586.5815430  -999.250000 8.7763004303 8.5000000000 29.722440720 0.0007000000 5.2411999702 0.1774999946 2.5455000401 3.6198999882 53.202400208 0.3186999857 82.936599731 170.19731140 3.5311000347 3.8283998966 3.5903999805
