# LAS format log file from PETREL
# Project units are specified as depth units
#==================================================================
~Version information
VERS.   2.0:
WRAP.   NO:
#==================================================================
~Well
STRT .m      2726.1311035 :
STOP .m      3477.3107910 :
STEP .m     0.00000000 :
NULL .        -999.250000 :
COMP.           : COMPANY
WELL.  35/9-5   : WELL
FLD.            : FIELD
LOC.            : LOCATION
SRVC.           : SERVICE COMPANY
DATE.  2018-09-11 14:49:02   : Log Export Date {yyyy-MM-dd HH:mm:ss}
PROV.           : PROVINCE
UWI.   35/9-5   : UNIQUE WELL ID
API.            : API NUMBER
#==================================================================
~Curve
DEPT .m                   : DEPTH
Lithology_geolink ._      : Lithology_geolink
CALI .in                  : CALI
BS .in                    : BS
ROP .m/h                  : ROP
DRHO .g/cm3               : DRHO
THOR .ppm                 : THOR
NPHI .m3/m3               : NPHI
RHOB .g/cm3               : RHOB
PEF .b/e                  : PEF
GR .gAPI                  : GR
URAN .ppm                 : URAN
DTC .us/ft                : DTC
DTS .us/ft                : DTS
RDEP .ohm.m               : RDEP
RMIC .ohm.m               : RMIC
RMED .ohm.m               : RMED
~Parameter
#==================================================================
~Ascii
# ...
 2872.7397461 13.000000000 8.3810997009 8.5000000000 56.443344116 0.0029934295 8.0831518173 0.2278990299 2.5831816196 3.5082809925 70.033073425 1.2960987091 81.348968506 159.75772095 4.2343225479 2.4743435383 5.3232550621
 2872.8920898 13.000000000 8.3810997009 8.5000000000 57.302024841 0.0059904000 8.1854696274 0.2395625561 2.5934669971 3.4760034084 69.382980347 1.3678705692 81.496330261 160.17207336 3.5941591263 2.3325541019 4.6686091423
 2873.0446777 13.000000000 8.3810997009 8.5000000000 78.142402649 0.0088953525 8.0567073822 0.2178349495 2.6045820713 3.4732043743 72.140769958 1.5840533972 81.374694824 161.40272522 3.5551593304 2.4468159676 4.1970534325
 2873.1970215 13.000000000 8.3736000061 8.5000000000 78.636398315 0.0062043271 8.3996486664 0.2209948748 2.5973117352 3.5110392570 72.404579163 1.4598000050 81.693382263 162.19723511 3.4174211025 2.4885332584 4.0958609581
 2873.3493652 13.000000000 8.3886003494 8.5000000000 75.191558838 0.0023062502 7.9621033669 0.2197020799 2.5868170261 3.5754964352 65.947265625 1.5791082382 81.398872375 161.39729309 3.8396220207 2.4342873096 4.2069215775
 2873.5017090 13.000000000 8.3961000443 8.5000000000 86.521347046 -0.000989440 8.0754337311 0.2409318388 2.5829124451 3.6579356194 62.270370483 1.6026251316 81.481842041 161.31436157 4.1041531563 2.2810916901 4.6757955551
 2873.6542969 13.000000000 8.3886003494 8.5000000000 99.484497070 -0.002996795 8.8316869736 0.2378051281 2.5859949589 3.7253923416 64.807113647 1.3478090763 82.537605286 162.86190796 4.9661178589 2.2213950157 5.6878776550
 2873.8066406 13.000000000 8.3961000443 8.5000000000 85.111022949 -0.004597436 8.7974576950 0.2408950329 2.5876972675 3.7855036259 66.561889648 1.5826224089 83.186759949 165.00466919 4.4334573746 2.2049262524 4.8341727257
 2873.9589844 13.000000000 8.3923997879 8.5000000000 89.241035461 -0.007095993 7.9341859818 0.2360078543 2.5798125267 3.8405117989 70.706054688 1.9614925385 83.228736877 165.99571228 3.3204851151 2.1977114677 3.6751582623
 2874.1113281 13.000000000 8.3810997009 8.5000000000 88.628288269 -0.004604007 8.2979135513 0.2374975979 2.5732104778 3.8765423298 74.070312500 2.0955855846 82.891639709 165.70027161 3.2021868229 2.1860189438 3.7771332264
 2874.2639160 13.000000000 8.3961000443 8.5000000000 90.376136780 -0.004300480 8.0551900864 0.2237220854 2.5694062710 3.9006614685 70.881523132 1.8282288313 83.043952942 164.33129883 3.8137195110 2.1654329300 3.6423163414
 2874.4162598 13.000000000 8.3810997009 8.5000000000 96.672309875 -0.001903846 7.9506673813 0.2274939120 2.5770876408 3.8877208233 69.128608704 1.8115260601 83.135452271 164.00181580 3.8694121838 2.2944927216 4.4773592949
 2874.5686035 13.000000000 8.3961000443 8.5000000000 104.40328979 -0.001700321 7.4350271225 0.2232068777 2.5925753117 3.8497607708 69.960258484 1.6247997284 82.930725098 163.30491638 3.4208202362 2.8088746071 3.9299807549
 2874.7209473 13.000000000 8.3886003494 8.5000000000 81.011322021 0.0014948718 6.5001993179 0.2231999934 2.6095728874 3.8451073170 69.705009460 1.3030160666 80.680206299 160.95947266 3.4529473782 3.9779248238 3.6426596642
 2874.8732910 13.000000000 8.4035997391 8.5000000000 80.563980103 0.0022974401 5.1795349121 0.2155246437 2.6163783073 3.9333167076 71.216049194 1.3336000443 76.577461243 153.05696106 4.0519766808 5.5643129349 4.3033776283
 2875.0258789 13.000000000 8.3886003494 8.5000000000 77.483291626 0.0011019231 4.8207688332 0.1761631370 2.6117076874 4.0939426422 72.687843323 1.2433450222 74.490325928 147.59342957 3.0542044640 6.1507668495 3.3462398052
 2875.1782227 13.000000000 8.3886003494 8.5000000000 70.886566162 0.0003012821 5.1040444374 0.1475458294 2.6111009121 4.1828579903 68.575210571 1.1841946840 73.198265076 145.07772827 3.8411343098 6.3636593819 7.3133296967
 2875.3305664 13.000000000 8.3961000443 8.5000000000 73.293037415 0.0007991987 5.0616688728 0.1281310767 2.6176896095 4.1708197594 57.000671387 1.2543872595 72.919845581 143.42375183 6.9275479317 6.2774386406 8.1691360474
 2875.4829102 13.000000000 8.4035997391 8.5000000000 75.715660095 0.0012984000 4.6385579109 0.1383670419 2.6206903458 4.1365103722 47.256622314 1.1978818178 73.253234863 144.64776611 6.7729120255 5.7788996696 6.6840715408
 2875.6354980 13.000000000 8.3886003494 8.5000000000 72.911018372 0.0012001604 5.0841822624 0.1444902271 2.6170060635 4.1292114258 46.659706116 1.2129755020 73.514778137 145.26422119 5.8652563095 4.9860696793 6.5672798157
 2875.7878418 13.000000000 8.3886003494 8.5000000000 71.864204407 0.0021983974 5.2157897949 0.1487931162 2.6162011623 4.1336927414 48.814540863 1.2924724817 74.290153503 146.06011963 6.6152935028 4.6202850342 8.1714248657
 2875.9401855 13.000000000 8.3886003494 8.5000000000 64.099403381 0.0033980769 5.1342310905 0.1520947069 2.6207926273 4.0774903297 50.317794800 1.4526431561 74.393539429 146.61111450 6.3574156761 4.5866527557 6.5966320038
 2876.0925293 13.000000000 8.4035997391 8.5000000000 62.876914978 0.0036990400 5.2505259514 0.1550904065 2.6192049980 4.0617499352 52.282897949 1.2540383339 74.513717651 147.07589722 6.0220751762 4.8044009209 6.6674642563
 2876.2451172 13.000000000 8.3961000443 8.5000000000 63.812141418 0.0016033653 5.0916557312 0.1651838124 2.6079180241 4.0718836784 54.881839752 1.1513638496 74.556434631 147.40208435 5.7743959427 4.7975125313 6.6276645660
 2876.3974609 13.000000000 8.4035997391 8.5000000000 64.328247070 0.0007014423 5.5453715324 0.1625043154 2.6020095348 4.0876746178 55.452693939 0.9939524531 74.813888550 148.66108704 5.2059116364 4.7940058708 6.4500851631
 2876.5498047 13.000000000 8.4111003876 8.5000000000 62.560909271 0.0025969550 5.9836974144 0.1633985490 2.6094880104 4.0726242065 54.853065491 0.9744309187 75.454978943 150.06045532 5.7335515022 4.8167634010 5.9249424934
 2876.7021484 13.000000000 8.3961000443 8.5000000000 62.429668427 0.0031990383 6.6586174965 0.1615030468 2.6129941940 4.0433468819 54.240379333 0.8890370131 76.482948303 151.23092651 6.2574601173 4.6828150749 6.1517348289
 2876.8544922 13.000000000 8.3961000443 8.5000000000 70.919921875 0.0030006401 6.6517257690 0.1617990434 2.6115047932 4.0389142036 51.030700684 0.9927665591 76.876838684 151.92697144 5.7319893837 4.5320830345 5.6832056046
 2877.0070801 13.000000000 8.3810997009 8.5000000000 63.550258636 0.0004041667 6.8386001587 0.1611011177 2.6029138565 4.0417952538 49.943527222 1.2153433561 77.212966919 151.42741394 5.4898858070 3.0202260017 5.5029869080
 2877.1594238 13.000000000 8.3923997879 8.5000000000 69.972282410 -0.001896314 7.4343442917 0.1560081691 2.5970094204 4.1413402557 50.432315826 1.0940951109 76.901802063 150.86480713 6.5442070961 2.2302641869 5.2167592049
 2877.3117676 13.000000000 8.3961000443 8.5000000000 64.573638916 -0.002499038 7.8949623108 0.1564991921 2.5979983807 4.3060359955 50.791122437 1.1389278173 76.432044983 150.71812439 6.1855783463 1.9157029390 5.7143006325
 2877.4641113 13.000000000 8.3961000443 8.5000000000 71.626281738 -0.002300640 7.7463788986 0.1545063853 2.6015884876 4.4420642853 52.398841858 1.1303279400 75.293853760 149.04997253 5.9727811813 2.3468143940 8.0263805389
 2877.6166992 13.000000000 8.3923997879 8.5000000000 70.371803284 0.0012942308 8.5018873215 0.1608897448 2.6163764000 4.4212341309 52.209514618 1.1123288870 75.091217041 148.17210388 6.1366357803 3.7519466877 8.4375514984
 2877.7690430 13.000000000 8.3961000443 8.5000000000 73.235885620 0.0014996795 8.7895402908 0.1752769202 2.6166994572 4.2642517090 56.156963348 1.3131775856 75.058654785 148.08624268 2.9453229904 7.1031246185 3.7531201839
 2877.9213867 13.000000000 8.3886003494 8.5000000000 73.080642700 0.0032971154 8.5379047394 0.1949684173 2.6248869896 4.0702109337 64.917648315 1.5030956268 75.155044556 147.88832092 2.6405808926 9.2269001007 3.1068253517
 2878.0737305 13.000000000 8.3886003494 8.5000000000 78.420852661 0.0016054399 7.4702262878 0.2039711922 2.6181216240 3.9372258186 67.472343445 1.4847598076 73.475395203 146.57353210 11.478626251 9.0392131805 9.5602798462
 2878.2263184 13.000000000 8.3961000443 8.5000000000 76.648544312 0.0001024038 6.7572393417 0.1975104213 2.6119101048 3.9241201878 61.173122406 1.1091028452 72.836715698 141.22009277 8.9443130493 8.6708898544 9.7132873535
