# LAS format log file from PETREL
# Project units are specified as depth units
#==================================================================
~Version information
VERS.   2.0:
WRAP.   NO:
#==================================================================
~Well
STRT .m      1725.0000000 :
STOP .m      3754.9504395 :
STEP .m     0.00000000 :
NULL .        -999.250000 :
COMP.           : COMPANY
WELL.  35/9-6 S   : WELL
FLD.            : FIELD
LOC.            : LOCATION
SRVC.           : SERVICE COMPANY
DATE.  2018-09-11 14:49:02   : Log Export Date {yyyy-MM-dd HH:mm:ss}
PROV.           : PROVINCE
UWI.   35/9-6 S   : UNIQUE WELL ID
API.            : API NUMBER
#==================================================================
~Curve
DEPT .m                   : DEPTH
Lithology_geolink ._      : Lithology_geolink
CALI .in                  : CALI
DRHO .g/cm3               : DRHO
NPHI .m3/m3               : NPHI
RHOB .g/cm3               : RHOB
PEF .b/e                  : PEF
GR .gAPI                  : GR
DTC .us/ft                : DTC
RDEP .ohm.m               : RDEP
RMIC .ohm.m               : RMIC
RMED .ohm.m               : RMED
~Parameter
#==================================================================
~Ascii
# ...
 2398.1999512 13.000000000 12.215499878 0.0378876217 0.2908999920 2.4911999702  -999.250000 92.279502869 102.08140564 1.6787999868 1.1608999968 1.6395000219
 2398.3500977 13.000000000 12.335300446 0.0094999997 0.3049669862 2.4723656178  -999.250000 91.897300720 102.41069794 1.6473647356 1.1402480602 1.6186828613
 2398.5000000 13.000000000 12.168001175 0.0261000004 0.2847000062 2.4512999058  -999.250000 89.612899780 104.05349731 1.5642999411 1.1082999706 1.5467000008
 2398.6501465 13.000000000 12.138500214 0.0263000000 0.2799561024 2.4451873302  -999.250000 87.150497437 104.67019653 1.5224790573 1.1030874252 1.4878699780
 2398.8000488 13.000000000 12.205800056 0.0271000005 0.3143999875 2.4374001026  -999.250000 98.396896362 105.42949677 1.4481999874 1.0340000391 1.4079999924
 2398.9499512 13.000000000 12.161499023 0.0322915427 0.3050000072 2.4486999512  -999.250000 108.93473053 106.20059967 1.4507999420 1.0365999937 1.3624000549
 2399.1000977 13.000000000 12.163000107 0.0247000009 0.3226999938 2.4277999401  -999.250000 105.74880219 105.14720154 1.4611999989 1.0345000029 1.3926999569
 2399.2500000 13.000000000 12.236599922 0.0252990238 0.3125999868 2.4093000889  -999.250000 97.735603333 104.68560028 1.4924000502 1.0648000240 1.4077999592
 2399.4001465 13.000000000 12.250699997 0.0390000008 0.2881999910 2.4256999493  -999.250000 95.739898682 104.51110077 1.5094209909 1.0507218838 1.4273420572
 2399.5500488 13.000000000 12.224300385 0.0317000002 0.2955000103 2.4158999920  -999.250000 92.747299194 104.48709869 1.5223000050 1.0642000437 1.4531999826
 2399.7001953 13.000000000 12.271800041 0.0430000015 0.2981017828 2.4337935448  -999.250000 86.760398865 104.48629761 1.5320864916 1.0959022045 1.4736951590
 2399.8500977 13.000000000 12.252200127 0.0403999984 0.2991999984 2.4298999310  -999.250000 85.543899536 104.49379730 1.5238000154 1.0972000360 1.4707000256
 2400.0000000 13.000000000 12.281999588 0.0403001644 0.2942000031 2.4263999462  -999.250000 85.902122498 104.69338226 1.5151000023 1.0736000538 1.4716999531
 2400.1499023 13.000000000 12.309300423 0.0521806180 0.2856999934 2.4395999908  -999.250000 94.990776062 105.26039124 1.5132000446 1.0621999502 1.4714000225
 2400.3000488 13.000000000 12.311900139 0.0417170748 0.2942000031 2.4317998886  -999.250000 101.61209869 106.61299133 1.5001000166 1.0709999800 1.4512000084
 2400.4499512 13.000000000 12.253299713 0.0456934832 0.3106000125 2.4426999092  -999.250000 96.129402161 107.15059662 1.4904999733 1.0584000349 1.4407000542
 2400.6000977 13.000000000 12.252200127 0.0415068269 0.2884117067 2.4339766502  -999.250000 93.694396973 106.75109863 1.4531896114 1.0301407576 1.4137476683
 2400.7500000 13.000000000 12.269200325 0.0348999985 0.2955999970 2.4196999073  -999.250000 96.418800354 106.12139893 1.4467999935 1.0551999807 1.3816000223
 2400.9001465 13.000000000 12.236399651 0.0395000018 0.3264905810 2.4232931137  -999.250000 97.270797729 105.90560150 1.4837124348 1.0439959764 1.4244136810
 2401.0500488 13.000000000 12.330499649 0.0460000001 0.3206999898 2.4191000462  -999.250000 100.58460236 105.07199860 1.4912999868 1.0414999723 1.4328000546
 2401.1999512 13.000000000 12.342200279 0.0488952845 0.2836000025 2.4233999252  -999.250000 97.111854553 104.27140808 1.4982999563 1.0382000208 1.4401999712
 2401.3500977 13.000000000 12.242700577 0.0428999998 0.2899999917 2.4351999760  -999.250000 98.493598938 103.13349915 1.5293999910 1.0634000301 1.4800000191
 2401.5000000 13.000000000 12.276499748 0.0333156139 0.3152000010 2.4323000908  -999.250000 101.95359802 102.09609985 1.5842000246 1.0896999836 1.5271999836
 2401.6501465 13.000000000 12.161001205 0.0311999992 0.2870999873 2.4407999516  -999.250000 84.636703491 100.68329620 1.6098999977 1.1082999706 1.5503000021
 2401.8000488 13.000000000 12.263600349 0.0253095925 0.2675999999 2.4247999191  -999.250000 85.430702209 99.538200378 1.6403000355 1.1384999752 1.5779000521
 2401.9501953 13.000000000 12.339900017 0.0272999983 0.2830620706 2.4210596085  -999.250000 91.369697571 98.120498657 1.7185348272 1.1833341122 1.6480587721
 2402.1000977 13.000000000 12.203499794 0.0513000004 0.2598281205 2.4575650692  -999.250000 93.570899963 97.047897339 1.7399952412 1.2042688131 1.6841968298
 2402.2502441 13.000000000 12.217598915 0.0326999985 0.2771473825 2.4361007214  -999.250000 94.989097595 97.690200806 1.7984769344 1.2464336157 1.7435867786
 2402.3999023 13.000000000 12.195199966 0.0269094463 0.3061999977 2.4365999699  -999.250000 85.160537720 97.357131958 1.7843999863 1.2057000399 1.7354999781
 2402.5500488 13.000000000 12.290399551 0.0311930068 0.2912999988 2.4245998859  -999.250000 90.640953064 97.743301392 1.7950999737 1.1921999454 1.7141000032
 2402.6999512 13.000000000 12.324899673 0.0444783382 0.2865999937 2.4379999638  -999.250000 96.953102112 98.367996216 1.8019000292 1.1963000298 1.7199000120
 2402.8500977 13.000000000 12.217899323 0.0496999994 0.2854999900 2.4635999203  -999.250000 96.871299744 98.946601868 1.8298000097 1.2278000116 1.7515000105
 2403.0000000 13.000000000 12.262599945 0.0337260179 0.2793999910 2.4407999516  -999.250000 90.823303223 99.893798828 1.8190000057 1.2145999670 1.7206000090
 2403.1501465 13.000000000 12.392199516 0.0472000018 0.2853865027 2.4451198578  -999.250000 93.383201599 99.620399475 1.7955021858 1.1679008007 1.7022067308
 2403.3000488 13.000000000 12.270799637 0.0544999987 0.2770999968 2.4572999477  -999.250000 98.462402344 101.73079681 1.7968000174 1.1684000492 1.7063000202
 2403.4499512 13.000000000 12.230300903 0.0406226031 0.2878000140 2.4579000473  -999.250000 100.42081451 102.77459717 1.7637000084 1.1827000380 1.7037999630
 2403.6000977 13.000000000 12.256200790 0.0320000015 0.2996999919 2.4354999065  -999.250000 102.13590240 102.27610016 1.7158999443 1.1856000423 1.6584999561
 2403.7500000 13.000000000 12.277299881 0.0402865037 0.3077999949 2.4356000423  -999.250000 98.557731628 102.76300049 1.7294000387 1.2039999962 1.6424000263
 2403.9001465 13.000000000 12.290599823 0.0491999984 0.3104000092 2.4367001057  -999.250000 88.727897644 103.05840302 1.6239000559 1.1306999922 1.5750000477
 2404.0500488 13.000000000 12.201699257 0.0446074791 0.3134999871 2.4403998852  -999.250000 98.060501099 102.35610199 1.5747845173 1.1019951105 1.5206928253
 2404.2001953 13.000000000 12.276800156 0.0403000005 0.3278703392 2.4280998707  -999.250000 91.743499756 101.94259644 1.5653078556 1.0990142822 1.5163007975
 2404.3500977 13.000000000 12.295399666 0.0428000018 0.3097068369 2.4278743267  -999.250000 93.149597168 100.81369781 1.5700750351 1.1077431440 1.5167621374
 2404.5002441 13.000000000 12.317099571 0.0359000005 0.3138970733 2.4121344090  -999.250000 92.890899658 100.34459686 1.5548094511 1.0728592873 1.4935137033
 2404.6499023 13.000000000 12.279199600 0.0387952812 0.3120999932 2.4331998825  -999.250000 90.113235474 100.18256378 1.5606000423 1.1092000008 1.5018999577
 2404.8000488 13.000000000 12.223400116 0.0416000001 0.2951000035 2.4523999691  -999.250000 92.851898193 100.70819855 1.6108000278 1.1374000311 1.5559999943
 2404.9499512 13.000000000 12.199899673 0.0262250416 0.2759999931 2.4679999352  -999.250000 89.709899902 101.44850159 1.6959999800 1.1611000299 1.6427999735
 2405.1000977 13.000000000 12.290399551 0.0197999999 0.2809000015 2.5041000843  -999.250000 96.267196655 101.57939911 1.7566000223 1.2282999754 1.7247999907
 2405.2500000 13.000000000 12.281200409 0.0371717066 0.2675999999 2.4635000229  -999.250000 98.803497314 102.88179779 1.6923999786 1.2338000536 1.6531000137
 2405.4001465 13.000000000 12.186800003 0.0395000018 0.2745180726 2.4496726990  -999.250000 90.569503784 103.41329956 1.6569627523 1.2035462856 1.6128746271
 2405.5500488 13.000000000 12.178999901 0.0297999997 0.2856000066 2.4328000546  -999.250000 90.405502319 103.11849976 1.6340999603 1.1705000401 1.5973000526
 2405.7001953 13.000000000 12.223999977 0.0259000007 0.3226201534 2.4220275879  -999.250000 98.642097473 102.64389038 1.6340254545 1.1455758810 1.5924164057
