# LAS format log file from PETREL
# Project units are specified as depth units
#==================================================================
~Version information
VERS.   2.0:
WRAP.   NO:
#==================================================================
~Well
STRT .m      1350.9222412 :
STOP .m      2973.9824219 :
STEP .m     0.00000000 :
NULL .        -999.250000 :
COMP.           : COMPANY
WELL.  35/9-7   : WELL
FLD.            : FIELD
LOC.            : LOCATION
SRVC.           : SERVICE COMPANY
DATE.  2018-09-11 14:49:02   : Log Export Date {yyyy-MM-dd HH:mm:ss}
PROV.           : PROVINCE
UWI.   35/9-7   : UNIQUE WELL ID
API.            : API NUMBER
#==================================================================
~Curve
DEPT .m                   : DEPTH
Lithology_geolink ._      : Lithology_geolink
CALI .in                  : CALI
BS .in                    : BS
ROP .m/h                  : ROP
DRHO .g/cm3               : DRHO
THOR .ppm                 : THOR
NPHI .m3/m3               : NPHI
RHOB .g/cm3               : RHOB
PEF .b/e                  : PEF
GR .gAPI                  : GR
URAN .ppm                 : URAN
DTC .us/ft                : DTC
DTS .us/ft                : DTS
RDEP .ohm.m               : RDEP
RMIC .ohm.m               : RMIC
RMED .ohm.m               : RMED
~Parameter
#==================================================================
~Ascii
# ...
 2320.7961426 13.000000000 12.263998985 12.250000954 105.46597290 0.1116953492  -999.250000 0.3314999938 2.4663000107 4.8783998489 76.900001526  -999.250000 106.80766296 233.54769897 1.3086999655  -999.250000 1.3289999962
 2320.9484863 13.000000000 12.263998985 12.250000954 97.336471558 0.1087985560  -999.250000 0.3292999864 2.4611001015 4.8334999084 79.370002747  -999.250000 106.78250122 231.92210388 1.3080999851  -999.250000 1.3270000219
 2321.1008301 13.000000000 12.263998985 12.250000954 93.566566467 0.1079071984  -999.250000 0.3330000043 2.4586000443 4.8484997749 80.050003052  -999.250000 106.59899139 229.74139404 1.3006000519  -999.250000 1.3159999847
 2321.2531738 13.000000000 12.210000038 12.250000954 91.699478149 0.1124000028  -999.250000 0.3407999873 2.4656000137 4.9875998497 80.349998474  -999.250000 106.47229767 229.29570007 1.2984000444  -999.250000 1.3240000010
 2321.4057617 13.000000000 12.267999649 12.250000954 87.923454285 0.1211998388  -999.250000 0.3481000066 2.4791998863 5.3112998009 75.489997864  -999.250000 106.47182465 230.50279236 1.3015999794  -999.250000 1.3220000267
 2321.5581055 13.000000000 12.272000313 12.250000954 86.033660889 0.1210908666  -999.250000 0.3461000025 2.4793000221 5.3776998520 76.720001221  -999.250000 106.67904663 231.34739685 1.2996000051  -999.250000 1.3170000315
 2321.7104492 13.000000000 12.270001411 12.250000954 92.295013428 0.1153987199  -999.250000 0.3461000025 2.4734001160 5.2362999916 75.410003662  -999.250000 107.01908112 231.30311584 1.2989000082  -999.250000 1.3170000315
 2321.8627930 13.000000000 12.263998985 12.250000954 95.406822205 0.1146000028  -999.250000 0.3407000005 2.4735000134 5.1139001846 75.639999390  -999.250000 107.07060242 230.94020081 1.3033000231  -999.250000 1.3220000267
 2322.0151367 13.000000000 12.210000038 12.250000954 131.85694885 0.1146999970  -999.250000 0.3427999914 2.4777998924 5.0226998329 79.790000916  -999.250000 106.96679688 230.42709351 1.3098000288  -999.250000 1.3309999704
 2322.1677246 13.000000000 12.263998985 12.250000954 150.05122375 0.1148027256  -999.250000 0.3492999971 2.4802999496 5.0570998192 78.099998474  -999.250000 106.91988373 228.89500427 1.3119000196  -999.250000 1.3339999914
 2322.3200684 13.000000000 12.119999886 12.250000954 141.06886292 0.1164990366  -999.250000 0.3558000028 2.4832003117 5.1736001968 78.650001526  -999.250000 107.03334045 224.12911987 1.3059999943  -999.250000 1.3309999704
 2322.4724121 13.000000000 12.119999886 12.250000954 136.54855347 0.1159000024  -999.250000 0.3564000130 2.4816000462 5.1922998428 80.529998779  -999.250000 107.05509949 222.37487793 1.3076000214  -999.250000 1.3250000477
 2322.6247559 13.000000000 12.156000137 12.250000954 142.55249023 0.1159999967  -999.250000 0.3454000056 2.4816000462 5.1792001724 79.029998779  -999.250000 106.68289948 221.29229736 1.3049000502  -999.250000 1.3140000105
 2322.7773438 13.000000000 12.263998985 12.250000954 146.81962585 0.1227036864  -999.250000 0.3251000047 2.4895000458 5.2602000237 82.819999695  -999.250000 105.88500214 223.24899292 1.2968000174  -999.250000 1.3020000458
 2322.9296875 13.000000000 12.250000954 12.250000954 148.08648682 0.1249983981  -999.250000 0.3257000148 2.4918000698 5.3330001831 84.519996643  -999.250000 105.57837677 225.32389832 1.2971999645  -999.250000 1.3029999733
 2323.0820313 13.000000000 12.250000954 12.250000954 141.45716858 0.1239966378  -999.250000 0.3208999932 2.4879000187 5.4416999817 80.540000916  -999.250000 105.56651306 229.96989441 1.2929999828  -999.250000 1.2960000038
 2323.2343750 13.000000000 12.263998985 12.250000954 133.56298828 0.1218999997  -999.250000 0.3124000132 2.4814999104 5.4552998543 78.660003662  -999.250000 105.82140350 232.04570007 1.2968000174  -999.250000 1.3049999475
 2323.3869629 13.000000000 12.210000038 12.250000954 118.03852844 0.1103923097  -999.250000 0.3131000102 2.4646999836 5.2133998871 83.949996948  -999.250000 106.97739410 234.90469360 1.3135999441  -999.250000 1.3359999657
 2323.5393066 13.000000000 12.210000038 12.250000954 114.30541229 0.1055934280  -999.250000 0.3312000036 2.4611999989 5.0869002342 81.970001221  -999.250000 107.16312408 235.08470154 1.2963000536  -999.250000 1.3229999542
 2323.6916504 13.000000000 12.210000038 12.250000954 155.80751038 0.1015015990  -999.250000 0.3551000059 2.4588000774 4.9482002258 82.300003052  -999.250000 106.99016571 231.35008240 1.2892999649  -999.250000 1.2990000248
 2323.8439941 13.000000000 12.210000038 12.250000954 176.54200745 0.1024999991  -999.250000 0.3569000065 2.4586999416 4.9897999763 80.050003052  -999.250000 106.78209686 229.81509399 1.2805000544  -999.250000 1.2740000486
 2323.9963379 13.000000000 12.156000137 12.250000954 133.49737549 0.1097000018  -999.250000 0.3429999948 2.4556999207 5.3329000473 79.519996643  -999.250000 106.40659332 227.15310669 1.2892999649  -999.250000 1.2940000296
 2324.1489258 13.000000000 12.156000137 12.250000954 111.99052429 0.1103014424  -999.250000 0.3362999856 2.4584000111 5.3084998131 81.019996643  -999.250000 106.25452423 227.98550415 1.2908999920  -999.250000 1.2990000248
 2324.3012695 13.000000000 12.119999886 12.250000954 121.62849426 0.1112004742  -999.250000 0.3458999991 2.4647998810 5.2312002182 77.970001221  -999.250000 106.58073425 225.26460266 1.3064999580  -999.250000 1.3250000477
 2324.4536133 13.000000000 12.064999580 12.250000954 126.47637177 0.1115000024  -999.250000 0.3488000035 2.4684000015 5.1887998581 73.519996643  -999.250000 106.84989929 224.90820313 1.3064999580  -999.250000 1.3209999800
 2324.6059570 13.000000000 12.147998810 12.250000954 106.59449768 0.1110000014  -999.250000 0.3371999860 2.4737000465 5.1276998520 77.849998474  -999.250000 107.20369720 220.62980652 1.3076000214  -999.250000 1.3170000315
 2324.7585449 13.000000000 12.177000046 12.250000954 96.678359985 0.1112038419  -999.250000 0.3325000107 2.4728999138 5.1451001167 73.550003052  -999.250000 107.24314880 218.05259705 1.3070000410  -999.250000 1.3200000525
 2324.9108887 13.000000000 12.234999657 12.250000954 112.15156555 0.1136017665  -999.250000 0.3334000111 2.4709000587 5.2393999100 77.470001221  -999.250000 107.02614594 217.58749390 1.3086999655  -999.250000 1.3250000477
 2325.0632324 13.000000000 12.263998985 12.250000954 119.89727020 0.1147017553  -999.250000 0.3382999897 2.4693999290 5.3095002174 78.169998169  -999.250000 106.80465698 219.30540466 1.3135999441  -999.250000 1.3320000172
 2325.2155762 13.000000000 12.263998985 12.250000954 109.02230835 0.1158000007  -999.250000 0.3382000029 2.4702999592 5.3238000870 79.599998474  -999.250000 106.40600586 225.40840149 1.3129999638  -999.250000 1.3380000591
 2325.3681641 13.000000000 12.263998985 12.250000954 103.62885284 0.1161022410  -999.250000 0.3271000087 2.4734001160 5.2432999611 78.519996643  -999.250000 106.39707947 227.65890503 1.3076000214  -999.250000 1.3309999704
 2325.5205078 13.000000000 12.263998985 12.250000954 116.05397797 0.1175001636  -999.250000 0.3161000013 2.4773001671 5.1803998947 74.819999695  -999.250000 106.94129944 228.42059326 1.2994999886  -999.250000 1.3229999542
 2325.6728516 13.000000000 12.263998985 12.250000954 122.70414734 0.1175987199  -999.250000 0.3303999901 2.4749999046 5.2775998116 79.669998169  -999.250000 106.87812805 228.96588135 1.2871999741  -999.250000 1.3029999733
 2325.8251953 13.000000000 12.263998985 12.250000954 123.16273499 0.1168000028  -999.250000 0.3352000117 2.4737999439 5.2790999413 77.959999084  -999.250000 106.83290100 229.48509216 1.2621999979  -999.250000 1.2610000372
 2325.9775391 13.000000000 12.263998985 12.250000954 122.53937531 0.1137999967  -999.250000 0.3206999898 2.4719998837 5.2012000084 76.169998169  -999.250000 106.82929993 232.46449280 1.2465000153  -999.250000 1.2389999628
 2326.1301270 13.000000000 12.263998985 12.250000954 121.41242218 0.1127993613  -999.250000 0.3122000098 2.4714999199 5.1497998238 78.550003052  -999.250000 106.86458588 232.73260498 1.2489999533  -999.250000 1.2480000257
 2326.2824707 13.000000000 12.263998985 12.250000954 114.26206207 0.1123982444  -999.250000 0.3174000084 2.4769999981 5.1343998909 76.889999390  -999.250000 107.03879547 228.89419556 1.2552000284  -999.250000 1.2660000324
