# LAS format log file from PETREL
# Project units are specified as depth units
#==================================================================
~Version information
VERS.   2.0:
WRAP.   NO:
#==================================================================
~Well
STRT .m      1725.0000000 :
STOP .m      3754.9504395 :
STEP .m     0.00000000 :
NULL .        -999.250000 :
COMP.           : COMPANY
WELL.  35/9-6 S   : WELL
FLD.            : FIELD
LOC.            : LOCATION
SRVC.           : SERVICE COMPANY
DATE.  2018-09-11 14:49:02   : Log Export Date {yyyy-MM-dd HH:mm:ss}
PROV.           : PROVINCE
UWI.   35/9-6 S   : UNIQUE WELL ID
API.            : API NUMBER
#==================================================================
~Curve
DEPT .m                   : DEPTH
Lithology_geolink ._      : Lithology_geolink
CALI .in                  : CALI
DRHO .g/cm3               : DRHO
NPHI .m3/m3               : NPHI
RHOB .g/cm3               : RHOB
PEF .b/e                  : PEF
GR .gAPI                  : GR
DTC .us/ft                : DTC
RDEP .ohm.m               : RDEP
RMIC .ohm.m               : RMIC
RMED .ohm.m               : RMED
~Parameter
#==================================================================
~Ascii
# ...
 1862.7000732 13.000000000 12.344900131  -999.250000 0.3709018826 2.3506164551  -999.250000 110.46369934 116.73709869 1.2842227221 0.9689521790 1.2641277313
 1862.8499756 13.000000000 12.407000542  -999.250000 0.3731999993 2.3708999157  -999.250000 120.79588318 116.57233429 1.4348000288 1.0329999924 1.4208999872
 1863.0000000 13.000000000 12.324799538  -999.250000 0.3558000028 2.3585999012  -999.250000 111.91853333 116.40153503 1.4407999516 1.0326000452 1.4315999746
 1863.1500244 13.000000000 12.242600441  -999.250000 0.3384999931 2.3463997841  -999.250000 103.02563477 116.23083496 1.4467999935 1.0321999788 1.4422999620
 1863.3000488 13.000000000 12.217598915  -999.250000 0.3476000130 2.3487000465  -999.250000 106.51409912 115.53289795 1.4673999548 1.1324000359 1.4320000410
 1863.4500732 13.000000000 12.113599777  -999.250000 0.3610999882 2.3513998985  -999.250000 112.21739960 113.86608887 1.4131000042 1.0821000338 1.3944000006
 1863.6000977 13.000000000 12.145500183  -999.250000 0.3528999984 2.3468000889  -999.250000 108.19360352 112.36740112 1.4601000547 1.0901999474 1.4270999432
 1863.7500000 13.000000000 12.239800453  -999.250000 0.3808000088 2.3524999619  -999.250000 105.40000153 114.99669647 1.4148999453 1.0663000345 1.3418999910
 1863.9000244 13.000000000 12.190699577  -999.250000 0.3629003167 2.3766562939  -999.250000 105.82039642 116.85669708 1.5074781179 1.1773734093 1.4579908848
 1864.0499268 13.000000000 12.425399780  -999.250000 0.3632999957 2.3231999874  -999.250000 103.95052338 116.43204498 1.4805999994 1.1447000504 1.4469000101
 1864.1999512 13.000000000 12.703700066  -999.250000 0.3578000069 2.3459000587  -999.250000 111.70169067 116.64882660 1.4193999767 1.1021000147 1.3811000586
 1864.3499756 13.000000000 13.064299583  -999.250000 0.3569999933 2.2413001060  -999.250000 102.76398468 116.57089996 1.4342000484 1.0886000395 1.3964999914
 1864.5000000 13.000000000 13.540900230  -999.250000 0.3691999912 2.3745999336  -999.250000 100.34359741 116.63610077 1.4585000277 1.0935000181 1.4017000198
 1864.6500244 13.000000000 13.424098969  -999.250000 0.3589999974 2.4066998959  -999.250000 100.38410187 117.16110992 1.4387999773 1.0871000290 1.4097000360
 1864.8000488 13.000000000 13.197999954  -999.250000 0.3486999869 2.3770000935  -999.250000 99.978599548 116.93180084 1.4546999931 1.0348999500 1.4422999620
 1864.9500732 13.000000000 13.351400375  -999.250000 0.3630000055 2.3859000206  -999.250000 109.06150055 116.74680328 1.4375000000 1.0217000246 1.4033000469
 1865.1000977 13.000000000 13.039600372  -999.250000 0.3421954513 2.4094707966  -999.250000 107.36109924 118.24839783 1.4786782265 1.1524779797 1.4884711504
 1865.2500000 13.000000000 12.958700180  -999.250000 0.3366000056 2.3738000393  -999.250000 110.01554108 117.84613037 1.4519000053 1.1253999472 1.4530999660
 1865.4000244 13.000000000 12.968299866  -999.250000 0.3312999904 2.3977999687  -999.250000 109.46334839 117.67014313 1.3869999647 1.2249000072 1.3970999718
 1865.5500488 13.000000000 12.946499825  -999.250000 0.3434000015 2.3926999569  -999.250000 107.31855011 116.85389709 1.3530999422 1.1557999849 1.2942999601
 1865.6999512 13.000000000 12.876899719  -999.250000 0.3391000032 2.3756000996  -999.250000 108.84040070 116.18849945 1.3150999546 1.0868999958 1.2594000101
 1865.8499756 13.000000000 12.831898689  -999.250000 0.3490000069 2.3599998951  -999.250000 109.85590363 115.86319733 1.2976000309 1.1155999899 1.2365000248
 1866.0000000 13.000000000 12.843500137  -999.250000 0.3456999958 2.3940999508  -999.250000 107.10710144 113.47869873 1.2986999750 1.1676000357 1.2616000175
 1866.1500244 13.000000000 12.826600075  -999.250000 0.3400000036 2.3745000362  -999.250000 103.33290100 113.19290161 1.2902342081 1.0030394793 1.2091580629
 1866.3000488 13.000000000 12.945599556  -999.250000 0.3430082202 2.3609018326  -999.250000 105.58470154 112.74629974 1.3322622776 1.0515785217 1.2805333138
 1866.4499512 13.000000000 12.984099388  -999.250000 0.3531000018 2.3631999493  -999.250000 105.56931305 111.66348267 1.4086999893 1.1480000019 1.4442000389
 1866.5999756 13.000000000 12.843199730  -999.250000 0.3452999890 2.3958001137  -999.250000 111.94461060 113.08525085 1.4595999718 1.1758999825 1.4223999977
 1866.7500000 13.000000000 13.000900269  -999.250000 0.3307999969 2.3573000431  -999.250000 121.75720978 112.62940216 1.4618999958 1.2410999537 1.4180999994
 1866.9000244 13.000000000 12.984499931  -999.250000 0.3382000029 2.3870999813  -999.250000 106.16919708 112.58630371 1.4476000071 1.2582999468 1.3744000196
 1867.0500488 13.000000000 13.080599785  -999.250000 0.3445000052 2.3599998951  -999.250000 105.88289642 112.18049622 1.4189000130 1.2372000217 1.3612999916
 1867.2000732 13.000000000 13.011799812  -999.250000 0.3415000141 2.3821001053  -999.250000 108.05599976 111.17510223 1.3746000528 1.1772999763 1.3207000494
 1867.3500977 13.000000000 12.976200104  -999.250000 0.3355000019 2.3814001083  -999.250000 105.18530273 110.22090149 1.4064918756 1.1531553268 1.3361967802
 1867.5000000 13.000000000 12.991200447  -999.250000 0.3368000090 2.3887000084  -999.250000 106.07867432 113.62193298 1.5192999840 1.2210999727 1.4550000429
 1867.6499023 13.000000000 12.973199844  -999.250000 0.3422999978 2.3736999035  -999.250000 109.88739014 115.25714111 1.5415999889 1.3660999537 1.5444999933
 1867.7999268 13.000000000 12.942700386  -999.250000 0.3600000143 2.3617000580  -999.250000 107.84264374 116.52762604 1.4566999674 1.2213000059 1.4720000029
 1867.9499512 13.000000000 12.956700325  -999.250000 0.3445000052 2.3626000881  -999.250000 106.32366943 116.84519958 1.4467999935 1.2474000454 1.4371000528
 1868.0999756 13.000000000 12.986799240  -999.250000 0.3476999998 2.3610999584  -999.250000 117.71009827 114.73480225 1.4428999424 1.2552000284 1.4043999910
 1868.2500000 13.000000000 13.033199310  -999.250000 0.3544999957 2.3510999680  -999.250000 122.54630280 112.95749664 1.4549000263 1.2547999620 1.4309999943
 1868.4000244 13.000000000 12.982700348  -999.250000 0.3472999930 2.3603000641  -999.250000 119.90840149 114.55960083 1.4617999792 1.1598000526 1.4105999470
 1868.5500488 13.000000000 12.899999619  -999.250000 0.3459999859 2.3664000034  -999.250000 116.89019775 116.30919647 1.4534819126 1.0814195871 1.4022110701
 1868.6999512 13.000000000 12.908900261  -999.250000 0.3596999943 2.3666000366  -999.250000 116.28189850 115.40813446 1.4313000441 1.1054999828 1.4157999754
 1868.8499756 13.000000000 12.854800224  -999.250000 0.3291000128 2.4212000370  -999.250000 107.37654877 113.57638550 1.4850000143 1.1708999872 1.4664000273
 1869.0000000 13.000000000 13.102899551  -999.250000 0.3359999955 2.4988000393  -999.250000 105.81776428 113.11887360 1.6011999846 1.2395000458 1.6467000246
 1869.1500244 13.000000000 12.871800423  -999.250000 0.3459999859 2.5188999176  -999.250000 101.69770050 114.45919800 1.5717999935 1.1980999708 1.5966999531
 1869.3000488 13.000000000 12.802700043  -999.250000 0.3522000015 2.4245998859  -999.250000 105.57849884 115.30159760 1.6627000570 1.3279000521 1.6720000505
 1869.4500732 13.000000000 12.378999710  -999.250000 0.3445000052 2.4249999523  -999.250000 103.56549835 116.00930023 1.5733000040 1.2973999977 1.5522999763
 1869.6000977 13.000000000 12.144200325  -999.250000 0.3346999884 2.3900001049  -999.250000 101.62409973 116.91110229 1.6311999559 1.3997000456 1.6390999556
 1869.7501221 13.000000000 12.104000092  -999.250000 0.3355286419 2.3693723679  -999.250000 98.877403259 117.31990051 1.5602340698 1.4027924538 1.5784968138
 1869.8999023 13.000000000 12.045100212  -999.250000 0.3531000018 2.3526000977  -999.250000 92.640167236 117.45797729 1.4584000111 1.2755000591 1.4538999796
 1870.0499268 13.000000000 12.053899765  -999.250000 0.3465999961 2.3526999950  -999.250000 98.937026978 117.46350098 1.4256000519 1.1842999458 1.4156999588
 1870.1999512 13.000000000 12.047599792  -999.250000 0.3330000043 2.3524999619  -999.250000 110.99446106 116.75489807 1.4227000475 1.1581000090 1.3939000368
