# LAS format log file from PETREL
# Project units are specified as depth units
#==================================================================
~Version information
VERS.   2.0:
WRAP.   NO:
#==================================================================
~Well
STRT .m      1350.9222412 :
STOP .m      2973.9824219 :
STEP .m     0.00000000 :
NULL .        -999.250000 :
COMP.           : COMPANY
WELL.  35/9-7   : WELL
FLD.            : FIELD
LOC.            : LOCATION
SRVC.           : SERVICE COMPANY
DATE.  2018-09-11 14:49:02   : Log Export Date {yyyy-MM-dd HH:mm:ss}
PROV.           : PROVINCE
UWI.   35/9-7   : UNIQUE WELL ID
API.            : API NUMBER
#==================================================================
~Curve
DEPT .m                   : DEPTH
Lithology_geolink ._      : Lithology_geolink
CALI .in                  : CALI
BS .in                    : BS
ROP .m/h                  : ROP
DRHO .g/cm3               : DRHO
THOR .ppm                 : THOR
NPHI .m3/m3               : NPHI
RHOB .g/cm3               : RHOB
PEF .b/e                  : PEF
GR .gAPI                  : GR
URAN .ppm                 : URAN
DTC .us/ft                : DTC
DTS .us/ft                : DTS
RDEP .ohm.m               : RDEP
RMIC .ohm.m               : RMIC
RMED .ohm.m               : RMED
~Parameter
#==================================================================
~Ascii
# ...
 1458.0595703 2.0000000000 13.718000412 12.250000954 92.749343872 0.0644000024  -999.250000 0.2087259591 1.9978021383 6.5812449455 57.337413788  -999.250000 127.04979706 281.51998901 0.6592000127  -999.250000 0.6710000038
 1458.2119141 2.0000000000 13.998001099 12.250000954 88.320213318 0.0780000016  -999.250000 0.2571223378 1.9765341282 7.5051183701 54.155109406  -999.250000 126.94589996 281.78198242 0.6638000011  -999.250000 0.6890000105
 1458.3643799 2.0000000000 14.133000374 12.250000954 86.089241028 0.0798999965  -999.250000 0.2833790183 1.9464241266 8.1919507980 53.600440979  -999.250000 127.09458923 283.13839722 0.6660000086  -999.250000 0.6850000024
 1458.5167236 2.0000000000 14.467000008 12.250000954 87.532806396 0.0900999978  -999.250000 0.2241475135 1.8942418098 9.3059072495 53.130378723  -999.250000 127.66519928 288.87777710 0.6608999968  -999.250000 0.6529999971
 1458.6691895 2.0000000000 15.315999985 12.250000954 88.254592896 0.0957000032  -999.250000 0.2021176070 1.8785125017 9.6597166061 54.219127655  -999.250000 127.74479675 291.99020386 0.6516000032  -999.250000 0.6430000067
 1458.8215332 2.0000000000 15.641000748 12.250000954 92.158790588 0.1041999981  -999.250000 0.2558569014 1.8592154980 10.142712593 55.389060974  -999.250000 127.36239624 295.34951782 0.6445000172  -999.250000 0.6269999743
 1458.9739990 2.0000000000 15.116999626 12.250000954 95.505249023 0.1071999967  -999.250000 0.2511038482 1.8594998121 10.348734856 50.374019623  -999.250000 127.07820129 295.56115723 0.6431999803  -999.250000 0.6150000095
 1459.1263428 2.0000000000 15.279998779 12.250000954 96.948814392 0.1105000004  -999.250000 0.2223230749 1.8661946058 10.327317238 49.480712891  -999.250000 126.98269653 295.78210449 0.6439999938  -999.250000 0.6179999709
 1459.2788086 2.0000000000 15.586999893 12.250000954 110.30183411 0.1218999997  -999.250000 0.1862289011 1.8824870586 10.514150620 50.529159546  -999.250000 126.93699646 295.36672974 0.6560000181  -999.250000 0.6460000277
 1459.4311523 2.0000000000 15.641000748 12.250000954 122.24408722 0.1271000057  -999.250000 0.3175946176 1.8892946243 10.721833229 53.837348938  -999.250000 126.83830261 295.04904175 0.6593999863  -999.250000 0.6840000153
 1459.5836182 2.0000000000 15.635000229 12.250000954 147.90026855 0.1336999983  -999.250000 0.2903219461 1.9008907080 11.023458481 56.028244019  -999.250000 126.54659271 295.30020142 0.6510999799  -999.250000 0.6480000019
 1459.7359619 2.0000000000 15.593001366 12.250000954 161.58135986 0.1365000010  -999.250000 0.2988931239 1.9101924896 10.952257156 54.661098480  -999.250000 126.34670258 295.75604248 0.6489999890  -999.250000 0.6320000291
 1459.8883057 2.0000000000 15.405999184 12.250000954 172.86744690 0.1440999955  -999.250000 0.3105812669 1.9426479340 10.381615639 55.917980194  -999.250000 125.92179871 297.15875244 0.6506999731  -999.250000 0.6380000114
 1460.0407715 2.0000000000 15.262000084 12.250000954 170.43963623 0.1486999989  -999.250000 0.3071027994 1.9610852003 10.224724770 55.430393219  -999.250000 125.69239807 297.82806396 0.6445000172  -999.250000 0.6290000081
 1460.1931152 2.0000000000 12.824000359 12.250000954 159.48162842 0.1438000053  -999.250000 0.3261694312 2.0116188526 9.3746623993 54.741107941  -999.250000 125.74440002 297.15417480 0.6736000180  -999.250000 0.7509999871
 1460.3455811 2.0000000000 12.824000359 12.250000954 150.95144653 0.1290999949  -999.250000 0.3497810662 2.0326831341 8.5920267105 50.283573151  -999.250000 126.30210114 296.38211060 0.6736999750  -999.250000 0.7210000157
 1460.4979248 2.0000000000 12.770000458 12.250000954 142.29002380 0.0920000002  -999.250000 0.3499996662 2.0600562096 6.8939223289 55.521591187  -999.250000 128.48899841 295.85415649 0.6690999866  -999.250000 0.6819999814
 1460.6503906 2.0000000000 12.800000191 12.250000954 142.15879822 0.0824000016  -999.250000 0.3479016721 2.0684933662 6.4185791016 54.610736847  -999.250000 129.94020081 295.57330322 0.6664000154  -999.250000 0.6819999814
 1460.8027344 4.0000000000 12.860000610 12.250000954 151.44357300 0.0807999969  -999.250000 0.3278160989 2.0759940147 6.4002141953 54.829826355  -999.250000 130.99530029 295.92053223 0.6660000086  -999.250000 0.6719999909
 1460.9552002 4.0000000000 12.878000259 12.250000954 160.82676697 0.0811000019  -999.250000 0.3459854126 2.0731024742 6.5895485878 56.948303223  -999.250000 130.75740051 296.69119263 0.6625999808  -999.250000 0.6679999828
 1461.1075439 4.0000000000 12.913999557 12.250000954 165.51837158 0.0830999985  -999.250000 0.2465797216 2.0611095428 6.8758707047 59.657829285  -999.250000 129.61309814 296.18930054 0.6601999998  -999.250000 0.6650000215
 1461.2600098 4.0000000000 12.959000587 12.250000954 160.82676697 0.0904999971  -999.250000 0.2844695747 2.0587019920 6.8395290375 56.252731323  -999.250000 128.89019775 295.47048950 0.6611999869  -999.250000 0.6660000086
 1461.4123535 4.0000000000 13.003999710 12.250000954 148.12992859 0.1094999984  -999.250000 0.4094997346 2.0592994690 6.8229131699 51.653686523  -999.250000 126.90589905 293.88867188 0.6624000072  -999.250000 0.6660000086
 1461.5648193 4.0000000000 13.003999710 12.250000954 140.12466431 0.1111000031  -999.250000 0.4152954519 2.0538043976 7.0330314636 52.019702911  -999.250000 126.70468903 293.55096436 0.6682999730  -999.250000 0.6990000010
 1461.7171631 2.0000000000 13.149000168 12.250000954 131.92257690 0.1015999988  -999.250000 0.3423584998 2.0294196606 7.3548421860 52.459648132  -999.250000 127.75879669 293.70318604 0.6744999886  -999.250000 0.7030000091
 1461.8695068 2.0000000000 13.357000351 12.250000954 131.72572327 0.0961000025  -999.250000 0.3173400164 2.0071358681 7.5633659363 50.283489227  -999.250000 131.39489746 294.41793823 0.6650000215  -999.250000 0.7379999757
 1462.0219727 2.0000000000 14.304999352 12.250000954 138.61549377 0.0974000022  -999.250000 0.3352855742 1.9487468004 8.6291456223 50.389911652  -999.250000 132.90820313 298.08117676 0.6186000109  -999.250000 0.6060000062
 1462.1743164 2.0000000000 15.784999847 12.250000954 152.82153320 0.1178999990  -999.250000 0.3624564707 1.9145547152 10.341753960 56.170730591  -999.250000 130.18659973 307.23773193 0.6079000235  -999.250000 0.5500000119
 1462.3267822 2.0000000000 15.140999794 12.250000954 132.11943054 0.1350000054  -999.250000 0.3572042286 1.9261906147 11.062824249 54.611259460  -999.250000 127.91149902 311.71994019 0.6079000235  -999.250000 0.5109999776
 1462.4791260 2.0000000000 13.852999687 12.250000954 90.715225220 0.1385000050  -999.250000 0.3376313746 2.0114631653 9.8860883713 51.594837189  -999.250000 125.24290466 317.48645020 0.6847000122  -999.250000 0.6740000248
 1462.6315918 2.0000000000 12.968000412 12.250000954 87.270339966 0.1165999994  -999.250000 0.3345024884 2.0389780998 8.5060052872 56.326202393  -999.250000 125.07230377 317.82473755 0.6707999706  -999.250000 0.6809999943
 1462.7839355 4.0000000000 12.860000610 12.250000954 80.380577087 0.0666999966  -999.250000 0.3551833928 2.0421974659 6.4041848183 58.238471985  -999.250000 126.42160034 316.50225830 0.6693999767  -999.250000 0.7089999914
 1462.9364014 4.0000000000 12.678999901 12.250000954 80.544616699 0.0529000014  -999.250000 0.3401120901 2.0349059105 6.0062174797 55.722019196  -999.250000 128.21980286 313.61273193 0.6735000014  -999.250000 0.6909999847
 1463.0887451 4.0000000000 12.796999931 12.250000954 80.872703552 0.0421000011  -999.250000 0.3080257177 2.0172140598 6.0938296318 55.919837952  -999.250000 132.44630432 300.53799438 0.6693000197  -999.250000 0.6850000024
 1463.2412109 4.0000000000 12.860000610 12.250000954 93.274276733 0.0373000018  -999.250000 0.1946907938 2.0024118423 6.2890434265 53.352054596  -999.250000 133.99159241 293.75094604 0.6643999815  -999.250000 0.6859999895
 1463.3935547 4.0000000000 13.003999710 12.250000954 118.07742310 0.0348999985  -999.250000 0.1764145941 1.9841146469 6.6109418869 47.444732666  -999.250000 134.52490234 289.44833374 0.6643999815  -999.250000 0.6779999733
 1463.5460205 4.0000000000 13.003999710 12.250000954 123.58923340 0.0461999997  -999.250000 0.4117114544 1.9987882376 6.7789654732 51.306903839  -999.250000 133.71760559 289.68402100 0.6672999859  -999.250000 0.7179999948
