# LAS format log file from PETREL
# Project units are specified as depth units
#==================================================================
~Version information
VERS.   2.0:
WRAP.   NO:
#==================================================================
~Well
STRT .m      2949.7507324 :
STOP .m      3605.5278320 :
STEP .m     0.00000000 :
NULL .        -999.250000 :
COMP.           : COMPANY
WELL.  35/9-10 S   : WELL
FLD.            : FIELD
LOC.            : LOCATION
SRVC.           : SERVICE COMPANY
DATE.  2018-09-11 14:49:01   : Log Export Date {yyyy-MM-dd HH:mm:ss}
PROV.           : PROVINCE
UWI.   35/9-10 S   : UNIQUE WELL ID
API.            : API NUMBER
#==================================================================
~Curve
DEPT .m                   : DEPTH
Lithology_geolink ._      : Lithology_geolink
CALI .in                  : CALI
BS .in                    : BS
ROP .m/h                  : ROP
DRHO .g/cm3               : DRHO
THOR .ppm                 : THOR
NPHI .m3/m3               : NPHI
RHOB .g/cm3               : RHOB
PEF .b/e                  : PEF
GR .gAPI                  : GR
URAN .ppm                 : URAN
DTC .us/ft                : DTC
DTS .us/ft                : DTS
RDEP .ohm.m               : RDEP
RMED .ohm.m               : RMED
~Parameter
#==================================================================
~Ascii
# ...
 3383.6335449 6.0000000000 8.5611000061 8.5000000000 67.520339966 0.0254999995 11.238100052 0.3140000105 2.5655999184 3.5748999119 95.570800781 1.0796999931 84.085601807 154.62730408 9.1866998672 9.0775003433
 3383.7858887 6.0000000000 8.5855998993 8.5000000000 72.136482239 0.0098000001 11.372799873 0.3079999983 2.5766000748 3.3478000164 96.275596619 1.0953999758 83.752105713 153.90109253 8.7447004318 8.7510995865
 3383.9382324 5.0000000000 8.5915002823 8.5000000000 74.444221497 -0.002700000 11.406299591 0.3140000105 2.5806000233 3.2300999165 95.176300049 1.0420999527 83.456909180 152.44309998 8.2318000793 8.3282003403
 3384.0908203 5.0000000000 8.5900001526 8.5000000000 69.958992004 -0.006100000 11.380100250 0.3127000034 2.5803000927 3.1918001175 91.793998718 0.9962999225 83.022407532 150.08258057 7.9029002190 8.0720996857
 3384.2431641 5.0000000000 8.5911998749 8.5000000000 67.716537476 -0.002700000 11.451399803 0.2976999879 2.5764000416 3.1700000763 89.057403564 0.9588999152 83.133796692 147.58929443 7.7073998451 7.9246997833
 3384.3955078 5.0000000000 8.5950002670 8.5000000000 67.832679749 0.0043000001 11.681099892 0.2892000079 2.5773999691 3.1480000019 87.926597595 0.9120000005 82.888298035 145.64540100 7.5472998619 7.7895002365
 3384.5478516 5.0000000000 8.5937995911 8.5000000000 67.890426636 0.0094999997 11.904700279 0.2975000143 2.5868999958 3.1540000439 87.571601868 0.8885999918 82.514396667 145.17590332 7.4074001312 7.6526999474
 3384.7004395 5.0000000000 8.5917997360 8.5000000000 65.462928772 0.0068000001 12.086099625 0.3066000044 2.5901999474 3.1761999130 88.038597107 0.8492000103 81.872398376 146.02459717 7.3287000656 7.5612001419
 3384.8527832 5.0000000000 8.5951995850 8.5000000000 64.249015808 0.0022000000 12.228599548 0.3041999936 2.5799999237 3.2195000648 88.344299316 0.7657999992 81.414901733 147.77439880 7.3326997757 7.5482001305
 3385.0051270 5.0000000000 8.5958995819 8.5000000000 65.886154175 0.0080000004 12.178099632 0.2989999950 2.5657999516 3.3041000366 88.233299255 0.7069000006 81.095809937 147.99310303 7.3980998993 7.5784001350
 3385.1574707 5.0000000000 8.5824003220 8.5000000000 66.704727173 0.0281000007 11.920100212 0.2985999882 2.5610001087 3.3905999660 89.018402100 0.7089999914 80.844001770 147.42269897 7.4962000847 7.6307997704
 3385.3100586 5.0000000000 8.5658998489 8.5000000000 60.430450439 0.0513999984 11.607399940 0.2984000146 2.5671999454 3.4202001095 90.320297241 0.7278000116 80.183998108 142.47929382 7.6230998039 7.7052001953
 3385.4624023 5.0000000000 8.5565996170 8.5000000000 57.293304443 0.0630000010 11.338199615 0.2967000008 2.5810999870 3.3657000065 90.524299622 0.7347000241 79.583999634 139.82080078 7.7758998871 7.7954001427
 3385.6147461 5.0000000000 8.5487003326 8.5000000000 56.821197510 0.0560000017 11.124699593 0.2949000001 2.5985999107 3.2732000351 90.478401184 0.7429999709 79.177696228 138.82899475 7.9123001099 7.8789000511
 3385.7670898 5.0000000000 8.5433998108 8.5000000000 56.585304260 0.0353999995 10.992099762 0.3039000034 2.6117999554 3.3271000385 90.590400696 0.7332999706 78.375701904 141.06320190 8.0570001602 7.9735999107
 3385.9194336 5.0000000000 8.5397996902 8.5000000000 58.227363586 0.0133999996 10.858499527 0.3248000145 2.6054000854 3.5652999878 90.613601685 0.6861000061 77.876701355 141.45860291 8.3191995621 8.1948995590
 3386.0720215 5.0000000000 8.5341997147 8.5000000000 59.048557281 0.0016000000 10.602700233 0.3352999985 2.5799999237 3.6868000031 90.311203003 0.6607999802 77.644699097 142.42640686 8.8437004089 8.6873998642
 3386.2243652 5.0000000000 8.5297002792 8.5000000000 59.146980286 0.0074000000 10.146100044 0.3237000108 2.5710000992 3.5868999958 88.998703003 0.7272999883 78.268791199 140.37860107 9.7347002029 9.5542001724
 3386.3767090 5.0000000000 8.5315999985 8.5000000000 59.448822021 0.0175000001 9.6983995438 0.3093999922 2.5829999447 3.4467000961 86.824897766 0.8398000002 78.517005920 140.60929871 10.747200012 10.558199883
 3386.5290527 5.0000000000 8.5363998413 8.5000000000 59.701446533 0.0165999997 9.5205001831 0.2991999984 2.5940999985 3.3901998997 85.186599731 0.8919000030 78.893096924 140.66340637 11.199899673 11.028800011
 3386.6816406 5.0000000000 8.5375003815 8.5000000000 63.287734985 0.0057000001 9.5999002457 0.2955000103 2.5924000740 3.3954999447 84.220901489 0.8686000109 78.964302063 140.70370483 10.922900200 10.790100098
 3386.8339844 5.0000000000 8.5437002182 8.5000000000 66.620735168 0.0001000000 9.8496999741 0.3023999929 2.5885999203 3.4272000790 83.801498413 0.8072999716 79.228797913 140.09649658 10.400300026 10.327300072
 3386.9863281 5.0000000000 8.5544996262 8.5000000000 70.882217407 0.0057000001 10.228899956 0.3147999942 2.5838999748 3.4684998989 83.694297791 0.7249000072 79.714904785 139.60150146 9.9583997726 9.9174003601
 3387.1386719 5.0000000000 8.5602998734 8.5000000000 71.810371399 0.0151000004 10.752799988 0.3183999956 2.5694000721 3.5315001011 83.309997559 0.6301000118 79.505104065 139.73719788 9.6745996475 9.6461000443
 3387.2912598 5.0000000000 8.5604000092 8.5000000000 73.167655945 0.0221999995 11.368200302 0.3129999936 2.5504999161 3.6357998848 82.418502808 0.5401999950 79.826103210 140.02909851 9.5466003418 9.5282001495
 3387.4436035 5.0000000000 8.5628004074 8.5000000000 73.596458435 0.0266999993 12.011199951 0.3143000007 2.5415999889 3.6993999481 82.193298340 0.4693000019 80.085800171 142.29980469 9.5333995819 9.5236997604
 3387.5959473 5.0000000000 8.5548000336 8.5000000000 72.996063232 0.0287999995 12.598400116 0.3257000148 2.5462000370 3.6170001030 83.870697021 0.4408999979 80.854797363 143.63920593 9.5550003052 9.5193996429
 3387.7482910 5.0000000000 8.5418996811 8.5000000000 71.966537476 0.0263000000 12.904600143 0.3327000141 2.5562996864 3.4207000732 86.770401001 0.4935000241 81.019500732 144.96270752 9.5848999023 9.5356998444
 3387.9006348 5.0000000000 8.5369997025 8.5000000000 72.233596802 0.0183000006 12.882200241 0.3248000145 2.5613000393 3.2560999393 88.862899780 0.6567999721 81.000900269 146.33120728 9.6820001602 9.6156997681
 3388.0532227 5.0000000000 8.5300998688 8.5000000000 73.529853821 0.0065000001 12.559300423 0.3176000118 2.5529000759 3.1916999817 89.436302185 0.9534999728 81.036102295 149.24780273 9.8334999084 9.7486000061
 3388.2055664 5.0000000000 8.5116996765 8.5000000000 75.819877625 0.0006000000 12.028400421 0.3179999888 2.5471999645 3.2077999115 89.865898132 1.3604999781 81.563491821 152.10290527 9.9644002914 9.8613004684
 3388.3579102 5.0000000000 8.4947004318 8.5000000000 76.813652039 0.0048000002 11.545700073 0.3253000081 2.5552999973 3.2955000401 91.441001892 1.7678999901 82.896896362 151.47669983 10.038499832 9.9184999466
 3388.5102539 5.0000000000 8.4898996353 8.5000000000 79.062995911 0.0121999998 11.406700134 0.3382000029 2.5620999336 3.4576001167 93.789299011 2.0315999985 84.089897156 150.47000122 9.9590997696 9.8246002197
 3388.6628418 6.0000000000 8.4958000183 8.5000000000 80.319229126 0.0131999999 11.617199898 0.3512000144 2.5495998859 3.5927999020 95.630996704 2.1373000145 85.269401550 146.16360474 9.5923995972 9.4479999542
 3388.8151855 6.0000000000 8.5087995529 8.5000000000 74.998687744 0.0109000001 12.000900269 0.3522000015 2.5338997841 3.5899000168 96.561302185 2.1403000355 86.315002441 154.64129639 9.0669002533 8.9224004745
 3388.9675293 6.0000000000 8.5139999390 8.5000000000 68.422569275 0.0122999996 12.386899948 0.3524999917 2.5350999832 3.5641000271 96.808700562 2.0583000183 86.993797302 159.03118896 8.6597995758 8.5085000992
 3389.1198730 6.0000000000 8.5031995773 8.5000000000 62.084648132 0.0146000003 12.640600204 0.3650999963 2.5415000916 3.6443998814 96.667800903 1.9173001051 87.170997620 163.17181396 8.4713001251 8.3053998947
 3389.2724609 6.0000000000 8.4955997467 8.5000000000 62.323165894 0.0157999992 12.699299812 0.3806999922 2.5441000462 3.6826999187 96.049797058 1.7634999752 86.791198730 162.03550720 8.4456996918 8.2637996674
 3389.4248047 6.0000000000 8.5127000809 8.5000000000 65.723426819 0.0164000001 12.597299576 0.3788000047 2.5499000549 3.4881999493 95.360900879 1.5701999664 85.722999573 159.53327942 8.5340003967 8.3402004242
