# LAS format log file from PETREL
# Project units are specified as depth units
#==================================================================
~Version information
VERS.   2.0:
WRAP.   NO:
#==================================================================
~Well
STRT .m      1725.0000000 :
STOP .m      3754.9504395 :
STEP .m     0.00000000 :
NULL .        -999.250000 :
COMP.           : COMPANY
WELL.  35/9-6 S   : WELL
FLD.            : FIELD
LOC.            : LOCATION
SRVC.           : SERVICE COMPANY
DATE.  2018-09-11 14:49:02   : Log Export Date {yyyy-MM-dd HH:mm:ss}
PROV.           : PROVINCE
UWI.   35/9-6 S   : UNIQUE WELL ID
API.            : API NUMBER
#==================================================================
~Curve
DEPT .m                   : DEPTH
Lithology_geolink ._      : Lithology_geolink
CALI .in                  : CALI
DRHO .g/cm3               : DRHO
NPHI .m3/m3               : NPHI
RHOB .g/cm3               : RHOB
PEF .b/e                  : PEF
GR .gAPI                  : GR
DTC .us/ft                : DTC
RDEP .ohm.m               : RDEP
RMIC .ohm.m               : RMIC
RMED .ohm.m               : RMED
~Parameter
#==================================================================
~Ascii
# ...
 3606.9003906 7.0000000000 8.5128002167 0.0043000001 0.1729328483 2.6688580513 4.1424164772 109.17199707 69.759399414 19.776096344 11.406601906 18.676237106
 3607.0502930 7.0000000000 8.5350999832 0.0031000001 0.1830140054 2.6865410805 4.0557017326 108.36969757 67.480979919 21.182050705 11.594124794 19.452095032
 3607.2004395 7.0000000000 8.5201997757 0.0026000000 0.1916331649 2.6505527496 4.1788496971 110.12159729 65.444229126 19.384027481 13.453514099 18.354082108
 3607.3500977 7.0000000000 8.5165004730 0.0007030944 0.2018000036 2.6666998863 4.0714001656 111.09010315 64.565002441 22.212400436 14.959600449 20.708900452
 3607.5000000 7.0000000000 8.5053997040 -0.000797557 0.2039999962 2.6631999016 4.0246000290 112.36049652 64.453697205 34.038101196 15.807299614 28.693700790
 3607.6501465 7.0000000000 8.5053997040 -0.000899837 0.2061000019 2.6751000881 4.0083999634 109.65019989 64.675003052 41.387798309 17.308399200 33.671699524
 3607.8000488 7.0000000000 8.4941997528 -0.001400000 0.2002000064 2.6844000816 4.0381999016 107.22119904 65.038398743 42.014499664 20.221200943 34.064399719
 3607.9501953 7.0000000000 8.4830999374 -0.001000000 0.1920000017 2.7009999752 3.8842000961 105.44409943 65.404602051 39.891899109 24.913999557 33.811698914
 3608.1000977 7.0000000000 8.4941997528 0.0001000000 0.1829999983 2.6989998817 3.7504999638 106.79440308 66.071601868 38.342800140 27.229999542 33.650699615
 3608.2502441 7.0000000000 8.5128002167 0.0012000001 0.1795178801 2.7071080208 3.5573000908 108.63349915 66.344001770 28.844457626 28.751270294 28.871734619
 3608.4001465 7.0000000000 8.5128002167 0.0006000000 0.1850115657 2.7096059322 3.5188000202 108.86799622 66.421203613 26.611114502 26.932291031 26.226150513
 3608.5502930 7.0000000000 8.5201997757 -0.000600000 0.1921231002 2.7133426666 3.5416998863 108.03690338 66.478897095 37.275878906 26.124633789 32.441280365
 3608.7001953 7.0000000000 8.5350999832 -0.002500000 0.1992013007 2.7263250351 3.7114915848 107.88590240 66.483901978 34.203716278 24.419523239 30.106164932
 3608.8503418 7.0000000000 8.5350999832 -0.003300000 0.1999951303 2.6804971695 3.5837445259 108.63610077 66.385696411 33.767425537 24.805229187 29.893100739
 3609.0002441 7.0000000000 8.5499000549 -0.003900000 0.1984855086 2.6796076298 3.5667483807 110.23220062 66.284500122 28.381158829 25.976074219 27.563800812
 3609.1503906 7.0000000000 8.5499000549 -0.004100000 0.1895977259 2.6842265129 3.5968978405 109.83460236 65.873497009 28.789587021 24.115661621 27.321311951
 3609.3002930 7.0000000000 8.5499000549 -0.001600000 0.1889164448 2.6616914272 3.7495799065 109.67130280 66.022102356 30.403165817 22.076740265 27.871089935
 3609.4501953 7.0000000000 8.5833997726 -0.000400000 0.1990352869 2.6564202309 3.7990679741 109.76629639 66.217124939 26.215286255 19.218225479 24.617073059
 3609.6003418 7.0000000000 8.5944995880 0.0033000000 0.2206861526 2.6688055992 4.1482005119 111.44090271 66.355468750 27.007507324 18.127269745 25.215564728
 3609.7500000 7.0000000000 8.6020002365 0.0032001629 0.2122000009 2.6721999645 4.3937997818 111.40879822 66.580802917 28.605499268 16.760200500 26.113100052
 3609.9001465 7.0000000000 8.6093997955 0.0043980489 0.1862999946 2.6772000790 4.4458999634 111.33209991 67.008300781 30.165100098 17.559700012 27.748899460
 3610.0500488 7.0000000000 8.6020002365 0.0067960913 0.1641000062 2.6767001152 4.1742000580 109.70200348 67.419799805 31.643899918 17.277900696 29.101499557
 3610.2001953 7.0000000000 8.6093997955 0.0118000004 0.1596000046 2.7065999508 4.2667999268 110.49649811 67.642700195 32.257301331 20.097999573 30.094400406
 3610.3500977 7.0000000000 8.5944995880 0.0099999998 0.1595000029 2.7014000416 3.7678999901 109.63749695 67.887298584 35.029300690 24.234399796 33.088600159
 3610.5002441 7.0000000000 8.6168003082 0.0052999998 0.1561000049 2.6621000767 3.5645000935 109.26809692 68.142898560 27.038499832 24.202600479 27.102399826
 3610.6501465 7.0000000000 8.6503000259 -0.000800000 0.1554017812 2.6893253326 3.8668000698 108.22899628 68.222801208 22.862962723 21.157039642 23.117158890
 3610.8002930 7.0000000000 8.6391000748 -0.000300000 0.1565103978 2.6436913013 3.8294999599 108.85369873 68.365997314 22.543731689 17.384803772 23.957485199
 3610.9501953 7.0000000000 8.6613998413 0.0006000000 0.1597016305 2.6717057228 3.8347001076 109.93299866 68.606101990 25.617063522 18.799007416 26.249387741
 3611.1000977 7.0000000000 8.6613998413 0.0009000000 0.1607008129 2.6751613617 3.7917461395 109.91049957 68.771202087 24.987113953 20.705249786 24.897346497
 3611.2502441 7.0000000000 8.6613998413 0.0005000000 0.1611983776 2.6514475346 3.6362249851 109.21759796 68.907997131 28.069143295 21.472431183 27.757905960
 3611.4001465 7.0000000000 8.7060003281 0.0001000000 0.1601982117 2.6804969311 3.8965139389 110.40740204 68.819999695 30.110860825 21.182678223 32.345573425
 3611.5502930 7.0000000000 8.6836996078 0.0011000000 0.1590990126 2.6786086559 3.7207903862 111.97630310 67.971603394 25.361757278 19.758029938 24.534833908
 3611.7001953 7.0000000000 8.6948003769 0.0016000000 0.1584957689 2.6838011742 3.6538200378 113.88169861 66.881454468 27.291893005 20.083690643 26.390575409
 3611.8503418 7.0000000000 8.7393999100 0.0016000000 0.1559016258 2.6845233440 3.7884745598 112.00090027 66.484436035 24.340595245 20.510217667 23.736358643
 3612.0000000 7.0000000000 8.7616996765 0.0008013029 0.1569000036 2.6988000870 3.5276999474 109.97949219 66.505798340 24.521999359 22.360099792 24.202199936
 3612.1501465 7.0000000000 8.7432003021 -0.000098537 0.1570000052 2.7028000355 3.3824000359 106.30269623 66.785202026 33.561698914 26.206399918 33.071701050
 3612.3000488 7.0000000000 8.7580003738 -0.002695766 0.1582999974 2.7091999054 3.3671998978 105.73139954 67.057701111 42.314498901 27.384199142 40.323200226
 3612.4501953 7.0000000000 8.7505998611 -0.005300000 0.1547999978 2.7004001141 3.3722000122 108.12049866 66.948699951 43.930198669 23.843900681 40.619598389
 3612.6000977 7.0000000000 8.7616996765 -0.005500000 0.1537999958 2.6942000389 3.5550999641 109.68679810 66.913200378 33.816799164 22.271200180 32.246398926
 3612.7502441 7.0000000000 8.7840003967 -0.004900000 0.1536999941 2.7039999962 3.6754999161 109.94529724 67.933296204 26.050899506 23.509199142 25.951999664
 3612.9001465 7.0000000000 8.7840003967 -0.003000000 0.1589920074 2.6906642914 3.6754999161 109.67990112 68.723899841 28.177734375 25.091053009 28.177680969
 3613.0500488 7.0000000000 8.7505998611 -0.000100000 0.1540954411 2.6688256264 3.7239000797 110.48850250 69.195098877 36.040340424 22.547798157 34.535667419
 3613.2001953 7.0000000000 8.7283000946 0.0038999999 0.1512991786 2.6845157146 3.5750999451 111.72859955 70.016799927 32.624477386 21.381053925 31.137674332
 3613.3500977 7.0000000000 8.7133998871 0.0041999999 0.1508032531 2.6941392422 3.4592454433 112.75959778 70.519996643 31.122934341 21.789932251 29.515672684
 3613.5002441 7.0000000000 8.6985998154 0.0017000000 0.1528011411 2.7182657719 3.4256596565 113.82409668 70.589103699 20.897748947 26.412509918 21.830442429
 3613.6501465 7.0000000000 8.6836996078 -0.001500000 0.1535000056 2.6972055435 3.4009785652 113.13749695 70.475097656 25.467765808 25.002777100 25.905197144
 3613.8002930 7.0000000000 8.6948003769 -0.001700000 0.1534959376 2.7004890442 3.3881092072 110.42479706 69.894500732 27.954021454 21.790277481 27.183971405
 3613.9501953 7.0000000000 8.6836996078 -0.001900000 0.1509943008 2.6936974525 3.5779581070 106.40950012 69.593399048 21.581565857 17.851633072 21.512990952
 3614.1003418 6.0000000000 8.6391000748 -0.003100000 0.1474999934 2.6919074059 3.7366580963 105.01080322 69.569694519 14.745459557 16.765949249 12.909944534
 3614.2502441 6.0000000000 8.6391000748 -0.002700000 0.1475032419 2.6964972019 3.8334071636 103.19709778 69.563468933 14.290773392 15.875676155 12.384987831
 3614.4001465 6.0000000000 8.6391000748 0.0008941463 0.1494999975 2.6947000027 3.7764000893 102.92400360 69.543998718 13.782999992 15.860799789 11.947299957
