# LAS format log file from PETREL
# Project units are specified as depth units
#==================================================================
~Version information
VERS.   2.0:
WRAP.   NO:
#==================================================================
~Well
STRT .m      1227.1519775 :
STOP .m      2817.9040527 :
STEP .m     0.00000000 :
NULL .        -999.250000 :
COMP.           : COMPANY
WELL.  36/7-1   : WELL
FLD.            : FIELD
LOC.            : LOCATION
SRVC.           : SERVICE COMPANY
DATE.  2018-09-11 14:49:03   : Log Export Date {yyyy-MM-dd HH:mm:ss}
PROV.           : PROVINCE
UWI.   36/7-1   : UNIQUE WELL ID
API.            : API NUMBER
#==================================================================
~Curve
DEPT .m                   : DEPTH
Lithology_geolink ._      : Lithology_geolink
CALI .in                  : CALI
BS .in                    : BS
DRHO .g/cm3               : DRHO
SGR .gAPI                 : SGR
NPHI .m3/m3               : NPHI
RHOB .g/cm3               : RHOB
GR .gAPI                  : GR
DTC .us/ft                : DTC
RDEP .ohm.m               : RDEP
SP .mV                    : SP
RSHA .ohm.m               : RSHA
RMED .ohm.m               : RMED
~Parameter
#==================================================================
~Ascii
# ...
 1763.6003418 13.000000000 12.208999634 12.250000954 -0.070996799 93.448486328 0.3640016019 2.4392282963 74.121345520 104.20816803 2.6069712639 -182.5896759 2.4482979774 0.0540000014
 1763.7526855 13.000000000 12.213999748 12.250000954 -0.069003202 94.075698853 0.3540080190 2.4439253807 74.875946045 104.16099548 2.6179559231 -182.7052307 2.4250810146 0.0540000014
 1763.9050293 13.000000000 12.206000328 12.250000954 -0.066007204 94.340591431 0.3490080237 2.4445052147 76.570091248 104.30423737 2.5403125286 -182.8264923 2.4061329365 0.0540000014
 1764.0574951 13.000000000 12.211999893 12.250000954 -0.064003207 93.962341309 0.3490000069 2.4464926720 76.175216675 104.78907013 2.5280480385 -183.3445282 2.3769264221 0.0540000014
 1764.2098389 13.000000000 12.223000526 12.250000954 -0.067990392 91.595779419 0.3609807789 2.4437909126 75.247695923 105.07386017 2.5558876991 -183.3115997 2.4107878208 0.0540000014
 1764.3623047 13.000000000 12.191999435 12.250000954 -0.066003203 91.833831787 0.3739895821 2.4491522312 74.746131897 105.00083160 2.5838880539 -182.4361420 2.4427549839 0.0540000014
 1764.5146484 13.000000000 12.225000381 12.250000954 -0.062009607 92.760658264 0.3630176187 2.4558653831 75.675956726 104.98540497 2.6039199829 -182.0093079 2.4279928207 0.0540000014
 1764.6671143 13.000000000 12.211999893 12.250000954 -0.063996799 94.527717590 0.3709935844 2.4674563408 75.812339783 105.07317352 2.5870678425 -182.6983643 2.4001009464 0.0540000014
 1764.8194580 13.000000000 12.211999893 12.250000954 -0.057016812 94.980110168 0.4069711566 2.4797163010 75.724784851 105.32550812 2.5152885914 -183.4777985 2.3645884991 0.0540000014
 1764.9719238 13.000000000 12.206000328 12.250000954 -0.055003203 96.838264465 0.3980072141 2.4766957760 75.573234558 105.87330627 2.4851200581 -183.5725098 2.3321490288 0.0540000014
 1765.1242676 13.000000000 12.210000038 12.250000954 -0.055000000 98.015281677 0.3770168424 2.4618365765 74.546295166 106.21149445 2.4501402378 -184.0368652 2.3171176910 0.0540000014
 1765.2767334 13.000000000 12.225000381 12.250000954 -0.059991986 96.597434998 0.3520200253 2.4489998817 73.323295593 106.17483521 2.4490039349 -183.1600037 2.3206539154 0.0540000014
 1765.4290771 13.000000000 12.206999779 12.250000954 -0.056009609 95.167854309 0.3699855804 2.4475672245 72.604431152 106.08021545 2.4918277264 -181.8152008 2.3457276821 0.0540000014
 1765.5815430 13.000000000 12.220000267 12.250000954 -0.056998398 95.740425110 0.3749960065 2.4460759163 73.716690063 105.88151550 2.5278847218 -184.4641571 2.3691298962 0.0540000014
 1765.7338867 13.000000000 12.244999886 12.250000954 -0.057000000 96.912269592 0.3650080264 2.4494326115 76.216781616 105.66593170 2.5728197098 -186.2102051 2.4012570381 0.0540000014
 1765.8863525 13.000000000 12.218000412 12.250000954 -0.057000000 96.471099854 0.3769904077 2.4505650997 77.847419739 105.41959381 2.6168589592 -185.6000671 2.4548652172 0.0540000014
 1766.0386963 13.000000000 12.229000092 12.250000954 -0.059995189 97.145935059 0.3849935830 2.4490745068 78.467277527 105.20580292 2.6329357624 -183.4752350 2.4880440235 0.0540000014
 1766.1910400 13.000000000 12.246000290 12.250000954 -0.061995193 97.813682556 0.3680272102 2.4470601082 78.505950928 105.04999542 2.6608877182 -181.7052307 2.4912436008 0.0540000014
 1766.3435059 13.000000000 12.230999947 12.250000954 -0.065993592 98.095298767 0.3680000007 2.4450216293 79.668281555 104.87120819 2.6580119133 -181.9836884 2.4817211628 0.0540000014
 1766.4958496 13.000000000 12.234000206 12.250000954 -0.061012011 97.772407532 0.3600128293 2.4518508911 81.116516113 104.65171814 2.6908676624 -183.0505066 2.4811985493 0.0540000014
 1766.6483154 13.000000000 12.239998817 12.250000954 -0.060001601 98.827568054 0.3729895651 2.4508695602 81.384140015 104.38652802 2.6870160103 -183.9249115 2.4779999256 0.0540000014
 1766.8006592 13.000000000 12.236000061 12.250000954 -0.058004804 100.47021484 0.3610192239 2.4567162991 80.406211853 104.04022980 2.6621000767 -184.2371063 2.4769189358 0.0540000014
 1766.9531250 13.000000000 12.244000435 12.250000954 -0.057001602 102.31491852 0.3699927926 2.4608695507 79.227706909 103.90872955 2.6749479771 -184.1689911 2.4746394157 0.0540000014
 1767.1054688 13.000000000 12.250000954 12.250000954 -0.053009607 102.66867828 0.3719983995 2.4606275558 77.909065247 104.16158295 2.6749999523 -183.1059723 2.4797646999 0.0540000014
 1767.2579346 13.000000000 12.227000237 12.250000954 -0.060987182 101.19345856 0.3660047948 2.4474132061 77.775054932 104.41687775 2.6690239906 -181.6146393 2.4925241470 0.0540000014
 1767.4102783 13.000000000 12.236000061 12.250000954 -0.065987989 97.819267273 0.3709959984 2.4424326420 77.887077332 104.67596436 2.6968877316 -180.8799744 2.5078086853 0.0540000014
 1767.5627441 13.000000000 12.277001381 12.250000954 -0.066000000 95.567749023 0.3849887848 2.4514563084 77.069351196 104.63387299 2.7298941612 -180.8654938 2.5515191555 0.0540000014
 1767.7150879 13.000000000 12.256999016 12.250000954 -0.069990389 94.874732971 0.3820024133 2.4776852131 76.175315857 104.05336761 2.8146598339 -180.3789368 2.6112129688 0.0540000014
 1767.8675537 13.000000000 12.260001183 12.250000954 -0.064009622 96.223564148 0.3989863694 2.5169126987 74.655960083 103.40228271 2.8937468529 -180.4085999 2.6472115517 0.0540000014
 1768.0198975 13.000000000 12.255000114 12.250000954 -0.055014424 96.809066772 0.3830128014 2.5349855423 73.867469788 102.62645721 2.8850359917 -181.8320313 2.6538751125 0.0540000014
 1768.1722412 13.000000000 12.241999626 12.250000954 -0.055000000 98.085517883 0.4059631526 2.5102405548 72.663955688 102.53745270 2.8879880905 -182.2481995 2.6077418327 0.0540000014
 1768.3247070 13.000000000 12.270999908 12.250000954 -0.060990386 97.112960815 0.3710280359 2.4715981483 74.590682983 103.68011475 2.7356123924 -180.7889099 2.5021257401 0.0540000014
 1768.4770508 13.000000000 12.241999626 12.250000954 -0.061000001 97.175270081 0.3520304263 2.4476275444 78.631530762 104.80150604 2.5895848274 -180.1206665 2.3946995735 0.0540000014
 1768.6295166 13.000000000 12.272999763 12.250000954 -0.064993590 98.977760315 0.3280192316 2.4365651608 82.231834412 105.88729095 2.5182840824 -180.0448303 2.3195288181 0.0540000014
 1768.7818604 13.000000000 12.241999626 12.250000954 -0.068990387 100.91917419 0.3200128078 2.4322090149 83.972839355 106.57006073 2.4442965984 -179.7668304 2.2857205868 0.0540000014
 1768.9343262 13.000000000 12.269000053 12.250000954 -0.072993591 101.94324493 0.3299919963 2.4289999008 84.438667297 106.53218842 2.4509718418 -179.2372742 2.2952930927 0.0540000014
 1769.0866699 13.000000000 12.262000084 12.250000954 -0.073997602 101.60307312 0.3539807796 2.4318652153 85.143646240 106.31941223 2.4848637581 -179.7514038 2.3193674088 0.0540000014
 1769.2391357 13.000000000 12.256999016 12.250000954 -0.071004808 101.63677979 0.3869735599 2.4409456253 85.358932495 105.79276276 2.5039238930 -180.7835999 2.3515048027 0.0540000014
 1769.3914795 13.000000000 12.241999626 12.250000954 -0.067009613 101.42700958 0.4049855769 2.4497909546 83.659233093 105.36460876 2.5627636909 -181.8040924 2.3880071640 0.0540000014
 1769.5439453 13.000000000 12.227000237 12.250000954 -0.064004809 99.380119324 0.4020024240 2.4504892826 80.458847046 105.11199951 2.5839159489 -182.4836884 2.4137356281 0.0540000014
 1769.6962891 13.000000000 12.206000328 12.250000954 -0.064997599 97.790901184 0.3770200312 2.4449255466 77.557846069 104.96147156 2.6108918190 -183.4161987 2.4295587540 0.0540000014
 1769.8487549 13.000000000 12.194000244 12.250000954 -0.064999998 97.139045715 0.3819960058 2.4447934628 75.919578552 104.99353790 2.6399071217 -183.5567169 2.4205095768 0.0540000014
 1770.0010986 13.000000000 12.198999405 12.250000954 -0.062004808 98.935363770 0.3760047853 2.4501490593 77.552970886 105.16799164 2.5951802731 -182.3155365 2.3960294724 0.0540000014
 1770.1534424 13.000000000 12.187999725 12.250000954 -0.060004804 99.277893066 0.3730047941 2.4518525600 79.047065735 105.59766388 2.5701000690 -181.1562500 2.3560905457 0.0540000014
