# LAS format log file from PETREL
# Project units are specified as depth units
#==================================================================
~Version information
VERS.   2.0:
WRAP.   NO:
#==================================================================
~Well
STRT .m      1227.1519775 :
STOP .m      2817.9040527 :
STEP .m     0.00000000 :
NULL .        -999.250000 :
COMP.           : COMPANY
WELL.  36/7-1   : WELL
FLD.            : FIELD
LOC.            : LOCATION
SRVC.           : SERVICE COMPANY
DATE.  2018-09-11 14:49:03   : Log Export Date {yyyy-MM-dd HH:mm:ss}
PROV.           : PROVINCE
UWI.   36/7-1   : UNIQUE WELL ID
API.            : API NUMBER
#==================================================================
~Curve
DEPT .m                   : DEPTH
Lithology_geolink ._      : Lithology_geolink
CALI .in                  : CALI
BS .in                    : BS
DRHO .g/cm3               : DRHO
SGR .gAPI                 : SGR
NPHI .m3/m3               : NPHI
RHOB .g/cm3               : RHOB
GR .gAPI                  : GR
DTC .us/ft                : DTC
RDEP .ohm.m               : RDEP
SP .mV                    : SP
RSHA .ohm.m               : RSHA
RMED .ohm.m               : RMED
~Parameter
#==================================================================
~Ascii
# ...
 2494.5112305 6.0000000000 8.3240003586  -999.250000 -0.057000000  -999.250000 0.3109423816  -999.250000 97.392730713 78.204032898 16.940000534  -999.250000 18.145402908 0.0430000015
 2494.6635742 6.0000000000 8.3170003891  -999.250000 -0.057999998  -999.250000 0.2929663658  -999.250000 98.717849731 78.254142761 15.604999542  -999.250000 16.960657120 0.0430000015
 2494.8159180 6.0000000000 8.3229999542  -999.250000 -0.059999999  -999.250000 0.2719903886  -999.250000 98.428443909 78.386230469 14.155323029  -999.250000 15.811620712 0.0430000015
 2494.9682617 6.0000000000 8.3179998398  -999.250000 -0.061000001  -999.250000 0.2660352588  -999.250000 97.393585205 78.662704468 13.562947273  -999.250000 15.222496986 0.0430000015
 2495.1206055 6.0000000000 8.3140001297  -999.250000 -0.059999999  -999.250000 0.2880352437  -999.250000 96.838142395 78.775749207 13.229534149  -999.250000 14.912506104 0.0430000015
 2495.2731934 6.0000000000 8.3100004196  -999.250000 -0.059999999  -999.250000 0.3100000024  -999.250000 95.447509766 78.598693848 12.963000298  -999.250000 14.837576866 0.0430000015
 2495.4255371 6.0000000000 8.3190002441  -999.250000 -0.067000002  -999.250000 0.3099855781  -999.250000 94.840545654 78.525390625 13.251537323  -999.250000 15.156787872 0.0430000015
 2495.5778809 6.0000000000 8.2760000229  -999.250000 -0.066000000  -999.250000 0.3010064065  -999.250000 95.443115234 78.634300232 13.632390022  -999.250000 15.454557419 0.0430000015
 2495.7302246 6.0000000000 8.2790002823  -999.250000 -0.068000004  -999.250000 0.3049935997  -999.250000 97.573211670 78.682662964 13.681921959  -999.250000 15.628048897 0.0430000015
 2495.8828125 6.0000000000 8.2740001678  -999.250000 -0.064000003  -999.250000 0.3010031879  -999.250000 99.469924927 78.623573303 14.024999619  -999.250000 15.954557419 0.0430000015
 2496.0351563 6.0000000000 8.2899999619  -999.250000 -0.066000000  -999.250000 0.3019839525  -999.250000 100.24156952 78.684745789 14.118000031  -999.250000 16.272275925 0.0430000015
 2496.1875000 6.0000000000 8.3170003891  -999.250000 -0.061999999  -999.250000 0.2919999957  -999.250000 101.58461761 78.957550049 14.681097984  -999.250000 16.394060135 0.0430000015
 2496.3398438 6.0000000000 8.3149995804  -999.250000 -0.063000001  -999.250000 0.2919903696  -999.250000 101.51680756 79.101936340 14.467344284  -999.250000 16.086477280 0.0430000015
 2496.4924316 6.0000000000 8.3199996948  -999.250000 -0.061999999  -999.250000 0.2860383987  -999.250000 100.79109192 79.018478394 13.894000053  -999.250000 15.697922707 0.0430000015
 2496.6447754 6.0000000000 8.3170003891  -999.250000 -0.068999998  -999.250000 0.2979967892  -999.250000 97.102241516 78.949584961 13.876999855  -999.250000 15.385149002 0.0430000015
 2496.7971191 5.0000000000 8.3020000458  -999.250000 -0.066000000  -999.250000 0.2960064113  -999.250000 94.548736572 78.906097412 13.379796982  -999.250000 15.062977791 0.0430000015
 2496.9494629 5.0000000000 8.3000001907  -999.250000 -0.066000000  -999.250000 0.2999791801  -999.250000 94.181510925 78.666992188 13.252202988  -999.250000 15.157020569 0.0430000015
 2497.1018066 5.0000000000 8.3090000153  -999.250000 -0.064999998  -999.250000 0.2869631350  -999.250000 93.837196350 78.080978394 13.703550339  -999.250000 15.995059013 0.0430000015
 2497.2543945 5.0000000000 8.2679996490  -999.250000 -0.061000001  -999.250000 0.2639616132  -999.250000 93.102806091 77.035743713 15.074800491  -999.250000 17.634288788 0.0430000015
 2497.4067383 5.0000000000 8.2749996185  -999.250000 -0.057999998  -999.250000 0.2520496845  -999.250000 94.228530884 75.184371948 17.337371826  -999.250000 19.234767914 0.0430000015
 2497.5590820 6.0000000000 8.2629995346  -999.250000 -0.063000001  -999.250000 0.2830528915  -999.250000 97.008674622 74.297004700 17.673465729  -999.250000 19.816499710 0.0430000015
 2497.7114258 6.0000000000 8.2659997940  -999.250000 -0.063000001  -999.250000 0.3160416782  -999.250000 97.987419128 75.119125366 18.074714661  -999.250000 19.682811737 0.0430000015
 2497.8640137 5.0000000000 8.2659997940  -999.250000 -0.061000001  -999.250000 0.3418911994  -999.250000 94.681564331 76.112617493 17.184431076  -999.250000 18.435020447 0.0430000015
 2498.0163574 5.0000000000 8.2760000229  -999.250000 -0.061999999  -999.250000 0.3079775572  -999.250000 93.077713013 77.404251099 14.947587967  -999.250000 16.861097336 0.0430000015
 2498.1687012 5.0000000000 8.2650003433  -999.250000 -0.066000000  -999.250000 0.2939679623  -999.250000 94.948944092 78.325233459 14.185217857  -999.250000 16.154884338 0.0430000015
 2498.3210449 5.0000000000 8.2899999619  -999.250000 -0.057999998  -999.250000 0.2740128040  -999.250000 98.858726501 78.588928223 14.091297150  -999.250000 15.991382599 0.0430000015
 2498.4736328 6.0000000000 8.2950000763  -999.250000 -0.056000002  -999.250000 0.2820447981  -999.250000 101.43045807 78.595275879 13.838405609  -999.250000 16.177806854 0.0430000015
 2498.6259766 6.0000000000 8.3120002747  -999.250000 -0.057999998  -999.250000 0.2960272431  -999.250000 103.11754608 78.147247314 14.544864655  -999.250000 16.836000443 0.0430000015
 2498.7783203 6.0000000000 8.3000001907  -999.250000 -0.059000000  -999.250000 0.3130288422  -999.250000 103.94017792 77.988403320 15.295796394  -999.250000 17.397020340 0.0430000015
 2498.9306641 6.0000000000 8.3059997559  -999.250000 -0.057999998  -999.250000 0.3309679627  -999.250000 105.09600830 78.338844299 15.416807175  -999.250000 17.630020142 0.0430000015
 2499.0830078 7.0000000000 8.3070001602  -999.250000 -0.061999999  -999.250000 0.3109871745  -999.250000 106.16530609 78.286903381 15.578481674  -999.250000 17.813701630 0.0430000015
 2499.2355957 7.0000000000 8.3059997559  -999.250000 -0.068000004  -999.250000 0.3029839993  -999.250000 108.07514191 77.520195007 15.732752800  -999.250000 17.900403976 0.0430000015
 2499.3879395 7.0000000000 8.3020000458  -999.250000 -0.067000002  -999.250000 0.2980288565  -999.250000 108.34948730 76.992546082 15.573256493  -999.250000 17.964345932 0.0430000015
 2499.5402832 7.0000000000 8.3149995804  -999.250000 -0.063000001  -999.250000 0.3160000145  -999.250000 106.42041016 76.883728027 16.038251877  -999.250000 18.513212204 0.0430000015
 2499.6926270 7.0000000000 8.3070001602  -999.250000 -0.057999998  -999.250000 0.3159903884  -999.250000 101.57490540 76.489814758 17.062713623  -999.250000 19.136100769 0.0430000015
 2499.8452148 6.0000000000 8.3290004730  -999.250000 -0.059000000  -999.250000 0.3099040091  -999.250000 92.844627380 75.588882446 17.210767746  -999.250000 19.570558548 0.0430000015
 2499.9975586 6.0000000000 8.3159999847  -999.250000 -0.057999998  -999.250000 0.2799471021  -999.250000 83.576454163 74.166557312 17.543466568  -999.250000 20.881904602 0.0430000015
 2500.1499023 6.0000000000 8.2869997025  -999.250000 -0.050999999  -999.250000 0.2469487190  -999.250000 78.907829285 71.823486328 19.639635086  -999.250000 24.094711304 0.0430000015
 2500.3022461 16.000000000 8.2410001755  -999.250000 -0.045000002  -999.250000 0.2150448710  -999.250000 81.673072815 70.344238281 23.865444183  -999.250000 28.359569550 0.0430000015
 2500.4548340 16.000000000 8.2189998627  -999.250000 -0.048000000  -999.250000 0.2430800050  -999.250000 88.095390320 70.396896362 27.908533096  -999.250000 31.082731247 0.0430000015
 2500.6071777 16.000000000 8.2180004120  -999.250000 -0.046999998  -999.250000 0.2680625021  -999.250000 93.820220947 71.176277161 28.492073059  -999.250000 30.145250320 0.0430000015
 2500.7595215 16.000000000 8.2559995651  -999.250000 -0.039999999  -999.250000 0.3069711626  -999.250000 97.114768982 73.235603333 25.118417740  -999.250000 25.696077347 0.0430000015
 2500.9118652 16.000000000 8.2559995651  -999.250000 -0.041000001  -999.250000 0.2889887989  -999.250000 98.541137695 75.012924194 18.936914444  -999.250000 20.461847305 0.0430000015
 2501.0642090 6.0000000000 8.2609996796  -999.250000 -0.045000002  -999.250000 0.2819871902  -999.250000 97.051063538 76.290138245 15.104271889  -999.250000 17.349201202 0.0430000015
