# LAS format log file from PETREL
# Project units are specified as depth units
#==================================================================
~Version information
VERS.   2.0:
WRAP.   NO:
#==================================================================
~Well
STRT .m      1227.1519775 :
STOP .m      2817.9040527 :
STEP .m     0.00000000 :
NULL .        -999.250000 :
COMP.           : COMPANY
WELL.  36/7-1   : WELL
FLD.            : FIELD
LOC.            : LOCATION
SRVC.           : SERVICE COMPANY
DATE.  2018-09-11 14:49:03   : Log Export Date {yyyy-MM-dd HH:mm:ss}
PROV.           : PROVINCE
UWI.   36/7-1   : UNIQUE WELL ID
API.            : API NUMBER
#==================================================================
~Curve
DEPT .m                   : DEPTH
Lithology_geolink ._      : Lithology_geolink
CALI .in                  : CALI
BS .in                    : BS
DRHO .g/cm3               : DRHO
SGR .gAPI                 : SGR
NPHI .m3/m3               : NPHI
RHOB .g/cm3               : RHOB
GR .gAPI                  : GR
DTC .us/ft                : DTC
RDEP .ohm.m               : RDEP
SP .mV                    : SP
RSHA .ohm.m               : RSHA
RMED .ohm.m               : RMED
~Parameter
#==================================================================
~Ascii
# ...
 1870.8900146 13.000000000 12.251999855 12.250000954 -0.059003204 81.823898315 0.2829999924 2.5370368958 67.277313232 86.901214600 4.8557209969 -173.6157532 4.6653599739 0.0529999994
 1871.0423584 13.000000000 12.265000343 12.250000954 -0.055006411 79.959182739 0.2860000134 2.5474379063 66.460594177 86.476272583 5.0184779167 -172.3750000 4.6787934303 0.0529999994
 1871.1947021 13.000000000 12.256999016 12.250000954 -0.053004805 78.387390137 0.2899999917 2.5528717041 66.568984985 86.350234985 4.8495450020 -172.7339783 4.5230593681 0.0529999994
 1871.3471680 13.000000000 12.262000084 12.250000954 -0.050004810 78.189163208 0.2809999883 2.5547647476 67.195510864 86.758277893 4.6366825104 -174.1389160 4.4061584473 0.0529999994
 1871.4995117 13.000000000 12.265000343 12.250000954 -0.050000001 79.692161560 0.2829999924 2.5450513363 67.347747803 86.822647095 4.5871567726 -175.4328766 4.3978328705 0.0529999994
 1871.6519775 13.000000000 12.251000404 12.250000954 -0.053993590 83.272750854 0.2809999883 2.5326077938 66.943016052 86.273452759 4.6648125648 -174.9757996 4.4567513466 0.0529999994
 1871.8043213 13.000000000 12.265000343 12.250000954 -0.057990391 86.370170593 0.2860000134 2.5222821236 66.450508118 85.936645508 4.8334589005 -174.0160217 4.5374717712 0.0529999994
 1871.9567871 13.000000000 12.256999016 12.250000954 -0.060995191 88.864501953 0.2890000045 2.5209999084 67.534423828 85.978355408 4.8798894882 -173.7794189 4.4475865364 0.0529999994
 1872.1091309 13.000000000 12.263998985 12.250000954 -0.062995195 88.364883423 0.2829999924 2.5199229717 68.831512451 86.534049988 4.5032105446 -175.0162048 4.1137309074 0.0529999994
 1872.2615967 13.000000000 12.266999245 12.250000954 -0.063000001 86.741256714 0.2790000141 2.5176401138 70.378715515 88.008842468 4.0730338097 -176.4100342 3.7647893429 0.0529999994
 1872.4139404 13.000000000 12.251999855 12.250000954 -0.061004806 85.496948242 0.2820000052 2.5116076469 71.281669617 88.983268738 3.7011914253 -176.5986023 3.6258854866 0.0529999994
 1872.5664063 13.000000000 12.263998985 12.250000954 -0.060001601 86.049522400 0.2980000079 2.5009207726 70.296676636 89.069480896 3.8326802254 -175.3253937 3.7556540966 0.0529999994
 1872.7187500 13.000000000 12.263998985 12.250000954 -0.062992796 85.178016663 0.2910000086 2.4979217052 67.528923035 89.010848999 4.1021356583 -175.6419373 3.9441568851 0.0529999994
 1872.8712158 13.000000000 12.260001183 12.250000954 -0.063000001 84.660858154 0.2899999917 2.4992380142 64.821533203 88.694343567 4.2666058540 -176.5180359 4.1151595116 0.0529999994
 1873.0235596 13.000000000 12.256999016 12.250000954 -0.062001601 82.082679749 0.2809999883 2.5060784817 63.285930634 88.461120605 4.4534010887 -176.4380035 4.2136039734 0.0529999994
 1873.1759033 13.000000000 12.262000084 12.250000954 -0.061999999 80.347686768 0.2779999971 2.5097947121 62.597793579 88.375663757 4.4141283035 -176.8641052 4.1294765472 0.0529999994
 1873.3283691 13.000000000 12.251999855 12.250000954 -0.061001603 80.128105164 0.2770000100 2.5144379139 61.116504669 88.513511658 4.2325825691 -177.4452515 3.9460361004 0.0529999994
 1873.4807129 13.000000000 12.265000343 12.250000954 -0.057009608 81.617561340 0.2809999883 2.5126922131 60.234767914 89.048919678 4.0296502113 -177.0130005 3.7896692753 0.0529999994
 1873.6331787 13.000000000 12.256999016 12.250000954 -0.058996797 82.223037720 0.2870000005 2.5050001144 60.543113708 89.680664063 3.8754932880 -176.0490875 3.7061338425 0.0529999994
 1873.7855225 13.000000000 12.267999649 12.250000954 -0.056007206 82.227905273 0.2809999883 2.5060770512 60.806793213 90.482627869 3.8939392567 -175.0918427 3.7474410534 0.0529999994
 1873.9379883 13.000000000 12.253999710 12.250000954 -0.053004809 81.100090027 0.2820000052 2.5072810650 62.147136688 90.323936462 4.0416440964 -176.4870453 3.9402947426 0.0529999994
 1874.0903320 13.000000000 12.270001411 12.250000954 -0.053997599 81.708290100 0.3019999862 2.5034873486 63.488872528 88.453964233 4.3470201492 -177.2392883 4.2075219154 0.0529999994
 1874.2427979 13.000000000 12.277999878 12.250000954 -0.055996798 81.577079773 0.3050000072 2.4961218834 64.770668030 86.876419067 4.6572546959 -176.1005402 4.5063486099 0.0529999994
 1874.3951416 13.000000000 12.267999649 12.250000954 -0.057995193 82.649330139 0.2969999909 2.4945948124 64.940177917 85.823402405 5.0826358795 -175.5449371 4.8449101448 0.0529999994
 1874.5476074 13.000000000 12.286000252 12.250000954 -0.057999998 83.410469055 0.2870000005 2.5049574375 64.813636780 85.218063354 5.3792886734 -175.6026917 5.0345888138 0.0529999994
 1874.6999512 13.000000000 12.277001381 12.250000954 -0.057999998 83.179199219 0.2980000079 2.5163137913 65.109436035 85.411682129 5.3610610962 -175.0909882 5.0469160080 0.0529999994
 1874.8524170 13.000000000 12.270001411 12.250000954 -0.058998398 83.208076477 0.2910000086 2.5207619667 64.935348511 85.542968750 5.3330674171 -174.0478058 5.0493426323 0.0529999994
 1875.0047607 13.000000000 12.288000107 12.250000954 -0.061995190 84.812034607 0.3019999862 2.5153596401 66.302764893 85.562889099 5.3170509338 -173.6430664 5.0306196213 0.0529999994
 1875.1571045 13.000000000 12.270999908 12.250000954 -0.063995197 86.763359070 0.3000000119 2.5163590908 67.407951355 85.703712463 5.2432370186 -173.8322296 4.9507799149 0.0529999994
 1875.3095703 13.000000000 12.279999733 12.250000954 -0.064998396 88.157714844 0.3179999888 2.5187973976 68.951789856 86.060699463 5.1104259491 -175.0542603 4.8605599403 0.0529999994
 1875.4619141 13.000000000 12.276000023 12.250000954 -0.064999998 86.998092651 0.3109999895 2.5198462009 68.238128662 86.231887817 4.9305768013 -175.0065918 4.7977781296 0.0529999994
 1875.6143799 13.000000000 12.288999557 12.250000954 -0.061006412 84.653678894 0.3050000072 2.5160000324 67.042991638 86.071662903 4.9439549446 -171.7541504 4.7983708382 0.0529999994
 1875.7667236 13.000000000 12.277999878 12.250000954 -0.063992798 82.780059814 0.3050000072 2.5170769691 66.027824402 86.053550720 4.9928431511 -171.0532074 4.8230834007 0.0529999994
 1875.9191895 13.000000000 11.857000351 12.250000954 -0.059008013 82.259666443 0.2939999998 2.5204379559 65.748008728 86.289184570 4.9441175461 -172.4875183 4.8018717766 0.0529991984
 1876.0715332 13.000000000 12.276000023 12.250000954 -0.057004806 81.839904785 0.2899999917 2.5197691917 65.987869263 86.457916260 4.9220705032 -172.8897400 4.7721939087 0.0520000011
 1876.2239990 13.000000000 12.282999992 12.250000954 -0.057998396 80.316276550 0.3019999862 2.5154378414 65.817565918 86.507553101 4.9958219528 -172.8905182 4.8462066650 0.0520008020
 1876.3763428 13.000000000 12.277999878 12.250000954 -0.060992796 78.536170959 0.3100000024 2.5244615078 65.482742310 85.376480103 5.0647792816 -171.7564087 5.1109895706 0.0529999994
 1876.5288086 13.000000000 12.279000282 12.250000954 -0.054011218 79.345115662 0.2930000126 2.5467932224 64.754386902 82.134452820 5.7224159241 -170.7850494 5.6492323875 0.0529999994
 1876.6811523 13.000000000 12.274999619 12.250000954 -0.051007204 80.281303406 0.2610000074 2.5624051094 62.604038239 79.835304260 6.8912496567 -170.4452515 6.0810346603 0.0529999994
 1876.8336182 13.000000000 12.270001411 12.250000954 -0.054993588 80.566062927 0.2529999912 2.5498838425 59.992160797 79.208877563 6.8930048943 -169.2255554 5.9674434662 0.0529983975
 1876.9859619 13.000000000 12.244000435 12.250000954 -0.057995189 80.709571838 0.2899999917 2.5249800682 58.271247864 79.557022095 6.5790090561 -168.5014343 5.4762778282 0.0520008020
 1877.1384277 13.000000000 12.258999825 12.250000954 -0.064988792 81.561515808 0.2980000079 2.4992804527 58.906436920 81.640182495 5.3349947929 -169.0509491 4.9059662819 0.0529999994
 1877.2907715 13.000000000 12.241000175 12.250000954 -0.064001605 81.820411682 0.3089999855 2.4962024689 60.510829926 83.550888062 5.0887813568 -167.9017487 4.6926193237 0.0529991984
 1877.4431152 13.000000000 12.255000114 12.250000954 -0.064997599 79.787628174 0.3030000031 2.4912052155 61.747669220 85.157676697 5.0491247177 -169.2873688 4.6423892975 0.0520000011
