# LAS format log file from PETREL
# Project units are specified as depth units
#==================================================================
~Version information
VERS.   2.0:
WRAP.   NO:
#==================================================================
~Well
STRT .m      1227.1519775 :
STOP .m      2817.9040527 :
STEP .m     0.00000000 :
NULL .        -999.250000 :
COMP.           : COMPANY
WELL.  36/7-1   : WELL
FLD.            : FIELD
LOC.            : LOCATION
SRVC.           : SERVICE COMPANY
DATE.  2018-09-11 14:49:03   : Log Export Date {yyyy-MM-dd HH:mm:ss}
PROV.           : PROVINCE
UWI.   36/7-1   : UNIQUE WELL ID
API.            : API NUMBER
#==================================================================
~Curve
DEPT .m                   : DEPTH
Lithology_geolink ._      : Lithology_geolink
CALI .in                  : CALI
BS .in                    : BS
DRHO .g/cm3               : DRHO
SGR .gAPI                 : SGR
NPHI .m3/m3               : NPHI
RHOB .g/cm3               : RHOB
GR .gAPI                  : GR
DTC .us/ft                : DTC
RDEP .ohm.m               : RDEP
SP .mV                    : SP
RSHA .ohm.m               : RSHA
RMED .ohm.m               : RMED
~Parameter
#==================================================================
~Ascii
# ...
 2286.6374512 4.0000000000 8.1269998550  -999.250000 -0.070000000  -999.250000 0.2499839813  -999.250000 94.337944031 92.209251404 36.605377197  -999.250000 22.203275681 0.0460000001
 2286.7897949 4.0000000000 8.1199998856  -999.250000 -0.075990401  -999.250000 0.2400127947  -999.250000 95.537605286 92.384048462 37.115184784  -999.250000 21.926792145 0.0460000001
 2286.9421387 4.0000000000 8.1219997406  -999.250000 -0.080991991  -999.250000 0.2479999959  -999.250000 96.633842468 92.577003479 35.337852478  -999.250000 21.423906326 0.0460000001
 2287.0944824 4.0000000000 8.1219997406  -999.250000 -0.077006407  -999.250000 0.2430000007  -999.250000 95.882972717 92.802162170 35.018016815  -999.250000 21.795164108 0.0460000001
 2287.2470703 5.0000000000 8.1140003204  -999.250000 -0.074000001  -999.250000 0.2469951808  -999.250000 95.109458923 92.794296265 37.609836578  -999.250000 22.512029648 0.0460000001
 2287.3994141 5.0000000000 8.1239995956  -999.250000 -0.071004800  -999.250000 0.2439920008  -999.250000 92.908309937 92.372207642 37.454254150  -999.250000 22.758411407 0.0460000001
 2287.5517578 4.0000000000 8.1269998550  -999.250000 -0.069003202  -999.250000 0.2389999926  -999.250000 91.447563171 92.156578064 37.986145020  -999.250000 23.094667435 0.0460000001
 2287.7041016 4.0000000000 8.1210002899  -999.250000 -0.073991992  -999.250000 0.2339999974  -999.250000 89.387641907 92.307067871 39.002738953  -999.250000 23.407718658 0.0460000001
 2287.8566895 4.0000000000 8.1230001450  -999.250000 -0.075999998  -999.250000 0.2320144176  -999.250000 88.420066833 92.529960632 39.433311462  -999.250000 23.481872559 0.0460000001
 2288.0090332 4.0000000000 8.1269998550  -999.250000 -0.074000001  -999.250000 0.2409983873  -999.250000 88.965621948 92.880561829 37.669830322  -999.250000 23.332183838 0.0460000001
 2288.1613770 4.0000000000 8.1180000305  -999.250000 -0.078992002  -999.250000 0.2399999946  -999.250000 89.430885315 93.020324707 37.893638611  -999.250000 23.327745438 0.0460000001
 2288.3137207 4.0000000000 8.1250000000  -999.250000 -0.083991989  -999.250000 0.2399999946  -999.250000 88.366683960 92.786193848 38.059471130  -999.250000 23.192346573 0.0460000001
 2288.4663086 4.0000000000 8.1160001755  -999.250000 -0.079000004  -999.250000 0.2380096167  -999.250000 86.743751526 92.562103271 37.316192627  -999.250000 22.976625443 0.0460000001
 2288.6186523 4.0000000000 8.1199998856  -999.250000 -0.077000000  -999.250000 0.2440064102  -999.250000 85.967102051 92.356849670 36.890682220  -999.250000 23.034402847 0.0460000001
 2288.7709961 4.0000000000 8.1269998550  -999.250000 -0.077998400  -999.250000 0.2479984015  -999.250000 86.032173157 92.238716125 37.115638733  -999.250000 23.270023346 0.0460000001
 2288.9233398 4.0000000000 8.1180000305  -999.250000 -0.075004809  -999.250000 0.2469999939  -999.250000 86.281837463 92.275085449 37.481410980  -999.250000 23.513742447 0.0460000001
 2289.0756836 4.0000000000 8.1250000000  -999.250000 -0.073003203  -999.250000 0.2460000068  -999.250000 86.261589050 92.435897827 37.981399536  -999.250000 24.022478104 0.0460000001
 2289.2282715 4.0000000000 8.1230001450  -999.250000 -0.075000003  -999.250000 0.2429967970  -999.250000 85.029899597 92.819549561 39.304878235  -999.250000 24.569667816 0.0460000001
 2289.3806152 4.0000000000 8.1409997940  -999.250000 -0.076996803  -999.250000 0.2409999967  -999.250000 83.389373779 93.411697388 39.983913422  -999.250000 24.692628860 0.0460000001
 2289.5329590 4.0000000000 8.1440000534  -999.250000 -0.075003207  -999.250000 0.2409999967  -999.250000 83.775283813 94.374687195 39.909122467  -999.250000 24.780223846 0.0460000001
 2289.6853027 4.0000000000 8.1529998779  -999.250000 -0.075000003  -999.250000 0.2310000062  -999.250000 85.431716919 94.942131042 40.999496460  -999.250000 25.026012421 0.0460000001
 2289.8378906 4.0000000000 8.1560001373  -999.250000 -0.077000000  -999.250000 0.2350048125  -999.250000 86.553939819 94.807914734 40.797332764  -999.250000 25.405576706 0.0460000001
 2289.9902344 4.0000000000 8.1529998779  -999.250000 -0.075999998  -999.250000 0.2380096167  -999.250000 85.993698120 94.658775330 41.736492157  -999.250000 26.240484238 0.0460000001
 2290.1425781 4.0000000000 8.1499996185  -999.250000 -0.075999998  -999.250000 0.2440000027  -999.250000 86.540222168 94.482810974 41.865795135  -999.250000 26.937067032 0.0460000001
 2290.2949219 4.0000000000 8.1499996185  -999.250000 -0.075999998  -999.250000 0.2440000027  -999.250000 87.983360291 94.304321289 41.810180664  -999.250000 27.150438309 0.0460000001
 2290.4475098 4.0000000000 8.1560001373  -999.250000 -0.072999999  -999.250000 0.2429839820  -999.250000 87.726860046 94.121063232 40.519069672  -999.250000 26.859397888 0.0460000001
 2290.5998535 4.0000000000 8.1529998779  -999.250000 -0.078000002  -999.250000 0.2329887748  -999.250000 86.539459229 93.534484863 40.310333252  -999.250000 26.008392334 0.0460000001
 2290.7521973 4.0000000000 8.1529998779  -999.250000 -0.078000002  -999.250000 0.2259984016  -999.250000 85.770568848 92.232170105 36.649875641  -999.250000 24.557662964 0.0460000001
 2290.9045410 4.0000000000 8.1560001373  -999.250000 -0.075004809  -999.250000 0.2249999940  -999.250000 87.674003601 91.983589172 35.763416290  -999.250000 23.547128677 0.0460000001
 2291.0568848 4.0000000000 8.1499996185  -999.250000 -0.077995196  -999.250000 0.2310000062  -999.250000 90.672767639 93.603637695 35.034336090  -999.250000 22.361679077 0.0460000001
 2291.2094727 4.0000000000 8.1499996185  -999.250000 -0.075000003  -999.250000 0.2410144210  -999.250000 92.493202209 94.641380310 31.638446808  -999.250000 20.971502304 0.0460000001
 2291.3618164 5.0000000000 8.1529998779  -999.250000 -0.071006402  -999.250000 0.2500399947  -999.250000 94.124114990 94.639289856 30.162361145  -999.250000 20.635828018 0.0460000001
 2291.5141602 5.0000000000 8.1549997330  -999.250000 -0.072996795  -999.250000 0.2750000060  -999.250000 93.680290222 92.630096436 30.978685379  -999.250000 21.879219055 0.0460000001
 2291.6665039 5.0000000000 8.1520004272  -999.250000 -0.072001599  -999.250000 0.2579999864  -999.250000 90.875877380 87.061653137 32.933727264  -999.250000 24.864189148 0.0460000001
 2291.8190918 5.0000000000 8.1660003662  -999.250000 -0.059000000  -999.250000 0.2249342948  -999.250000 84.730964661 82.218536377 41.201740265  -999.250000 28.386932373 0.0460000001
 2291.9714355 5.0000000000 8.1829996109  -999.250000 -0.048000000  -999.250000 0.1840144247  -999.250000 80.524803162 78.686424255 44.141304016  -999.250000 29.316125870 0.0460000001
 2292.1237793 16.000000000 8.1829996109  -999.250000 -0.055987202  -999.250000 0.1930560023  -999.250000 81.141494751 78.510673523 42.020408630  -999.250000 27.759103775 0.0460000001
 2292.2761230 16.000000000 8.1260004044  -999.250000 -0.069977567  -999.250000 0.2280000001  -999.250000 83.644035339 84.286880493 39.196056366  -999.250000 24.772443771 0.0460000001
 2292.4287109 16.000000000 8.1230001450  -999.250000 -0.070000000  -999.250000 0.2469935864  -999.250000 84.476959229 88.984733582 33.295455933  -999.250000 22.001132965 0.0460000001
 2292.5810547 4.0000000000 8.1160001755  -999.250000 -0.067000002  -999.250000 0.2429887801  -999.250000 84.237739563 91.744651794 33.518627167  -999.250000 21.723133087 0.0460000001
 2292.7333984 4.0000000000 8.1129999161  -999.250000 -0.070993602  -999.250000 0.2360047996  -999.250000 85.102653503 93.443397522 36.040950775  -999.250000 22.613943100 0.0460000001
 2292.8857422 4.0000000000 8.1079998016  -999.250000 -0.073995195  -999.250000 0.2389999926  -999.250000 85.041282654 93.260330200 37.220115662  -999.250000 23.529731750 0.0460000001
 2293.0380859 4.0000000000 8.1169996262  -999.250000 -0.072003201  -999.250000 0.2460000068  -999.250000 85.079895020 92.936668396 39.196659088  -999.250000 24.288583755 0.0460000001
 2293.1906738 4.0000000000 8.1049995422  -999.250000 -0.072999999  -999.250000 0.2359855771  -999.250000 86.227653503 92.361030579 40.039657593  -999.250000 24.286563873 0.0460000001
