# LAS format log file from PETREL
# Project units are specified as depth units
#==================================================================
~Version information
VERS.   2.0:
WRAP.   NO:
#==================================================================
~Well
STRT .m      1227.1519775 :
STOP .m      2817.9040527 :
STEP .m     0.00000000 :
NULL .        -999.250000 :
COMP.           : COMPANY
WELL.  36/7-1   : WELL
FLD.            : FIELD
LOC.            : LOCATION
SRVC.           : SERVICE COMPANY
DATE.  2018-09-11 14:49:03   : Log Export Date {yyyy-MM-dd HH:mm:ss}
PROV.           : PROVINCE
UWI.   36/7-1   : UNIQUE WELL ID
API.            : API NUMBER
#==================================================================
~Curve
DEPT .m                   : DEPTH
Lithology_geolink ._      : Lithology_geolink
CALI .in                  : CALI
BS .in                    : BS
DRHO .g/cm3               : DRHO
SGR .gAPI                 : SGR
NPHI .m3/m3               : NPHI
RHOB .g/cm3               : RHOB
GR .gAPI                  : GR
DTC .us/ft                : DTC
RDEP .ohm.m               : RDEP
SP .mV                    : SP
RSHA .ohm.m               : RSHA
RMED .ohm.m               : RMED
~Parameter
#==================================================================
~Ascii
# ...
 2078.7636719 13.000000000 12.380999565 12.250000954 -0.060007997 126.35578918 0.3580000103 2.6414015293 93.490333557 88.580268860 5.2393236160 -168.3164063 5.0437369347 0.0520000011
 2078.9160156 13.000000000 12.373999596 12.250000954 -0.055008013 125.86247253 0.3610000014 2.6475431919 96.707077026 89.144889832 5.0456185341 -168.6947174 4.8366990089 0.0520000011
 2079.0683594 13.000000000 12.375000000 12.250000954 -0.059991986 123.35010529 0.3869999945 2.6102499962 101.52125549 90.723091125 4.9233908653 -167.5186310 4.5102849007 0.0520000011
 2079.2209473 13.000000000 12.378999710 12.250000954 -0.068999998 122.58992004 0.4000000060 2.5690319538 106.05559540 94.116676331 4.1554636955 -166.3849945 4.1368622780 0.0520000011
 2079.3732910 13.000000000 12.371000290 12.250000954 -0.064008005 125.21923828 0.3970000148 2.5535535812 108.64225769 96.404624939 4.0732564926 -167.9670105 4.0253238678 0.0520000011
 2079.5256348 13.000000000 12.383999825 12.250000954 -0.066995196 127.24459839 0.4029999971 2.5528030396 109.08525848 96.741546631 4.0550575256 -169.8785095 3.9986536503 0.0520000011
 2079.6779785 13.000000000 12.390000343 12.250000954 -0.067000002 127.20135498 0.3700000048 2.5549182892 107.53058624 96.855651855 4.0549998283 -169.8069916 3.9986057281 0.0520000011
 2079.8305664 13.000000000 12.397999763 12.250000954 -0.066000000 126.41362000 0.3819999993 2.5519134998 105.74591827 96.574180603 4.0799598694 -167.8955536 4.0021934509 0.0520000011
 2079.9829102 13.000000000 12.399000168 12.250000954 -0.068000004 124.78894806 0.3810000122 2.5496382713 103.57548523 96.388984680 4.0311570168 -167.3815765 3.9705126286 0.0520000011
 2080.1352539 13.000000000 12.402999878 12.250000954 -0.069996804 123.12441254 0.3939999938 2.5511634350 101.89435577 96.373718262 3.9801635742 -169.7265778 3.9649198055 0.0520000011
 2080.2875977 13.000000000 12.404000282 12.250000954 -0.067004807 121.40534973 0.3829999864 2.5578846931 98.835922241 96.239234924 4.0617370605 -170.6519318 4.0467214584 0.0520000011
 2080.4401855 13.000000000 12.411999702 12.250000954 -0.072999999 120.31497192 0.3709999919 2.5673460960 95.428588867 95.892776489 4.2247385979 -169.4960938 4.1282734871 0.0520000011
 2080.5925293 13.000000000 12.407000542 12.250000954 -0.067000002 121.26598358 0.3689999878 2.5764486790 94.054321289 95.640281677 4.2040672302 -169.4131775 4.1490931511 0.0520000011
 2080.7448730 13.000000000 12.414999962 12.250000954 -0.063006401 122.52823639 0.3889999986 2.5728528500 95.561744690 95.553436279 4.2687916756 -170.3631897 4.1941571236 0.0520000011
 2080.8972168 13.000000000 12.416000366 12.250000954 -0.065995194 123.35970306 0.3720000088 2.5601971149 98.122589111 95.701858521 4.3248205185 -170.6304321 4.1919617653 0.0520000011
 2081.0495605 13.000000000 12.409000397 12.250000954 -0.066998400 124.40468597 0.3889999986 2.5616874695 100.02185059 96.267486572 4.2442593575 -171.1556549 4.1690001488 0.0520000011
 2081.2021484 13.000000000 12.397999763 12.250000954 -0.061000001 125.65715790 0.3779999912 2.5728974342 100.45800018 96.183113098 4.2549824715 -172.1241760 4.2041316032 0.0520000011
 2081.3544922 13.000000000 12.417000771 12.250000954 -0.069985598 124.85258484 0.3919999897 2.5899329185 101.63973999 94.943557739 4.3568363190 -172.6986084 4.3072881699 0.0520000011
 2081.5068359 13.000000000 12.418000221 12.250000954 -0.073993593 122.33529663 0.3720000088 2.6214568615 103.34445953 94.028244019 4.5107531548 -173.1633606 4.4176669121 0.0520000011
 2081.6591797 13.000000000 12.435000420 12.250000954 -0.071004808 119.93935394 0.3449999988 2.6331491470 104.45517731 93.687927246 4.6096835136 -173.2698517 4.5079040527 0.0520000011
 2081.8117676 13.000000000 12.428999901 12.250000954 -0.075000003 120.16262054 0.3370000124 2.6083238125 103.39028168 93.700576782 4.6459422112 -172.9310913 4.5616226196 0.0520000011
 2081.9641113 13.000000000 12.442999840 12.250000954 -0.078000002 122.07631683 0.3470000029 2.5780446529 100.14777374 94.340644836 4.7188830376 -173.4759979 4.5754804611 0.0520000011
 2082.1164551 13.000000000 12.434000969 12.250000954 -0.080995202 126.28087616 0.3479999900 2.5758988857 98.521354675 94.535621643 4.6770672798 -173.2667084 4.5324907303 0.0520000011
 2082.2687988 13.000000000 12.428000450 12.250000954 -0.067022435 130.19165039 0.3589999974 2.6096200943 100.39482117 93.941322327 4.6301503181 -172.9765778 4.4085483551 0.0520000011
 2082.4213867 13.000000000 12.442999840 12.250000954 -0.054000001 132.26641846 0.3640224338 2.6225833893 103.36481476 94.229415894 4.4423012733 -173.4470978 4.1507105827 0.0520000011
 2082.5737305 13.000000000 12.425999641 12.250000954 -0.046999998 130.57594299 0.3780128062 2.5864422321 105.77059937 96.084915161 3.9447979927 -172.0165405 3.8462564945 0.0520000011
 2082.7260742 13.000000000 12.432000160 12.250000954 -0.054987200 128.48887634 0.3860127926 2.5418751240 106.19294739 97.651855469 3.8251907825 -172.6914063 3.6344006062 0.0520000011
 2082.8784180 13.000000000 12.465000153 12.250000954 -0.053003203 127.51261902 0.3939999938 2.5304903984 106.12974548 98.707069397 3.4915351868 -172.9121399 3.4115545750 0.0520000011
 2083.0307617 13.000000000 12.461999893 12.250000954 -0.051003203 128.82983398 0.3790000081 2.5499327183 106.56438446 99.392417908 3.3454673290 -172.2452087 3.3381247520 0.0520000011
 2083.1833496 13.000000000 12.444001198 12.250000954 -0.050999999 131.27992249 0.3600032330 2.5632755756 108.11963654 99.417320251 3.4178829193 -171.7403717 3.3603460789 0.0520000011
 2083.3356934 13.000000000 12.432999611 12.250000954 -0.053995203 131.02487183 0.3620335758 2.5558528900 109.65581512 99.375518799 3.4519453049 -171.7409973 3.3640160561 0.0520000011
 2083.4880371 13.000000000 12.482999802 12.250000954 -0.042019229 128.32376099 0.3829999864 2.5363461971 111.38387299 99.215499878 3.3891007900 -172.9830780 3.3537404537 0.0520000011
 2083.6403809 13.000000000 12.460000038 12.250000954 -0.039004810 123.44157410 0.4309999943 2.5173940659 111.97985077 98.823287964 3.4009616375 -172.5444946 3.3766121864 0.0520000011
 2083.7929688 13.000000000 12.447999001 12.250000954 -0.039000001 120.64746857 0.4029743671 2.5225896835 110.97531891 98.018013000 3.4399375916 -171.1045532 3.5178000927 0.0520000011
 2083.9453125 13.000000000 12.487999916 12.250000954 -0.029999999 120.76377106 0.3869408071 2.5527632236 107.38935852 97.446197510 3.7774584293 -170.7076263 3.7566795349 0.0520000011
 2084.0976563 13.000000000 12.491000175 12.250000954 -0.031996801 121.37669373 0.3499999940 2.5696394444 103.83166504 97.286087036 4.0415768623 -172.3912201 3.9122116566 0.0520000011
 2084.2500000 13.000000000 12.461001396 12.250000954 -0.045977563 123.74210358 0.3700000048 2.5690000057 100.94302368 97.027458191 4.0629329681 -173.2091370 3.9505896568 0.0520000011
 2084.4025879 13.000000000 12.470000267 12.250000954 -0.056000002 124.78709412 0.3719919920 2.5708107948 99.558975220 96.593444824 4.0909552574 -171.4803619 3.9742686749 0.0510016009
 2084.5549316 13.000000000 12.465000153 12.250000954 -0.055000000 126.67538452 0.3669775724 2.5772595406 99.447883606 96.495719910 4.0850095749 -170.4647217 3.9550096989 0.0520000011
 2084.7072754 13.000000000 12.465000153 12.250000954 -0.058993600 127.26732635 0.3530303836 2.5815534592 101.00684357 96.993118286 4.0530514717 -170.4526215 3.8606569767 0.0520000011
 2084.8596191 13.000000000 12.427000999 12.250000954 -0.059000000 126.56219482 0.3720000088 2.5779182911 102.52997589 97.454399109 3.8623061180 -170.6370239 3.7372307777 0.0520000011
 2085.0119629 13.000000000 12.435999870 12.250000954 -0.059998397 123.86922455 0.3700000048 2.5850143433 103.38266754 97.851623535 3.8281087875 -172.2216339 3.6521344185 0.0520000011
 2085.1645508 13.000000000 12.435000420 12.250000954 -0.055000000 122.82591248 0.3699855804 2.6129519939 104.34676361 97.908912659 3.7361474037 -171.0854645 3.5994968414 0.0520000011
 2085.3168945 13.000000000 12.482000351 12.250000954 -0.052004799 124.28739166 0.3609920144 2.6444864273 104.47115326 97.361602783 3.7120382786 -171.0346069 3.6114230156 0.0520000011
