# LAS format log file from PETREL
# Project units are specified as depth units
#==================================================================
~Version information
VERS.   2.0:
WRAP.   NO:
#==================================================================
~Well
STRT .m      1227.1519775 :
STOP .m      2817.9040527 :
STEP .m     0.00000000 :
NULL .        -999.250000 :
COMP.           : COMPANY
WELL.  36/7-1   : WELL
FLD.            : FIELD
LOC.            : LOCATION
SRVC.           : SERVICE COMPANY
DATE.  2018-09-11 14:49:03   : Log Export Date {yyyy-MM-dd HH:mm:ss}
PROV.           : PROVINCE
UWI.   36/7-1   : UNIQUE WELL ID
API.            : API NUMBER
#==================================================================
~Curve
DEPT .m                   : DEPTH
Lithology_geolink ._      : Lithology_geolink
CALI .in                  : CALI
BS .in                    : BS
DRHO .g/cm3               : DRHO
SGR .gAPI                 : SGR
NPHI .m3/m3               : NPHI
RHOB .g/cm3               : RHOB
GR .gAPI                  : GR
DTC .us/ft                : DTC
RDEP .ohm.m               : RDEP
SP .mV                    : SP
RSHA .ohm.m               : RSHA
RMED .ohm.m               : RMED
~Parameter
#==================================================================
~Ascii
# ...
 1240.5632324  -999.250000 12.281999588 12.250000954  -999.250000 65.666007996  -999.250000  -999.250000 45.795112610 117.49060822  -999.250000  -999.250000 0.1486418247 0.0619999990
 1240.7155762  -999.250000 12.281999588 12.250000954  -999.250000 65.504005432  -999.250000  -999.250000 46.948844910 117.48146820  -999.250000  -999.250000 0.1480000019 0.0619999990
 1240.8680420  -999.250000 12.274999619 12.250000954  -999.250000 65.272117615  -999.250000  -999.250000 48.605205536 117.47232819  -999.250000  -999.250000 0.1483581811 0.0619999990
 1241.0203857  -999.250000 12.281999588 12.250000954  -999.250000 64.052963257  -999.250000  -999.250000 48.943931580 117.46320343  -999.250000  -999.250000 0.1493578851 0.0619999990
 1241.1727295  -999.250000 12.262999535 12.250000954  -999.250000 64.643920898  -999.250000  -999.250000 47.037231445 117.45408630  -999.250000  -999.250000 0.1500000060 0.0619999990
 1241.3251953  -999.250000 12.298999786 12.250000954  -999.250000 66.223731995  -999.250000  -999.250000 44.307418823 117.44496155  -999.250000  -999.250000 0.1500000060 0.0619999990
 1241.4775391  -999.250000 12.253001213 12.250000954  -999.250000 68.084915161  -999.250000  -999.250000 44.212043762 117.43585205  -999.250000  -999.250000 0.1496426314 0.0619999990
 1241.6300049  -999.250000 12.260001183 12.250000954  -999.250000 68.767021179  -999.250000  -999.250000 46.935092926 117.42674255  -999.250000  -999.250000 0.1490000039 0.0619999990
 1241.7823486  -999.250000 12.237000465 12.250000954  -999.250000 67.942619324  -999.250000  -999.250000 51.061031342 117.41764069  -999.250000  -999.250000 0.1493578851 0.0619999990
 1241.9348145  -999.250000 12.255000114 12.250000954  -999.250000 66.056488037  -999.250000  -999.250000 52.216670990 117.40852356  -999.250000  -999.250000 0.1496418267 0.0619999990
 1242.0871582  -999.250000 12.248999596 12.250000954  -999.250000 63.851024628  -999.250000  -999.250000 51.073501587 117.39941406  -999.250000  -999.250000 0.1490000039 0.0619999990
 1242.2396240  -999.250000 12.255000114 12.250000954  -999.250000 61.678810120  -999.250000  -999.250000 48.708686829 117.39031982  -999.250000  -999.250000 0.1490000039 0.0619999990
 1242.3919678  -999.250000 12.260001183 12.250000954  -999.250000 60.326992035  -999.250000  -999.250000 46.920627594 117.38124084  -999.250000  -999.250000 0.1493578851 0.0619999990
 1242.5444336  -999.250000 12.262000084 12.250000954  -999.250000 59.460979462  -999.250000  -999.250000 45.439376831 117.37214661  -999.250000  -999.250000 0.1496418267 0.0619999990
 1242.6967773  -999.250000 12.265999794 12.250000954  -999.250000 59.657230377  -999.250000  -999.250000 44.314609528 117.36306763  -999.250000  -999.250000 0.1490000039 0.0619999990
 1242.8492432  -999.250000 12.267999649 12.250000954  -999.250000 60.062629700  -999.250000  -999.250000 43.105175018 117.35397339  -999.250000  -999.250000 0.1493581831 0.0619999990
 1243.0015869  -999.250000 12.258999825 12.250000954  -999.250000 60.144241333  -999.250000  -999.250000 42.321098328 117.34490967  -999.250000  -999.250000 0.1500000060 0.0619999990
 1243.1540527  -999.250000 12.267999649 12.250000954  -999.250000 58.754707336  -999.250000  -999.250000 42.171421051 117.33586121  -999.250000  -999.250000 0.1492836624 0.0619999990
 1243.3063965  -999.250000 12.267999649 12.250000954  -999.250000 57.374992371  -999.250000  -999.250000 42.569053650 117.32681274  -999.250000  -999.250000 0.1483578831 0.0619999990
 1243.4587402  -999.250000 12.270001411 12.250000954  -999.250000 57.344039917  -999.250000  -999.250000 43.666831970 117.31773376  -999.250000  -999.250000 0.1490000039 0.0619999990
 1243.6112061  -999.250000 12.256999016 12.250000954  -999.250000 57.823654175  -999.250000  -999.250000 44.869419098 117.30865479  -999.250000  -999.250000 0.1490000039 0.0619999990
 1243.7635498  -999.250000 12.260001183 12.250000954  -999.250000 57.340724945  -999.250000  -999.250000 44.447128296 117.29959869  -999.250000  -999.250000 0.1493573785 0.0619999990
 1243.9160156  -999.250000 12.281000137 12.250000954  -999.250000 56.582401276  -999.250000  -999.250000 42.267208099 117.29054260  -999.250000  -999.250000 0.1500000060 0.0619999990
 1244.0683594  -999.250000 12.265999794 12.250000954  -999.250000 57.206954956  -999.250000  -999.250000 41.340076447 117.28149414  -999.250000  -999.250000 0.1496421248 0.0619999990
 1244.2208252  -999.250000 12.270001411 12.250000954  -999.250000 58.432014465  -999.250000  -999.250000 42.180942535 117.27244568  -999.250000  -999.250000 0.1493581831 0.0619999990
 1244.3731689  -999.250000 12.248999596 12.250000954  -999.250000 59.128158569  -999.250000  -999.250000 43.467487335 117.26339722  -999.250000  -999.250000 0.1503578871 0.0619999990
 1244.5256348  -999.250000 12.267999649 12.250000954  -999.250000 59.297462463  -999.250000  -999.250000 43.286663055 117.25435638  -999.250000  -999.250000 0.1506418288 0.0619999990
 1244.6779785  -999.250000 12.277001381 12.250000954  -999.250000 57.663066864  -999.250000  -999.250000 43.561454773 117.24532318  -999.250000  -999.250000 0.1496421248 0.0619999990
 1244.8304443  -999.250000 12.267999649 12.250000954  -999.250000 56.008987427  -999.250000  -999.250000 44.007678986 117.23628235  -999.250000  -999.250000 0.1493581831 0.0619999990
 1244.9827881  -999.250000 12.248999596 12.250000954  -999.250000 55.081954956  -999.250000  -999.250000 44.358379364 117.22726440  -999.250000  -999.250000 0.1496421248 0.0619999990
 1245.1352539  -999.250000 12.265999794 12.250000954  -999.250000 55.307662964  -999.250000  -999.250000 44.261840820 117.21823883  -999.250000  -999.250000 0.1482836604 0.0619999990
 1245.2875977  -999.250000 12.274999619 12.250000954  -999.250000 55.577865601  -999.250000  -999.250000 43.817340851 117.20922089  -999.250000  -999.250000 0.1469999999 0.0619999990
 1245.4399414  -999.250000 12.262000084 12.250000954  -999.250000 56.161975861  -999.250000  -999.250000 42.849021912 117.20020294  -999.250000  -999.250000 0.1480721235 0.0619999990
 1245.5924072  -999.250000 12.263998985 12.250000954  -999.250000 56.530200958  -999.250000  -999.250000 41.920402527 117.19119263  -999.250000  -999.250000 0.1503578871 0.0619999990
 1245.7447510  -999.250000 12.263998985 12.250000954  -999.250000 56.971206665  -999.250000  -999.250000 42.071285248 117.18218231  -999.250000  -999.250000 0.1509999931 0.0619999990
 1245.8972168  -999.250000 12.267999649 12.250000954  -999.250000 55.958248138  -999.250000  -999.250000 43.226646423 117.17315674  -999.250000  -999.250000 0.1513581723 0.0619999990
 1246.0495605  -999.250000 12.276000023 12.250000954  -999.250000 55.208663940  -999.250000  -999.250000 43.963470459 117.16415405  -999.250000  -999.250000 0.1516421139 0.0619999990
 1246.2020264  -999.250000 12.267999649 12.250000954  -999.250000 54.650196075  -999.250000  -999.250000 43.974559784 117.15515137  -999.250000  -999.250000 0.1499254704 0.0619999990
 1246.3543701  -999.250000 12.277999878 12.250000954  -999.250000 54.602519989  -999.250000  -999.250000 43.238033295 117.14616394  -999.250000  -999.250000 0.1480000019 0.0619999990
 1246.5068359  -999.250000 12.267999649 12.250000954  -999.250000 55.854579926  -999.250000  -999.250000 42.469776154 117.13716125  -999.250000  -999.250000 0.1483581811 0.0619999990
 1246.6591797  -999.250000 12.283999443 12.250000954  -999.250000 55.903266907  -999.250000  -999.250000 42.068351746 117.12817383  -999.250000  -999.250000 0.1490000039 0.0619999990
 1246.8116455  -999.250000 12.281999588 12.250000954  -999.250000 56.180782318  -999.250000  -999.250000 41.388748169 117.11918640  -999.250000  -999.250000 0.1490000039 0.0619999990
 1246.9639893  -999.250000 12.276000023 12.250000954  -999.250000 55.878189087  -999.250000  -999.250000 41.473949432 117.11021423  -999.250000  -999.250000 0.1493578851 0.0619999990
 1247.1164551  -999.250000 12.289999962 12.250000954  -999.250000 55.892681122  -999.250000  -999.250000 41.850219727 117.10123444  -999.250000  -999.250000 0.1500000060 0.0619999990
