# LAS format log file from PETREL
# Project units are specified as depth units
#==================================================================
~Version information
VERS.   2.0:
WRAP.   NO:
#==================================================================
~Well
STRT .m      1227.1519775 :
STOP .m      2817.9040527 :
STEP .m     0.00000000 :
NULL .        -999.250000 :
COMP.           : COMPANY
WELL.  36/7-1   : WELL
FLD.            : FIELD
LOC.            : LOCATION
SRVC.           : SERVICE COMPANY
DATE.  2018-09-11 14:49:03   : Log Export Date {yyyy-MM-dd HH:mm:ss}
PROV.           : PROVINCE
UWI.   36/7-1   : UNIQUE WELL ID
API.            : API NUMBER
#==================================================================
~Curve
DEPT .m                   : DEPTH
Lithology_geolink ._      : Lithology_geolink
CALI .in                  : CALI
BS .in                    : BS
DRHO .g/cm3               : DRHO
SGR .gAPI                 : SGR
NPHI .m3/m3               : NPHI
RHOB .g/cm3               : RHOB
GR .gAPI                  : GR
DTC .us/ft                : DTC
RDEP .ohm.m               : RDEP
SP .mV                    : SP
RSHA .ohm.m               : RSHA
RMED .ohm.m               : RMED
~Parameter
#==================================================================
~Ascii
# ...
 2179.3476563 1.0000000000 8.1540002823  -999.250000 -0.084003203  -999.250000 0.1150000021  -999.250000 63.031402588 98.830497742 1669.0314941  -999.250000 825.86077881 0.0480000004
 2179.5002441 1.0000000000 8.1510000229  -999.250000 -0.086000003  -999.250000 0.1250224411  -999.250000 63.179100037 98.726402283 647.57427979  -999.250000 357.64730835 0.0480000004
 2179.6525879 1.0000000000 8.1490001678  -999.250000 -0.090000004  -999.250000 0.1390448660  -999.250000 64.609573364 99.351455688 151.49563599  -999.250000 122.90755463 0.0480000004
 2179.8049316 1.0000000000 8.1549997330  -999.250000 -0.083011195  -999.250000 0.1670559943  -999.250000 68.243728638 101.26922607 98.860214233  -999.250000 70.506355286 0.0480000004
 2179.9572754 1.0000000000 8.1520004272  -999.250000 -0.077009618  -999.250000 0.2020000070  -999.250000 72.853385925 103.18407440 77.277503967  -999.250000 58.229938507 0.0480000004
 2180.1096191 1.0000000000 8.1520004272  -999.250000 -0.071009621  -999.250000 0.2430000007  -999.250000 77.968521118 105.09371185 65.366134644  -999.250000 55.909534454 0.0480000004
 2180.2622070 2.0000000000 8.1510000229  -999.250000 -0.072999999  -999.250000 0.2680096328  -999.250000 82.415962219 106.36999512 70.226135254  -999.250000 63.336013794 0.0480000004
 2180.4145508 4.0000000000 8.1459999084  -999.250000 -0.076993600  -999.250000 0.2739983797  -999.250000 85.226783752 106.51463318 87.017059326  -999.250000 73.035621643 0.0480015986
 2180.5668945 4.0000000000 8.1520004272  -999.250000 -0.077000000  -999.250000 0.2730000019  -999.250000 85.394027710 105.08410645 89.393234253  -999.250000 77.142532349 0.0489999987
 2180.7192383 4.0000000000 8.1529998779  -999.250000 -0.077998400  -999.250000 0.2560000122  -999.250000 81.901237488 100.86028290 86.101585388  -999.250000 81.048660278 0.0480000004
 2180.8718262 16.000000000 8.1579999924  -999.250000 -0.075000003  -999.250000 0.2219407111  -999.250000 75.337043762 100.47700500 95.975128174  -999.250000 88.494148254 0.0480000004
 2181.0241699 16.000000000 8.1719999313  -999.250000 -0.063000001  -999.250000 0.1849823743  -999.250000 70.319259644 106.92305756 109.04604340  -999.250000 95.417221069 0.0480000004
 2181.1765137 16.000000000 8.1730003357  -999.250000 -0.060004797  -999.250000 0.1740255952  -999.250000 70.064308167 112.02026367 119.36147308  -999.250000 103.77897644 0.0480000004
 2181.3288574 16.000000000 8.1780004501  -999.250000 -0.074975967  -999.250000 0.1899999976  -999.250000 72.765876770 114.72550964 141.58271790  -999.250000 117.36704254 0.0480000004
 2181.4814453 2.0000000000 8.1770000458  -999.250000 -0.085000001  -999.250000 0.2019695640  -999.250000 73.658142090 119.38863373 167.24691772  -999.250000 136.99310303 0.0480000004
 2181.6337891 2.0000000000 8.1890001297  -999.250000 -0.086000003  -999.250000 0.1829535216  -999.250000 70.640510559 127.51170349 206.62385559  -999.250000 182.18045044 0.0480000004
 2181.7861328 2.0000000000 8.2060003281  -999.250000 -0.086000003  -999.250000 0.1539503932  -999.250000 65.613815308 130.86334229 313.50354004  -999.250000 314.53979492 0.0480000004
 2181.9384766 1.0000000000 8.2089996338  -999.250000 -0.088995196  -999.250000 0.1230000034  -999.250000 62.643119812 125.75366974 719.36779785  -999.250000 558.71636963 0.0480000004
 2182.0908203 1.0000000000 8.2100000381  -999.250000 -0.089000002  -999.250000 0.1140000001  -999.250000 67.033790588 120.38214111 1547.6729736  -999.250000 700.72357178 0.0480000004
 2182.2434082 1.0000000000 8.2209997177  -999.250000 -0.086000003  -999.250000 0.1270352602  -999.250000 78.117286682 114.53366089 1340.5666504  -999.250000 569.87866211 0.0480016023
 2182.3957520 1.0000000000 8.2460002899  -999.250000 -0.080009595  -999.250000 0.1490224004  -999.250000 87.836639404 108.76403046 756.82147217  -999.250000 410.75173950 0.0489984006
 2182.5480957 2.0000000000 8.2539997101  -999.250000 -0.077004805  -999.250000 0.1630000025  -999.250000 88.618721008 103.11760712 557.95471191  -999.250000 338.67163086 0.0480000004
 2182.7004395 2.0000000000 8.2609996796  -999.250000 -0.077998400  -999.250000 0.1550000012  -999.250000 81.380439758 98.447784424 498.59854126  -999.250000 317.54656982 0.0480000004
 2182.8530273 2.0000000000 8.2639999390  -999.250000 -0.081000000  -999.250000 0.1399935931  -999.250000 72.267501831 95.505073547 511.59085083  -999.250000 325.88986206 0.0480000004
 2183.0053711 1.0000000000 8.2720003128  -999.250000 -0.075999998  -999.250000 0.1360016167  -999.250000 66.209121704 95.718093872 552.71203613  -999.250000 337.85958862 0.0480000004
 2183.1577148 1.0000000000 8.2749996185  -999.250000 -0.075999998  -999.250000 0.1369967908  -999.250000 62.631370544 101.51891327 544.21575928  -999.250000 351.52102661 0.0480000004
 2183.3100586 1.0000000000 8.2779998779  -999.250000 -0.076998398  -999.250000 0.1350000054  -999.250000 60.877079010 105.64455414 607.94635010  -999.250000 393.99850464 0.0480000004
 2183.4626465 1.0000000000 8.2749996185  -999.250000 -0.085000001  -999.250000 0.1229775697  -999.250000 59.225399017 106.80141449 767.87658691  -999.250000 460.03625488 0.0480000004
 2183.6149902 1.0000000000 8.2650003433  -999.250000 -0.089000002  -999.250000 0.1089903787  -999.250000 58.297157288 109.45979309 969.59960938  -999.250000 568.02325439 0.0480000004
 2183.7673340 1.0000000000 8.2629995346  -999.250000 -0.090996802  -999.250000 0.1030047983  -999.250000 57.891345978 114.78414917 1349.8222656  -999.250000 769.44934082 0.0480000004
 2183.9196777 1.0000000000 8.2629995346  -999.250000 -0.089003205  -999.250000 0.1059999987  -999.250000 58.657680511 119.11066437 1976.3721924  -999.250000 980.45629883 0.0480000004
 2184.0720215 1.0000000000 8.2629995346  -999.250000 -0.088001601  -999.250000 0.1080000028  -999.250000 59.900154114 121.66770172 2102.0268555  -999.250000 1067.3901367 0.0480000004
 2184.2246094 1.0000000000 8.2390003204  -999.250000 -0.083999999  -999.250000 0.1089983955  -999.250000 61.029479980 123.48122406 2164.8149414  -999.250000 1083.4577637 0.0489983968
 2184.3769531 1.0000000000 8.2360000610  -999.250000 -0.085996807  -999.250000 0.1080048010  -999.250000 61.574356079 123.96488953 2126.6074219  -999.250000 1055.7933350 0.0480000004
 2184.5292969 1.0000000000 8.2410001755  -999.250000 -0.086998396  -999.250000 0.1110000014  -999.250000 62.573284149 122.93198395 2024.3391113  -999.250000 982.03601074 0.0480000004
 2184.6816406 1.0000000000 8.2340002060  -999.250000 -0.088996798  -999.250000 0.1169999987  -999.250000 64.209403992 119.20968628 1848.4372559  -999.250000 855.55426025 0.0480000004
 2184.8342285 1.0000000000 8.2370004654  -999.250000 -0.090999998  -999.250000 0.1280064136  -999.250000 66.023765564 112.69157410 1526.3929443  -999.250000 676.76470947 0.0480000004
 2184.9865723 1.0000000000 8.2340002060  -999.250000 -0.093000002  -999.250000 0.1319935918  -999.250000 67.310340881 101.23209381 1374.4460449  -999.250000 494.75790405 0.0480000004
 2185.1389160 1.0000000000 8.2299995422  -999.250000 -0.092001602  -999.250000 0.1279936135  -999.250000 70.415992737 93.933143616 1188.0766602  -999.250000 372.24633789 0.0480000004
 2185.2912598 1.0000000000 8.1940002441  -999.250000 -0.092998400  -999.250000 0.1239999980  -999.250000 75.046684265 94.012229919 1234.7421875  -999.250000 355.07827759 0.0480000004
 2185.4438477 1.0000000000 8.1990003586  -999.250000 -0.092000000  -999.250000 0.1220000014  -999.250000 77.429328918 94.058029175 1405.5290527  -999.250000 387.68539429 0.0480000004
 2185.5961914 1.0000000000 8.2089996338  -999.250000 -0.090999998  -999.250000 0.1219887808  -999.250000 73.656517029 94.044471741 1570.5345459  -999.250000 452.35952759 0.0480000004
 2185.7485352 1.0000000000 8.2399997711  -999.250000 -0.090999998  -999.250000 0.1149984002  -999.250000 66.873855591 94.408676147 1911.6198730  -999.250000 561.36322021 0.0480000004
 2185.9008789 1.0000000000 8.2370004654  -999.250000 -0.092996798  -999.250000 0.1140000001  -999.250000 62.110637665 95.442802429 2479.5014648  -999.250000 662.41589355 0.0480000004
