# LAS format log file from PETREL
# Project units are specified as depth units
#==================================================================
~Version information
VERS.   2.0:
WRAP.   NO:
#==================================================================
~Well
STRT .m      1227.1519775 :
STOP .m      2817.9040527 :
STEP .m     0.00000000 :
NULL .        -999.250000 :
COMP.           : COMPANY
WELL.  36/7-1   : WELL
FLD.            : FIELD
LOC.            : LOCATION
SRVC.           : SERVICE COMPANY
DATE.  2018-09-11 14:49:03   : Log Export Date {yyyy-MM-dd HH:mm:ss}
PROV.           : PROVINCE
UWI.   36/7-1   : UNIQUE WELL ID
API.            : API NUMBER
#==================================================================
~Curve
DEPT .m                   : DEPTH
Lithology_geolink ._      : Lithology_geolink
CALI .in                  : CALI
BS .in                    : BS
DRHO .g/cm3               : DRHO
SGR .gAPI                 : SGR
NPHI .m3/m3               : NPHI
RHOB .g/cm3               : RHOB
GR .gAPI                  : GR
DTC .us/ft                : DTC
RDEP .ohm.m               : RDEP
SP .mV                    : SP
RSHA .ohm.m               : RSHA
RMED .ohm.m               : RMED
~Parameter
#==================================================================
~Ascii
# ...
 1656.3106689 6.0000000000 12.524999619 12.250000954 -0.064998396 98.179344177 0.3919863701 2.4197156429 82.441665649 108.62983704 2.4401347637 -188.1432648 2.2619855404 0.0560000017
 1656.4630127 6.0000000000 12.520999908 12.250000954 -0.063004807 99.171630859 0.4249735773 2.4199278355 82.052688599 109.01353455 2.4400000572 -187.9958191 2.2402353287 0.0560000017
 1656.6154785 6.0000000000 12.506999969 12.250000954 -0.063000001 98.842979431 0.4419863820 2.4179999828 80.555290222 109.26634979 2.3991312981 -188.4343719 2.2300000191 0.0560000017
 1656.7678223 5.0000000000 12.517999649 12.250000954 -0.066993594 96.753349304 0.4479952157 2.4162132740 78.711761475 109.28459167 2.3950159550 -189.3933258 2.2296397686 0.0560000017
 1656.9201660 5.0000000000 12.506999969 12.250000954 -0.067000002 95.495079041 0.4340223968 2.4144284725 76.832046509 109.36926270 2.3900201321 -189.0005493 2.2304391861 0.0560000017
 1657.0726318 5.0000000000 12.513999939 12.250000954 -0.065003201 95.419677734 0.4060224295 2.4134263992 74.773674011 109.57312012 2.3670921326 -188.3708191 2.2265148163 0.0560000017
 1657.2249756 5.0000000000 12.513999939 12.250000954 -0.068990387 97.481025696 0.3890272081 2.4098567963 73.410865784 109.65840912 2.3899080753 -188.4285431 2.2182378769 0.0560000017
 1657.3774414 5.0000000000 12.506999969 12.250000954 -0.069998398 97.389045715 0.4379607439 2.4157147408 72.737503052 109.53143311 2.4188838005 -188.9512024 2.2218365669 0.0560000017
 1657.5297852 5.0000000000 12.510999680 12.250000954 -0.070000000 96.570434570 0.4429919720 2.4180712700 72.106597900 109.56497192 2.3990800381 -189.3130035 2.2176396847 0.0560000017
 1657.6822510 5.0000000000 12.529998779 12.250000954 -0.069001600 95.275276184 0.4449983835 2.4160690308 72.358375549 109.88623047 2.3940200806 -189.2011414 2.2097885609 0.0560000017
 1657.8345947 5.0000000000 12.503999710 12.250000954 -0.069997601 94.356178284 0.3900440633 2.4107868671 72.647277832 110.07573700 2.3810520172 -189.2458801 2.1962795258 0.0560000017
 1657.9870605 5.0000000000 12.527999878 12.250000954 -0.068003207 93.502182007 0.3760111928 2.4111368656 74.396812439 110.02959442 2.3690478802 -189.6880035 2.1989662647 0.0560000017
 1658.1394043 5.0000000000 12.520999908 12.250000954 -0.070992798 92.586128235 0.4289575219 2.4110031128 75.291725159 109.89963531 2.3620281219 -189.9113617 2.2153675556 0.0560000017
 1658.2918701 5.0000000000 12.505000114 12.250000954 -0.066008009 93.223808289 0.4220055938 2.4171369076 75.230041504 109.61920166 2.4058237076 -190.2682648 2.2402932644 0.0560000017
 1658.4442139 5.0000000000 12.524999619 12.250000954 -0.067995198 93.355155945 0.4289943874 2.4162883759 74.873413086 109.38503265 2.4149639606 -190.0986633 2.2557206154 0.0560000017
 1658.5966797 5.0000000000 12.506999969 12.250000954 -0.066003203 94.127197266 0.4110144377 2.4197053909 73.963912964 109.23324585 2.4209806919 -189.9601898 2.2631297112 0.0560000017
 1658.7490234 5.0000000000 12.517999649 12.250000954 -0.062006410 96.592674255 0.4119991958 2.4127147198 74.237884521 109.16134644 2.4508798122 -189.6426239 2.2711176872 0.0560000017
 1658.9013672 5.0000000000 12.505000114 12.250000954 -0.054019216 100.34886932 0.4649151266 2.4107861519 76.177032471 109.23238373 2.4111602306 -188.4868622 2.2534079552 0.0560000017
 1659.0538330 6.0000000000 12.529998779 12.250000954 -0.054998398 101.92229462 0.4460152388 2.4078590870 79.433876038 109.31133270 2.4149839878 -187.1162872 2.2320809364 0.0560000017
 1659.2061768 6.0000000000 12.529000282 12.250000954 -0.055000000 101.20543671 0.4330208004 2.4147853851 79.824638367 109.40431976 2.4000601768 -186.4690552 2.2246458530 0.0560000017
 1659.3586426 6.0000000000 12.536999702 12.250000954 -0.055000000 100.82888794 0.3950304687 2.4169278145 79.370933533 109.60649872 2.3661360741 -187.4872589 2.2061970234 0.0560000017
 1659.5109863 6.0000000000 12.513999939 12.250000954 -0.060985588 101.94474030 0.4199599624 2.4100008011 79.562461853 110.00344849 2.3739681244 -187.9202881 2.2019190788 0.0560000017
 1659.6634521 6.0000000000 12.529998779 12.250000954 -0.069985576 103.55619049 0.4389847815 2.4045736790 82.431533813 110.26303864 2.3789799213 -186.5363617 2.2036058903 0.0560000017
 1659.8157959 6.0000000000 12.513999939 12.250000954 -0.070000000 103.30500031 0.4190160334 2.4142138958 84.559806824 110.27645111 2.3630640507 -187.2950897 2.2164852619 0.0560000017
 1659.9682617 6.0000000000 12.512998581 12.250000954 -0.066006407 101.32009125 0.3860264421 2.4214296341 85.721641541 110.23667908 2.3908879757 -187.2679291 2.2290816307 0.0560000017
 1660.1206055 6.0000000000 12.505000114 12.250000954 -0.065002397 100.30059052 0.4199727476 2.4222130775 85.094619751 110.10192108 2.3999640942 -185.2810669 2.2320809364 0.0560000017
 1660.2730713 6.0000000000 12.532999039 12.250000954 -0.067995198 99.586906433 0.4299919903 2.4150631428 81.841781616 110.01162720 2.3820719719 -184.2106934 2.2303941250 0.0560000017
 1660.4254150 6.0000000000 12.503000259 12.250000954 -0.070992798 99.706817627 0.4339967668 2.4112162590 78.769439697 110.00104523 2.4068999290 -185.5945740 2.2175147533 0.0560000017
 1660.5778809 6.0000000000 12.513999939 12.250000954 -0.070001602 98.759208679 0.4260064065 2.4123475552 75.792137146 109.92674255 2.3860671520 -187.2909698 2.2038366795 0.0560000017
 1660.7302246 5.0000000000 12.520999908 12.250000954 -0.074991994 98.109153748 0.4180064201 2.4047148228 73.655097961 109.73867798 2.3640880585 -187.7458191 2.1978383064 0.0560000017
 1660.8826904 5.0000000000 12.517999649 12.250000954 -0.075998396 97.737335205 0.4010136127 2.4034945965 71.442741394 109.57210541 2.3889198303 -187.4685974 2.1954421997 0.0560000017
 1661.0350342 5.0000000000 12.506999969 12.250000954 -0.077996798 97.547424316 0.3790176511 2.4011442661 70.846458435 109.44433594 2.3730640411 -186.9199677 2.1998014450 0.0560000017
 1661.1873779 5.0000000000 12.517999649 12.250000954 -0.076004803 97.455795288 0.3720112145 2.4049999714 72.359077454 109.34351349 2.3680200577 -186.0584259 2.2062380314 0.0560000017
 1661.3398438 5.0000000000 12.503000259 12.250000954 -0.075999998 97.896301270 0.3889863789 2.4089310169 74.122604370 109.29093933 2.3948919773 -185.4421844 2.2091152668 0.0560000017
 1661.4921875 5.0000000000 12.513999939 12.250000954 -0.068019219 99.199234009 0.3989839852 2.4177854061 76.516937256 109.22769928 2.3681082726 -186.2546844 2.1993162632 0.0560000017
 1661.6446533 5.0000000000 12.519001007 12.250000954 -0.065004803 99.947509766 0.4479607642 2.4210000038 78.649772644 109.14518738 2.3510680199 -188.0360565 2.1873941422 0.0560000017
 1661.7969971 5.0000000000 12.496999741 12.250000954 -0.062007204 98.728614807 0.4100608528 2.4199287891 80.716865540 108.81263733 2.3450241089 -188.8885956 2.1918087006 0.0560000017
 1661.9494629 5.0000000000 12.527999878 12.250000954 -0.062998399 97.110771179 0.3900160193 2.4194295406 80.547409058 108.03128052 2.3519718647 -188.3753052 2.2164087296 0.0560000017
 1662.1018066 6.0000000000 12.499000549 12.250000954 -0.060007203 98.626335144 0.3740128279 2.4202132225 78.360420227 107.57249451 2.4017996788 -187.1876068 2.2177133560 0.0560000017
 1662.2542725 6.0000000000 12.524999619 12.250000954 -0.065990381 101.59568787 0.4249591827 2.4116318226 76.483970642 107.69073486 2.3840720654 -186.1524811 2.1968703270 0.0560000017
 1662.4066162 6.0000000000 12.522998810 12.250000954 -0.070987992 104.39247131 0.4080136120 2.4016425610 78.513679504 108.12080383 2.3431642056 -185.6876068 2.1744709015 0.0560000017
 1662.5590820 6.0000000000 12.486000061 12.250000954 -0.071000002 106.45321655 0.4000064135 2.4006421566 81.795516968 109.11060333 2.3180801868 -185.1667633 2.1334471703 0.0560000017
 1662.7114258 6.0000000000 12.498000145 12.250000954 -0.072995193 107.06945038 0.4000000060 2.4082195759 83.812271118 109.76478577 2.2413082123 -186.5405426 2.0851104259 0.0560000017
 1662.8638916 6.0000000000 12.482999802 12.250000954 -0.070004806 106.67989349 0.4279775918 2.4251472950 82.489791870 109.81903076 2.1911602020 -186.8840637 2.0740962029 0.0560000017
