# LAS format log file from PETREL
# Project units are specified as depth units
#==================================================================
~Version information
VERS.   2.0:
WRAP.   NO:
#==================================================================
~Well
STRT .m      1227.1519775 :
STOP .m      2817.9040527 :
STEP .m     0.00000000 :
NULL .        -999.250000 :
COMP.           : COMPANY
WELL.  36/7-1   : WELL
FLD.            : FIELD
LOC.            : LOCATION
SRVC.           : SERVICE COMPANY
DATE.  2018-09-11 14:49:03   : Log Export Date {yyyy-MM-dd HH:mm:ss}
PROV.           : PROVINCE
UWI.   36/7-1   : UNIQUE WELL ID
API.            : API NUMBER
#==================================================================
~Curve
DEPT .m                   : DEPTH
Lithology_geolink ._      : Lithology_geolink
CALI .in                  : CALI
BS .in                    : BS
DRHO .g/cm3               : DRHO
SGR .gAPI                 : SGR
NPHI .m3/m3               : NPHI
RHOB .g/cm3               : RHOB
GR .gAPI                  : GR
DTC .us/ft                : DTC
RDEP .ohm.m               : RDEP
SP .mV                    : SP
RSHA .ohm.m               : RSHA
RMED .ohm.m               : RMED
~Parameter
#==================================================================
~Ascii
# ...
 1555.7265625 6.0000000000 12.520999908 12.250000954 -0.069012009 96.811256409 0.3950216174 2.4031376839 77.897560120 113.73616028 2.0350441933 -194.4960175 1.8681441545 0.0570000000
 1555.8790283 6.0000000000 12.529000282 12.250000954 -0.064008012 98.488334656 0.4139695466 2.4041473866 75.621002197 113.80899048 2.0469615459 -194.3083191 1.8793653250 0.0570000000
 1556.0313721 6.0000000000 12.553001404 12.250000954 -0.061004810 99.418090820 0.4159967899 2.3989999294 75.006622314 113.82781982 2.0440118313 -194.3883972 1.8589671850 0.0570000000
 1556.1837158 6.0000000000 12.557000160 12.250000954 -0.060002401 99.515800476 0.4578991234 2.3989999294 75.696441650 113.74996948 2.0449960232 -195.0841980 1.8636410236 0.0570000000
 1556.3361816 6.0000000000 12.574000359 12.250000954 -0.060998399 101.02005005 0.4500128031 2.4018526077 76.163032532 113.71218872 2.0509760380 -195.0861053 1.8926733732 0.0570000000
 1556.4885254 5.0000000000 12.595000267 12.250000954 -0.061000001 101.05571747 0.4579807818 2.4045059681 76.466262817 113.74615479 2.0968155861 -194.2226715 1.9013589621 0.0570000000
 1556.6409912 5.0000000000 12.597000122 12.250000954 -0.063995197 99.982429504 0.4450208247 2.3942949772 77.559219360 113.70694733 2.1139321327 -194.8257446 1.9196147919 0.0570000000
 1556.7933350 5.0000000000 12.623000145 12.250000954 -0.068987988 97.827079773 0.4539783895 2.3807935715 77.051872253 113.53700256 2.1329238415 -194.6090393 1.9477692842 0.0570000000
 1556.9458008 5.0000000000 12.602999687 12.250000954 -0.070996799 96.804351807 0.4430176318 2.3782091141 75.291748047 113.48527527 2.1369841099 -193.9862518 1.9369671345 0.0570000000
 1557.0981445 5.0000000000 12.645001411 12.250000954 -0.070002399 96.382484436 0.4340215921 2.3882753849 73.051811218 113.64500427 2.1489517689 -195.1062775 1.9394872189 0.0570000000
 1557.2506104 5.0000000000 12.649999619 12.250000954 -0.070000000 96.453346252 0.4519711435 2.3959999084 71.790626526 113.53486633 2.1340601444 -196.2181854 1.9517252445 0.0570000000
 1557.4029541 5.0000000000 12.651000023 12.250000954 -0.074987993 96.533599854 0.4460144341 2.3959999084 72.277526855 112.94243622 2.1499359608 -196.9069519 1.9434708357 0.0570000000
 1557.5554199 5.0000000000 12.678000450 12.250000954 -0.071006410 96.691528320 0.4499935806 2.3927907944 73.946640015 112.47095490 2.1788837910 -195.9788971 1.9744279385 0.0570000000
 1557.7077637 5.0000000000 12.694999695 12.250000954 -0.070002399 96.865791321 0.4150840640 2.3866436481 76.068572998 112.21675873 2.2029039860 -194.3897400 2.0082809925 0.0570000000
 1557.8602295 5.0000000000 12.730999947 12.250000954 -0.066006407 98.431015015 0.4259823561 2.3845736980 76.751091003 111.88574219 2.2229359150 -193.5358582 2.0156345367 0.0570000000
 1558.0125732 5.0000000000 12.727001190 12.250000954 -0.064003207 100.23709869 0.4599455297 2.3830697536 76.261878967 111.41809082 2.2528798580 -192.8626099 2.0292024612 0.0570000000
 1558.1649170 5.0000000000 12.739999771 12.250000954 -0.056019217 101.16961670 0.5098798871 2.3814370632 74.563156128 111.07965851 2.2131602764 -192.6060333 2.0141539574 0.0570000000
 1558.3173828 5.0000000000 12.904001236 12.250000954 -0.058995191 100.23155975 0.5050079823 2.3710777760 73.249588013 110.97269440 2.1950719357 -193.7459717 1.9991112947 0.0570000000
 1558.4697266 5.0000000000 13.567000389 12.250000954 -0.060995195 97.374900818 0.4511297047 2.3632874489 72.742279053 110.95133972 2.2208957672 -193.5359344 2.0175383091 0.0570000000
 1558.6221924 5.0000000000 12.972998619 12.250000954 -0.063995197 96.333854675 0.3771185875 2.3641393185 73.487228394 111.08332825 2.2160201073 -193.0854645 2.0263266563 0.0570000000
 1558.7745361 5.0000000000 12.677000046 12.250000954 -0.061007205 95.726150513 0.3849807680 2.3751256466 75.472236633 111.13716888 2.2448837757 -192.4739380 2.0323588848 0.0570000000
 1558.9270020 5.0000000000 12.800000191 12.250000954 -0.060001601 96.752510071 0.3909903765 2.3890697956 77.258506775 111.05109406 2.2689039707 -191.8672943 2.0659086704 0.0570000000
 1559.0793457 5.0000000000 12.878000259 12.250000954 -0.062992796 97.595184326 0.4239207208 2.3938503265 77.666954041 111.04004669 2.2709918022 -191.1296234 2.0624101162 0.0570000000
 1559.2318115 5.0000000000 12.703001022 12.250000954 -0.065995194 96.598754883 0.4279935956 2.3972170353 75.950454712 111.16341400 2.2421162128 -191.4061737 2.0227317810 0.0570000000
 1559.3841553 5.0000000000 12.581000328 12.250000954 -0.070987992 96.332946777 0.4449591637 2.3929312229 73.697975159 111.39648438 2.2131161690 -191.9327698 2.0108716488 0.0570000000
 1559.5366211 5.0000000000 12.566999435 12.250000954 -0.074993595 95.710899353 0.4499919713 2.3892171383 73.341857910 111.82665253 2.1920840740 -192.0630035 2.0084447861 0.0570000000
 1559.6889648 5.0000000000 12.571000099 12.250000954 -0.075997598 96.151809692 0.4390264452 2.3838622570 74.534744263 112.15255737 2.1720800400 -190.8544159 1.9957189560 0.0570000000
 1559.8414307 5.0000000000 12.566999435 12.250000954 -0.075999998 96.343490601 0.4150384665 2.3832092285 75.228744507 112.29232788 2.1640257835 -189.9108582 2.0193061829 0.0570000000
 1559.9937744 5.0000000000 12.555000305 12.250000954 -0.073004805 96.137199402 0.4010224342 2.3879301548 75.520431519 112.39874268 2.1888997555 -190.6471100 2.0525290966 0.0570000000
 1560.1462402 5.0000000000 12.566999435 12.250000954 -0.073998399 95.379470825 0.3970064223 2.3870711327 75.781570435 112.44562531 2.2169103622 -191.8302612 2.0481953621 0.0570000000
 1560.2985840 5.0000000000 12.543999672 12.250000954 -0.073001601 94.385482788 0.4129743576 2.3861474991 76.605659485 112.52731323 2.2080359459 -192.7191772 2.0649545193 0.0570000000
 1560.4509277 5.0000000000 12.548999786 12.250000954 -0.072999999 92.823715210 0.4070144296 2.3831377029 75.760856628 112.67142487 2.1860883236 -192.2374115 2.0504615307 0.0570000000
 1560.6033936 5.0000000000 12.548999786 12.250000954 -0.072001599 92.514991760 0.3990128040 2.3884263039 72.698348999 112.84724426 2.1860001087 -191.6075745 2.0073266029 0.0570000000
 1560.7557373 5.0000000000 12.541999817 12.250000954 -0.071999997 92.141311646 0.3830384314 2.3895750046 69.679702759 113.07934570 2.1292283535 -191.1919861 1.9950512648 0.0570000000
 1560.9082031 5.0000000000 12.543999672 12.250000954 -0.068006411 92.316864014 0.4079599380 2.3805818558 69.108871460 113.35848999 2.0921480656 -191.9369965 1.9703851938 0.0570000000
 1561.0605469 5.0000000000 12.529000282 12.250000954 -0.071990386 92.095848083 0.4189735651 2.3632993698 70.044464111 113.72111511 2.0800480843 -193.2411499 1.9479743242 0.0570000000
 1561.2130127 5.0000000000 12.560999870 12.250000954 -0.073996797 91.851119995 0.4160048068 2.3554978371 71.947769165 113.69226074 2.1019120216 -193.3845825 1.9844907522 0.0570000000
 1561.3653564 5.0000000000 12.531000137 12.250000954 -0.072004803 89.858673096 0.4239807725 2.3667900562 73.034309387 112.96353912 2.1209239960 -193.0404816 2.0278203487 0.0570000000
 1561.5178223 5.0000000000 12.543999672 12.250000954 -0.068006411 88.533882141 0.4220032096 2.3915259838 73.224243164 112.19409180 2.1877317429 -192.9330750 2.0572693348 0.0570000000
 1561.6701660 5.0000000000 12.541999817 12.250000954 -0.066004805 87.346199036 0.4549207389 2.4265079498 73.622314453 111.35356140 2.2407875061 -192.4109650 2.1084907055 0.0570000000
 1561.8226318 5.0000000000 12.548999786 12.250000954 -0.060009614 89.051307678 0.4180593193 2.4547259808 73.429786682 110.87036133 2.2579452991 -191.4643250 2.1446402073 0.0570000000
 1561.9749756 5.0000000000 12.543999672 12.250000954 -0.058003202 90.140228271 0.4050208330 2.4571378231 73.169532776 111.02713776 2.2699520588 -190.9064789 2.1389672756 0.0570000000
 1562.1274414 5.0000000000 12.548999786 12.250000954 -0.061993595 91.288963318 0.4030031860 2.4322636127 72.325714111 111.17472839 2.2909326553 -190.0659790 2.1454703808 0.0570000000
 1562.2797852 5.0000000000 12.522000313 12.250000954 -0.066991992 91.127426147 0.3840304613 2.4054951668 73.102630615 111.30558014 2.2969758511 -189.3310394 2.1701240540 0.0570000000
