# LAS format log file from PETREL
# Project units are specified as depth units
#==================================================================
~Version information
VERS.   2.0:
WRAP.   NO:
#==================================================================
~Well
STRT .m      1227.1519775 :
STOP .m      2817.9040527 :
STEP .m     0.00000000 :
NULL .        -999.250000 :
COMP.           : COMPANY
WELL.  36/7-1   : WELL
FLD.            : FIELD
LOC.            : LOCATION
SRVC.           : SERVICE COMPANY
DATE.  2018-09-11 14:49:03   : Log Export Date {yyyy-MM-dd HH:mm:ss}
PROV.           : PROVINCE
UWI.   36/7-1   : UNIQUE WELL ID
API.            : API NUMBER
#==================================================================
~Curve
DEPT .m                   : DEPTH
Lithology_geolink ._      : Lithology_geolink
CALI .in                  : CALI
BS .in                    : BS
DRHO .g/cm3               : DRHO
SGR .gAPI                 : SGR
NPHI .m3/m3               : NPHI
RHOB .g/cm3               : RHOB
GR .gAPI                  : GR
DTC .us/ft                : DTC
RDEP .ohm.m               : RDEP
SP .mV                    : SP
RSHA .ohm.m               : RSHA
RMED .ohm.m               : RMED
~Parameter
#==================================================================
~Ascii
# ...
 1448.4368896 16.000000000 12.116000175 12.250000954 -0.057022419 107.26943970 0.3939855695 2.5125811100 78.495620728 114.66191101 2.1530482769 -199.9741364 1.9105384350 0.0579999983
 1448.5893555 16.000000000 12.104000092 12.250000954 -0.063983180 109.51396942 0.3959967792 2.4610769749 82.646827698 117.30913544 2.1112017632 -199.1014709 1.8602290154 0.0579999983
 1448.7416992 16.000000000 12.128999710 12.250000954 -0.069980785 111.70947266 0.4149695337 2.4150383472 88.634735107 119.41767120 2.0074999332 -197.3458710 1.7812116146 0.0579999983
 1448.8941650 16.000000000 12.137000084 12.250000954 -0.062019229 112.39656830 0.4140016139 2.3920080662 92.900703430 120.56225586 1.9234035015 -196.1434326 1.7238807678 0.0579999983
 1449.0465088 16.000000000 12.116000175 12.250000954 -0.065987192 112.10035706 0.4469470978 2.3812170029 92.416267395 121.43910217 1.9229999781 -196.1910400 1.6954038143 0.0579999983
 1449.1988525 6.0000000000 12.134000778 12.250000954 -0.063009620 110.26652527 0.4320360422 2.3758623600 90.178504944 121.83615875 1.9140504599 -198.1281281 1.6746273041 0.0579999983
 1449.3513184 6.0000000000 12.134000778 12.250000954 -0.063000001 109.09162140 0.4469759464 2.3741393089 86.841384888 122.23548126 1.8582692146 -199.2858582 1.6589022875 0.0579999983
 1449.5036621 6.0000000000 12.138999939 12.250000954 -0.062003203 108.05287933 0.4280456305 2.3762185574 85.786346436 122.63802338 1.8142116070 -198.9692993 1.6390457153 0.0579999983
 1449.6561279 6.0000000000 12.138999939 12.250000954 -0.065990381 109.09468842 0.4299967885 2.3740696907 87.349449158 122.56591797 1.8070336580 -198.2198181 1.6237174273 0.0579999983
 1449.8084717 6.0000000000 12.121999741 12.250000954 -0.064006411 109.53582001 0.4200240076 2.3756437302 88.616569519 121.63940430 1.8249135017 -197.3750000 1.6278676987 0.0579999983
 1449.9609375 6.0000000000 12.137000084 12.250000954 -0.064997591 108.46331787 0.4379711449 2.3760697842 87.725929260 120.70436859 1.8389327526 -197.1300354 1.6506148577 0.0579999983
 1450.1132813 6.0000000000 12.131999969 12.250000954 -0.064003207 105.92060089 0.4409928024 2.3815629482 85.708015442 119.75609589 1.8807981014 -196.3092651 1.7013846636 0.0579999983
 1450.2657471 6.0000000000 12.137000084 12.250000954 -0.065995194 106.16742706 0.4469903708 2.3869302273 85.473152161 118.97613525 1.9307597876 -195.9815674 1.7421162128 0.0579999983
 1450.4180908 6.0000000000 12.141000748 12.250000954 -0.067993596 108.96356964 0.4489952028 2.3828623295 86.615844727 118.49990082 1.9578701258 -196.7810516 1.7558759451 0.0579999983
 1450.5705566 6.0000000000 12.142999649 12.250000954 -0.068997592 110.55393982 0.4220432639 2.3765039444 87.536788940 118.18601227 1.9788991213 -197.2188263 1.7581218481 0.0579999983
 1450.7229004 6.0000000000 12.131999969 12.250000954 -0.071990386 110.96377563 0.4110264480 2.3719999790 88.964569092 118.16408539 1.9809902906 -197.5445404 1.7512025833 0.0579999983
 1450.8753662 6.0000000000 12.156999588 12.250000954 -0.072997592 110.51053619 0.3930288553 2.3737828732 90.119682312 118.28304291 1.9909520149 -198.1377563 1.7515977621 0.0579999983
 1451.0277100 6.0000000000 12.145000458 12.250000954 -0.073996797 110.54761505 0.4299407005 2.3762869835 90.660003662 118.65447998 1.9850288630 -198.7285461 1.7464964390 0.0579999983
 1451.1800537 6.0000000000 12.178001404 12.250000954 -0.073003203 110.93457794 0.4379807711 2.3767814636 90.550697327 119.03957367 1.9163867235 -197.5905762 1.7145128250 0.0579999983
 1451.3325195 6.0000000000 12.142999649 12.250000954 -0.072003201 110.66861725 0.4379999936 2.3800001144 89.775962830 119.44953156 1.8960962296 -196.6474609 1.6799799204 0.0579999983
 1451.4848633 6.0000000000 12.131999969 12.250000954 -0.073993593 110.79522705 0.4270264208 2.3800001144 87.403816223 119.16498566 1.8890336752 -196.9106750 1.6453076601 0.0579999983
 1451.6373291 6.0000000000 12.151000977 12.250000954 -0.073003203 108.84107208 0.4319919944 2.3800001144 86.172195435 117.63093567 1.8472017050 -197.5133972 1.6369872093 0.0579999983
 1451.7896729 6.0000000000 12.140000343 12.250000954 -0.072003201 105.59873962 0.4160384536 2.3853442669 86.656059265 115.70412445 1.8300818205 -198.5654755 1.6731026173 0.0579999983
 1451.9421387 6.0000000000 12.130000114 12.250000954 -0.068009622 101.53571320 0.4209919870 2.4092628956 87.191581726 113.06673431 1.9205628633 -199.8130035 1.7197846174 0.0579999983
 1452.0944824 6.0000000000 12.131999969 12.250000954 -0.061022419 100.41579437 0.4180072248 2.4407005310 85.009658813 111.58280182 1.9767308235 -199.6793976 1.7458205223 0.0579999983
 1452.2469482 6.0000000000 12.104000092 12.250000954 -0.058007210 102.67926788 0.4389663637 2.4517130852 81.995338440 112.16970825 2.0038702488 -199.2597198 1.7612353563 0.0579999983
 1452.3992920 16.000000000 12.116000175 12.250000954 -0.056006406 107.50411987 0.4300216138 2.4433803558 82.167709351 113.68518066 2.0328605175 -198.8264923 1.7583845854 0.0579999983
 1452.5517578 16.000000000 12.114000320 12.250000954 -0.055002403 110.81540680 0.4389855862 2.4217212200 84.989227295 116.87381744 1.9513938427 -198.5583191 1.7246514559 0.0579999983
 1452.7041016 16.000000000 12.114000320 12.250000954 -0.058987189 112.34671783 0.4779063165 2.4075868130 87.083572388 119.25592041 1.9151730537 -197.6139221 1.6876862049 0.0579999983
 1452.8565674 16.000000000 12.093001366 12.250000954 -0.061992787 110.97654724 0.4710111916 2.3924341202 87.642082214 120.19306183 1.8891249895 -196.6152802 1.6764022112 0.0579999983
 1453.0089111 6.0000000000 12.114000320 12.250000954 -0.063993596 109.30037689 0.4719983935 2.3824341297 88.239006042 120.67818451 1.8710865974 -198.4138947 1.6628102064 0.0579999983
 1453.1612549 6.0000000000 12.114000320 12.250000954 -0.065993592 107.51307678 0.4131416976 2.3731496334 89.914901733 120.35182953 1.8719943762 -199.8178711 1.6456923485 0.0579999983
 1453.3137207 6.0000000000 12.095999718 12.250000954 -0.071980782 108.38330841 0.3980240524 2.3687131405 91.988670349 120.25078583 1.8570721149 -198.7734680 1.6415948868 0.0579999983
 1453.4660645 6.0000000000 12.124000549 12.250000954 -0.070006408 109.58852386 0.3920144141 2.3728501797 92.006614685 120.55561066 1.8629664183 -197.1981049 1.6594871283 0.0579999983
 1453.6185303 6.0000000000 12.095999718 12.250000954 -0.069003202 109.77282715 0.4309374988 2.3790698051 90.982948303 120.66783905 1.8829038143 -196.3575745 1.6785620451 0.0579999983
 1453.7708740 6.0000000000 12.118000031 12.250000954 -0.067006409 107.65026855 0.4519495666 2.3831377029 90.411224365 120.43304443 1.8820047379 -196.5270691 1.6724102497 0.0579999983
 1453.9233398 6.0000000000 12.093001366 12.250000954 -0.066002406 105.67742157 0.4599871933 2.3859302998 91.421287537 120.20548248 1.8849855661 -196.6880035 1.6624051332 0.0579999983
 1454.0756836 6.0000000000 12.107999802 12.250000954 -0.066996798 106.84597778 0.4510216117 2.3864941597 92.309524536 119.99144745 1.8969422579 -196.6434631 1.6592307091 0.0579999983
 1454.2281494 6.0000000000 12.114000320 12.250000954 -0.068995193 109.57080078 0.4669743776 2.3924262524 92.250350952 119.83979034 1.8999855518 -196.3401489 1.6696733236 0.0579999983
 1454.3804932 6.0000000000 12.099999428 12.250000954 -0.068003207 110.86531067 0.4480456412 2.3935749531 91.282821655 119.80075073 1.8860673904 -195.6483459 1.6794358492 0.0579999983
 1454.5329590 6.0000000000 12.114000320 12.250000954 -0.071990378 110.43441010 0.4140544832 2.3910000324 90.634513855 119.81186676 1.8959519863 -195.6598511 1.6751643419 0.0579999983
 1454.6853027 6.0000000000 12.105999947 12.250000954 -0.072996795 107.48565674 0.4060192108 2.3910000324 88.793754578 119.91292572 1.9019711018 -197.3154755 1.6709086895 0.0579999983
 1454.8377686 6.0000000000 12.114000320 12.250000954 -0.072002403 105.81246948 0.4030047953 2.3927829266 87.857398987 120.04310608 1.9000096321 -198.0948181 1.6727676392 0.0579999983
 1454.9901123 6.0000000000 12.116000175 12.250000954 -0.068012811 105.04544067 0.4349487126 2.3931474686 89.135017395 120.22521973 1.8800961971 -196.6930389 1.6492025852 0.0579999983
