# LAS format log file from PETREL
# Project units are specified as depth units
#==================================================================
~Version information
VERS.   2.0:
WRAP.   NO:
#==================================================================
~Well
STRT .m      1227.1519775 :
STOP .m      2817.9040527 :
STEP .m     0.00000000 :
NULL .        -999.250000 :
COMP.           : COMPANY
WELL.  36/7-1   : WELL
FLD.            : FIELD
LOC.            : LOCATION
SRVC.           : SERVICE COMPANY
DATE.  2018-09-11 14:49:03   : Log Export Date {yyyy-MM-dd HH:mm:ss}
PROV.           : PROVINCE
UWI.   36/7-1   : UNIQUE WELL ID
API.            : API NUMBER
#==================================================================
~Curve
DEPT .m                   : DEPTH
Lithology_geolink ._      : Lithology_geolink
CALI .in                  : CALI
BS .in                    : BS
DRHO .g/cm3               : DRHO
SGR .gAPI                 : SGR
NPHI .m3/m3               : NPHI
RHOB .g/cm3               : RHOB
GR .gAPI                  : GR
DTC .us/ft                : DTC
RDEP .ohm.m               : RDEP
SP .mV                    : SP
RSHA .ohm.m               : RSHA
RMED .ohm.m               : RMED
~Parameter
#==================================================================
~Ascii
# ...
 2809.6743164  -999.250000 8.0659999847  -999.250000 -0.046000000  -999.250000 0.1900048107  -999.250000 49.397571564 72.612327576 5.6429996490  -999.250000 4.2324228287 0.0419999994
 2809.8266602  -999.250000 8.0710000992  -999.250000 -0.052000001  -999.250000 0.1930000037  -999.250000 50.243106842 73.688163757 5.3070721626  -999.250000 3.7924752235 0.0419999994
 2809.9792480  -999.250000 8.0629997253  -999.250000 -0.056000002  -999.250000 0.1929744035  -999.250000 51.608818054 75.164619446 4.6250929832  -999.250000 3.3536345959 0.0419999994
 2810.1315918  -999.250000 8.0659999847  -999.250000 -0.056000002  -999.250000 0.1849951893  -999.250000 52.456424713 77.341835022 3.9221265316  -999.250000 3.0594038963 0.0419999994
 2810.2839355  -999.250000 8.0679998398  -999.250000 -0.059999999  -999.250000 0.1820016056  -999.250000 52.654155731 78.270004272 3.7981972694  -999.250000 3.0386922359 0.0419999994
 2810.4362793  -999.250000 8.0710000992  -999.250000 -0.059999999  -999.250000 0.1830096096  -999.250000 51.736740112 76.998535156 3.7790305614  -999.250000 3.2065472603 0.0419999994
 2810.5888672  -999.250000 8.0659999847  -999.250000 -0.059999999  -999.250000 0.1889808029  -999.250000 50.277954102 75.725250244 4.2911791801  -999.250000 3.4695768356 0.0419999994
 2810.7412109  -999.250000 8.0690002441  -999.250000 -0.057000000  -999.250000 0.1829967946  -999.250000 49.593109131 74.454399109 4.3918399811  -999.250000 3.5701346397 0.0419999994
 2810.8935547  -999.250000 8.0740003586  -999.250000 -0.059000000  -999.250000 0.1809983850  -999.250000 49.575820923 74.020042419 4.3101315498  -999.250000 3.4897885323 0.0419999994
 2811.0458984  -999.250000 8.0670003891  -999.250000 -0.059999999  -999.250000 0.1800048202  -999.250000 49.488491058 75.058822632 4.1502566338  -999.250000 3.2641730309 0.0419999994
 2811.1982422  -999.250000 8.0670003891  -999.250000 -0.059999999  -999.250000 0.1830064058  -999.250000 49.269699097 76.308769226 3.6655552387  -999.250000 2.9557487965 0.0419999994
 2811.3508301  -999.250000 8.0719995499  -999.250000 -0.057999998  -999.250000 0.1869936138  -999.250000 50.084884644 77.935791016 3.1867661476  -999.250000 2.7576730251 0.0419999994
 2811.5031738  -999.250000 8.0699996948  -999.250000 -0.050999999  -999.250000 0.1850096136  -999.250000 52.191501617 78.688095093 3.2429087162  -999.250000 2.7917115688 0.0419999994
 2811.6555176  -999.250000 8.0209999084  -999.250000 -0.048000000  -999.250000 0.1909983903  -999.250000 54.350044250 77.904533386 3.5105705261  -999.250000 2.9456539154 0.0419999994
 2811.8078613  -999.250000 8.0570001602  -999.250000 -0.046000000  -999.250000 0.1899775565  -999.250000 56.314296722 77.317497253 3.6804559231  -999.250000 3.0787248611 0.0419999994
 2811.9604492  -999.250000 8.1140003204  -999.250000 -0.041999999  -999.250000  -999.250000  -999.250000 57.850910187 77.078567505 3.8018062115  -999.250000 3.2048268318 0.0419999994
 2812.1127930  -999.250000 8.1610002518  -999.250000 -0.035999998  -999.250000  -999.250000  -999.250000 58.646320343 76.163566589 4.1554327011  -999.250000 3.4675190449 0.0419999994
 2812.2651367  -999.250000 8.1440000534  -999.250000 -0.046000000  -999.250000  -999.250000  -999.250000 57.778461456 74.057312012 4.6422195435  -999.250000 3.8121345043 0.0419999994
 2812.4174805  -999.250000 8.1160001755  -999.250000 -0.057000000  -999.250000  -999.250000  -999.250000 55.366836548 73.533920288 5.1643261909  -999.250000 4.0865569115 0.0419999994
 2812.5700684  -999.250000 8.1300001144  -999.250000 -0.057000000  -999.250000  -999.250000  -999.250000 53.583496094 75.821151733 5.4475479126  -999.250000 4.2672691345 0.0419999994
 2812.7224121  -999.250000 8.1859998703  -999.250000 -0.067000002  -999.250000  -999.250000  -999.250000 54.759796143 77.550102234 5.9032688141  -999.250000 4.3969035149 0.0419999994
 2812.8747559  -999.250000 8.2030000687  -999.250000 -0.079999998  -999.250000  -999.250000  -999.250000 58.763263702 78.302322388 5.6693768501  -999.250000 4.3632116318 0.0419999994
 2813.0270996  -999.250000 8.1969995499  -999.250000 -0.082999997  -999.250000  -999.250000  -999.250000 65.571907043 79.791534424 5.4064216614  -999.250000 4.3200578690 0.0419999994
 2813.1794434  -999.250000 8.1890001297  -999.250000 -0.078000002  -999.250000  -999.250000  -999.250000 72.023986816 82.587677002 5.1727485657  -999.250000 4.4916625023 0.0419999994
 2813.3320313  -999.250000 8.1909999847  -999.250000 -0.070000000  -999.250000  -999.250000  -999.250000 80.054481506 84.062431335 5.3826618195  -999.250000 5.0590963364 0.0419999994
 2813.4843750  -999.250000 8.1949996948  -999.250000 -0.064999998  -999.250000  -999.250000  -999.250000 87.758323669 83.197753906 6.2490000725  -999.250000 5.6686539650 0.0419999994
 2813.6367188  -999.250000 8.2019996643  -999.250000 -0.068999998  -999.250000  -999.250000  -999.250000 89.272544861 81.987564087 6.0149998665  -999.250000 5.5285768509 0.0419999994
 2813.7890625  -999.250000 8.1920003891  -999.250000 -0.070000000  -999.250000  -999.250000  -999.250000 84.464004517 80.164649963 4.9409999847  -999.250000 4.7921938896 0.0419999994
 2813.9416504  -999.250000 8.1890001297  -999.250000 -0.071000002  -999.250000  -999.250000  -999.250000 74.323509216 78.728813171 4.1050000191  -999.250000 4.3085193634 0.0419999994
 2814.0939941  -999.250000 8.1789999008  -999.250000 -0.068999998  -999.250000  -999.250000  -999.250000 61.567054749 77.982696533 3.9309999943  -999.250000 4.6177496910 0.0419999994
 2814.2463379  -999.250000 8.1780004501  -999.250000 -0.064999998  -999.250000  -999.250000  -999.250000 50.895050049 76.971542358 4.6519999504  -999.250000 6.7990574837 0.0419999994
 2814.3986816  -999.250000 8.1709995270  -999.250000 -0.061999999  -999.250000  -999.250000  -999.250000 40.405696869 75.490386963 8.6770000458  -999.250000 12.159352303 0.0419999994
 2814.5512695  -999.250000 8.1789999008  -999.250000 -0.061000001  -999.250000  -999.250000  -999.250000 30.550981522 74.114845276 18.309999466  -999.250000 18.405576706 0.0419999994
 2814.7036133  -999.250000 8.1739997864  -999.250000 -0.059000000  -999.250000  -999.250000  -999.250000 29.400650024 72.931877136 22.170999527  -999.250000 21.244941711 0.0419999994
 2814.8559570  -999.250000 8.1780004501  -999.250000 -0.057999998  -999.250000  -999.250000  -999.250000 31.569953918 72.170455933 23.388000488  -999.250000 20.760847092 0.0419999994
 2815.0083008  -999.250000 8.1770000458  -999.250000 -0.056000002  -999.250000  -999.250000  -999.250000 36.380779266 72.151405334 20.659999847  -999.250000 17.568229675 0.0419999994
 2815.1606445  -999.250000 8.1759996414  -999.250000 -0.057000000  -999.250000  -999.250000  -999.250000 40.668071747 71.223625183 15.371999741  -999.250000 13.869897842 0.0419999994
 2815.3132324  -999.250000 8.1750001907  -999.250000 -0.059999999  -999.250000  -999.250000  -999.250000 45.536327362 68.680282593 12.850999832  -999.250000 11.902269363 0.0419999994
 2815.4655762  -999.250000 8.1730003357  -999.250000 -0.055000000  -999.250000  -999.250000  -999.250000 50.194782257 65.937393188 12.125000000  -999.250000 11.197500229 0.0419999994
 2815.6179199  -999.250000 8.1759996414  -999.250000 -0.052999999  -999.250000  -999.250000  -999.250000 53.431285858 62.835948944 11.258000374  -999.250000 11.551788330 0.0419999994
 2815.7702637  -999.250000 8.1730003357  -999.250000 -0.050999999  -999.250000  -999.250000  -999.250000 55.316619873 61.245410919 13.718000412  -999.250000 13.291943550 0.0419999994
 2815.9228516  -999.250000 8.1730003357  -999.250000 -0.054000001  -999.250000  -999.250000  -999.250000 56.696929932 62.335964203 16.222999573  -999.250000 14.546211243 0.0419999994
 2816.0751953  -999.250000 8.1719999313  -999.250000 -0.055000000  -999.250000  -999.250000  -999.250000 57.646839142 61.687301636 15.500000000  -999.250000 14.688769341 0.0419999994
 2816.2275391  -999.250000 8.1739997864  -999.250000 -0.054000001  -999.250000  -999.250000  -999.250000 57.426872253 57.978855133 15.895999908  -999.250000 14.993730545 0.0419999994
