# LAS format log file from PETREL
# Project units are specified as depth units
#==================================================================
~Version information
VERS.   2.0:
WRAP.   NO:
#==================================================================
~Well
STRT .m      1227.1519775 :
STOP .m      2817.9040527 :
STEP .m     0.00000000 :
NULL .        -999.250000 :
COMP.           : COMPANY
WELL.  36/7-1   : WELL
FLD.            : FIELD
LOC.            : LOCATION
SRVC.           : SERVICE COMPANY
DATE.  2018-09-11 14:49:03   : Log Export Date {yyyy-MM-dd HH:mm:ss}
PROV.           : PROVINCE
UWI.   36/7-1   : UNIQUE WELL ID
API.            : API NUMBER
#==================================================================
~Curve
DEPT .m                   : DEPTH
Lithology_geolink ._      : Lithology_geolink
CALI .in                  : CALI
BS .in                    : BS
DRHO .g/cm3               : DRHO
SGR .gAPI                 : SGR
NPHI .m3/m3               : NPHI
RHOB .g/cm3               : RHOB
GR .gAPI                  : GR
DTC .us/ft                : DTC
RDEP .ohm.m               : RDEP
SP .mV                    : SP
RSHA .ohm.m               : RSHA
RMED .ohm.m               : RMED
~Parameter
#==================================================================
~Ascii
# ...
 2702.3847656 3.0000000000 8.1079998016  -999.250000 -0.050000001  -999.250000 0.1960608959  -999.250000 81.033882141 74.888916016 5.2459998131  -999.250000 3.4605193138 0.0419999994
 2702.5371094 3.0000000000 8.1149997711  -999.250000 -0.052000001  -999.250000 0.2150096148  -999.250000 79.622550964 75.013648987 5.0560002327  -999.250000 3.2974479198 0.0419999994
 2702.6896973 3.0000000000 8.0920000076  -999.250000 -0.057999998  -999.250000 0.2179903984  -999.250000 75.210205078 75.570816040 4.8070001602  -999.250000 3.0401346684 0.0419999994
 2702.8420410 3.0000000000 8.0959997177  -999.250000 -0.052999999  -999.250000 0.2159487307  -999.250000 72.400016785 76.888969421 4.3850002289  -999.250000 2.7779808044 0.0419999994
 2702.9943848 3.0000000000 8.0880002975  -999.250000 -0.059000000  -999.250000 0.2000000030  -999.250000 71.905876160 78.029342651 4.0409998894  -999.250000 2.5874807835 0.0419999994
 2703.1467285 3.0000000000 8.0950002670  -999.250000 -0.064000003  -999.250000 0.2000064105  -999.250000 72.010215759 78.854461670 3.8740000725  -999.250000 2.4257695675 0.0419999994
 2703.2993164 3.0000000000 8.0920000076  -999.250000 -0.070000000  -999.250000 0.2019903958  -999.250000 72.737777710 79.539527893 3.5230000019  -999.250000 2.2506730556 0.0419999994
 2703.4516602 3.0000000000 8.0880002975  -999.250000 -0.057999998  -999.250000 0.1999952048  -999.250000 73.466506958 79.974304199 3.3210000992  -999.250000 2.1576921940 0.0419999994
 2703.6040039 3.0000000000 8.0930004120  -999.250000 -0.059000000  -999.250000 0.1990224421  -999.250000 72.614227295 80.203590393 3.3870000839  -999.250000 2.1486537457 0.0419999994
 2703.7563477 3.0000000000 8.0900001526  -999.250000 -0.057999998  -999.250000 0.2060064077  -999.250000 71.619842529 80.068473816 3.4700000286  -999.250000 2.1447856426 0.0419999994
 2703.9089355 3.0000000000 8.0909996033  -999.250000 -0.056000002  -999.250000 0.2080192417  -999.250000 69.989288330 79.978652954 3.4170000553  -999.250000 2.1310193539 0.0419999994
 2704.0612793 3.0000000000 8.0909996033  -999.250000 -0.048999999  -999.250000 0.2119663954  -999.250000 68.934806824 79.969207764 3.4670000076  -999.250000 2.1383652687 0.0419999994
 2704.2136230 3.0000000000 8.0950002670  -999.250000 -0.048000000  -999.250000 0.2049839795  -999.250000 68.236625671 80.160308838 3.5060000420  -999.250000 2.1284036636 0.0419999994
 2704.3659668 3.0000000000 8.0880002975  -999.250000 -0.056000002  -999.250000 0.1999775618  -999.250000 67.222816467 80.704589844 3.5150001049  -999.250000 2.0687775612 0.0419999994
 2704.5183105 3.0000000000 8.0920000076  -999.250000 -0.057999998  -999.250000 0.1930064112  -999.250000 66.640777588 81.056076050 3.2679998875  -999.250000 1.9777195454 0.0419999994
 2704.6708984 3.0000000000 8.0950002670  -999.250000 -0.059000000  -999.250000 0.1950143874  -999.250000 66.308609009 81.065666199 3.1659998894  -999.250000 1.9604423046 0.0419999994
 2704.8232422 3.0000000000 8.0880002975  -999.250000 -0.061999999  -999.250000 0.1980096102  -999.250000 67.108711243 80.945449829 3.3329999447  -999.250000 1.9948462248 0.0419999994
 2704.9755859 3.0000000000 8.0900001526  -999.250000 -0.059000000  -999.250000 0.2009871900  -999.250000 68.688423157 80.596664429 3.3369998932  -999.250000 2.0400769711 0.0419999994
 2705.1279297 3.0000000000 8.0930004120  -999.250000 -0.050999999  -999.250000 0.1970064044  -999.250000 69.425460815 80.366165161 3.6310000420  -999.250000 2.1068367958 0.0419999994
 2705.2805176 3.0000000000 8.0889997482  -999.250000 -0.056000002  -999.250000 0.1989471167  -999.250000 68.844268799 80.345382690 3.6949999332  -999.250000 2.0947115421 0.0419999994
 2705.4328613 3.0000000000 8.0930004120  -999.250000 -0.052999999  -999.250000 0.1880047917  -999.250000 67.324768066 80.372688293 3.5299999714  -999.250000 2.0479614735 0.0419999994
 2705.5852051 3.0000000000 8.0889997482  -999.250000 -0.052999999  -999.250000 0.1890096068  -999.250000 65.420318604 80.484611511 3.5720000267  -999.250000 2.0069615841 0.0419999994
 2705.7375488 3.0000000000 8.0950002670  -999.250000 -0.055000000  -999.250000 0.1920064092  -999.250000 64.020484924 80.574203491 3.3559999466  -999.250000 1.9337344170 0.0419999994
 2705.8901367 3.0000000000 8.0930004120  -999.250000 -0.052999999  -999.250000 0.1940144300  -999.250000 62.279541016 80.624290466 3.2290000916  -999.250000 1.8646154404 0.0419999994
 2706.0424805 3.0000000000 8.0889997482  -999.250000 -0.054000001  -999.250000 0.1969759911  -999.250000 59.196815491 80.818626404 3.1600000858  -999.250000 1.7907500267 0.0419983976
 2706.1948242 3.0000000000 8.0889997482  -999.250000 -0.059999999  -999.250000 0.1919807643  -999.250000 55.964885712 81.267135620 2.9210000038  -999.250000 1.7129038572 0.0410000011
 2706.3471680 3.0000000000 8.0930004120  -999.250000 -0.057999998  -999.250000 0.1859903932  -999.250000 54.424915314 81.632560730 2.7720000744  -999.250000 1.6692447662 0.0410000011
 2706.4997559 3.0000000000 8.0900001526  -999.250000 -0.057999998  -999.250000 0.1830192357  -999.250000 54.951305389 81.851005554 2.7400000095  -999.250000 1.6715384722 0.0410000011
 2706.6520996 3.0000000000 8.0930004120  -999.250000 -0.059000000  -999.250000 0.1870144010  -999.250000 55.892318726 82.102470398 2.7929999828  -999.250000 1.7509615421 0.0410000011
 2706.8044434 3.0000000000 8.0909996033  -999.250000 -0.057000000  -999.250000 0.1899999976  -999.250000 55.921352386 82.412712097 3.0120000839  -999.250000 1.9130960703 0.0410000011
 2706.9567871 3.0000000000 8.0869998932  -999.250000 -0.056000002  -999.250000 0.1899551302  -999.250000 55.352806091 82.541992188 3.3740000725  -999.250000 2.1259231567 0.0410000011
 2707.1091309 3.0000000000 8.0810003281  -999.250000 -0.054000001  -999.250000 0.1760096103  -999.250000 54.667564392 82.350372314 3.7239999771  -999.250000 2.3027632236 0.0410000011
 2707.2617188 3.0000000000 8.0729999542  -999.250000 -0.052999999  -999.250000 0.1789615452  -999.250000 55.305446625 82.663597107 3.8059999943  -999.250000 2.3584806919 0.0410000011
 2707.4140625 3.0000000000 8.0989999771  -999.250000 -0.050999999  -999.250000 0.1710720062  -999.250000 57.331508636 83.866706848 3.6400001049  -999.250000 2.3086924553 0.0410000011
 2707.5664063 3.0000000000 8.0920000076  -999.250000 -0.046000000  -999.250000 0.1860192418  -999.250000 59.220397949 84.939361572 3.5559999943  -999.250000 2.1932115555 0.0410000011
 2707.7187500 3.0000000000 8.0860004425  -999.250000 -0.048000000  -999.250000 0.1920609027  -999.250000 59.417350769 85.780670166 3.2130000591  -999.250000 1.9720448256 0.0410000011
 2707.8713379 3.0000000000 8.0869998932  -999.250000 -0.050999999  -999.250000 0.2110528797  -999.250000 58.185356140 86.329444885 2.6760001183  -999.250000 1.7640192509 0.0410000011
 2708.0236816 3.0000000000 8.1049995422  -999.250000 -0.048999999  -999.250000 0.2220240086  -999.250000 57.238975525 86.359344482 2.5390000343  -999.250000 1.7514039278 0.0410000011
 2708.1760254 3.0000000000 8.1090002060  -999.250000 -0.046000000  -999.250000 0.2269647419  -999.250000 56.801948547 85.148445129 2.7809998989  -999.250000 1.9558653831 0.0410000011
 2708.3283691 3.0000000000 8.1120004654  -999.250000 -0.046999998  -999.250000 0.2159262896  -999.250000 58.735889435 81.737182617 3.2909998894  -999.250000 2.4748783112 0.0410000011
 2708.4809570 3.0000000000 8.1129999161  -999.250000 -0.048000000  -999.250000 0.1929471195  -999.250000 62.765403748 78.640716553 4.6409997940  -999.250000 3.5645000935 0.0410000011
 2708.6333008 3.0000000000 8.1099996567  -999.250000 -0.046000000  -999.250000 0.1820047945  -999.250000 67.885330200 76.113708496 7.4489998817  -999.250000 5.0137310028 0.0410000011
 2708.7856445 3.0000000000 8.1059999466  -999.250000 -0.041999999  -999.250000 0.1830480695  -999.250000 71.816238403 74.214584351 10.319999695  -999.250000 5.5977501869 0.0410000011
 2708.9379883 3.0000000000 8.1149997711  -999.250000 -0.043000001  -999.250000 0.1980609000  -999.250000 75.224899292 73.421188354 8.7950000763  -999.250000 4.7648463249 0.0410000011
