# LAS format log file from PETREL
# Project units are specified as depth units
#==================================================================
~Version information
VERS.   2.0:
WRAP.   NO:
#==================================================================
~Well
STRT .m      1227.1519775 :
STOP .m      2817.9040527 :
STEP .m     0.00000000 :
NULL .        -999.250000 :
COMP.           : COMPANY
WELL.  36/7-1   : WELL
FLD.            : FIELD
LOC.            : LOCATION
SRVC.           : SERVICE COMPANY
DATE.  2018-09-11 14:49:03   : Log Export Date {yyyy-MM-dd HH:mm:ss}
PROV.           : PROVINCE
UWI.   36/7-1   : UNIQUE WELL ID
API.            : API NUMBER
#==================================================================
~Curve
DEPT .m                   : DEPTH
Lithology_geolink ._      : Lithology_geolink
CALI .in                  : CALI
BS .in                    : BS
DRHO .g/cm3               : DRHO
SGR .gAPI                 : SGR
NPHI .m3/m3               : NPHI
RHOB .g/cm3               : RHOB
GR .gAPI                  : GR
DTC .us/ft                : DTC
RDEP .ohm.m               : RDEP
SP .mV                    : SP
RSHA .ohm.m               : RSHA
RMED .ohm.m               : RMED
~Parameter
#==================================================================
~Ascii
# ...
 2601.8005371 6.0000000000 8.2489995956  -999.250000 -0.058984000  -999.250000 0.2539214790  -999.250000 83.946693420 70.530670166 16.688552856  -999.250000 19.714696884 0.0419999994
 2601.9531250 16.000000000 8.2690000534  -999.250000 -0.064990379  -999.250000 0.2048752010  -999.250000 78.411323547 66.732536316 22.091335297  -999.250000 26.501764297 0.0419999994
 2602.1054688 16.000000000 8.1960000992  -999.250000 -0.060008012  -999.250000 0.1660064012  -999.250000 73.133514404 64.026168823 31.580781937  -999.250000 35.407638550 0.0419999994
 2602.2578125 16.000000000 8.1800003052  -999.250000 -0.057004809  -999.250000 0.1700400710  -999.250000 69.514457703 63.231758118 41.757686615  -999.250000 40.317249298 0.0419999994
 2602.4101563 16.000000000 8.1879997253  -999.250000 -0.053012799  -999.250000 0.1950528771  -999.250000 70.359191895 63.352710724 39.289974213  -999.250000 34.666336060 0.0419999994
 2602.5627441 16.000000000 8.1890001297  -999.250000 -0.055995192  -999.250000 0.2280928046  -999.250000 76.634735107 65.099708557 25.191617966  -999.250000 23.288974762 0.0419999994
 2602.7150879 16.000000000 8.1599998474  -999.250000 -0.054003205  -999.250000 0.2570368648  -999.250000 84.912651062 67.491233826 15.712179184  -999.250000 15.756686211 0.0419999994
 2602.8674316 6.0000000000 8.1929998398  -999.250000 -0.056995191  -999.250000 0.2800529003  -999.250000 93.473937988 71.022735596 12.107761383  -999.250000 13.035027504 0.0419999994
 2603.0197754 6.0000000000 8.1960000992  -999.250000 -0.057000000  -999.250000 0.3129919767  -999.250000 99.335189819 73.896614075 11.627760887  -999.250000 13.352647781 0.0419999994
 2603.1721191 7.0000000000 8.2060003281  -999.250000 -0.067964807  -999.250000 0.3080240488  -999.250000 104.37284851 75.604293823 13.496000290  -999.250000 14.625173569 0.0419999994
 2603.3247070 7.0000000000 8.1960000992  -999.250000 -0.065004803  -999.250000 0.3229648173  -999.250000 108.64213562 76.539352417 13.755592346  -999.250000 15.232900620 0.0419999994
 2603.4770508 7.0000000000 8.2060003281  -999.250000 -0.060008012  -999.250000 0.3120272458  -999.250000 110.34300232 76.106216431 14.269176483  -999.250000 15.795989990 0.0419999994
 2603.6293945 7.0000000000 8.1960000992  -999.250000 -0.058003202  -999.250000 0.3289647400  -999.250000 109.41623688 75.684371948 14.692321777  -999.250000 16.142282486 0.0419999994
 2603.7817383 7.0000000000 8.1960000992  -999.250000 -0.058996800  -999.250000 0.3070144355  -999.250000 107.11130524 75.282539368 14.626214981  -999.250000 16.077743530 0.0419999994
 2603.9343262 7.0000000000 8.2089996338  -999.250000 -0.054008015  -999.250000 0.3160000145  -999.250000 106.33897400 75.100318909 14.564099312  -999.250000 15.897508621 0.0419999994
 2604.0866699 7.0000000000 8.2019996643  -999.250000 -0.052003205  -999.250000 0.3160144389  -999.250000 105.67005920 75.306610107 14.508090019  -999.250000 15.687071800 0.0419999994
 2604.2390137 7.0000000000 8.2180004120  -999.250000 -0.053996798  -999.250000 0.3249935806  -999.250000 104.61393738 75.511199951 14.487033844  -999.250000 15.656574249 0.0419999994
 2604.3913574 6.0000000000 8.2040004730  -999.250000 -0.055993602  -999.250000 0.3209839761  -999.250000 102.51409912 75.712791443 14.747164726  -999.250000 15.817986488 0.0419999994
 2604.5439453 6.0000000000 8.2019996643  -999.250000 -0.056000002  -999.250000 0.3109807968  -999.250000 100.71913147 75.825088501 15.137374878  -999.250000 16.044858932 0.0419999994
 2604.6962891 6.0000000000 8.2040004730  -999.250000 -0.057996795  -999.250000 0.3049743772  -999.250000 98.436790466 75.779243469 15.398581505  -999.250000 16.326313019 0.0419999994
 2604.8486328 6.0000000000 8.2130002975  -999.250000 -0.054006413  -999.250000 0.2890128195  -999.250000 96.012596130 75.719604492 15.672561646  -999.250000 16.685617447 0.0419999994
 2605.0009766 6.0000000000 8.2080001831  -999.250000 -0.053001601  -999.250000 0.2970128059  -999.250000 94.642364502 75.635681152 16.141248703  -999.250000 17.174877167 0.0419999994
 2605.1533203 5.0000000000 8.2060003281  -999.250000 -0.055990402  -999.250000 0.3050192297  -999.250000 94.224945068 75.584152222 16.670305252  -999.250000 17.632768631 0.0419999994
 2605.3059082 5.0000000000 8.2040004730  -999.250000 -0.056000002  -999.250000 0.3170095980  -999.250000 94.943832397 75.590049744 17.196159363  -999.250000 17.978124619 0.0419999994
 2605.4582520 5.0000000000 8.2100000381  -999.250000 -0.057996795  -999.250000 0.3199887872  -999.250000 96.193542480 75.453010559 17.261894226  -999.250000 18.092077255 0.0419999994
 2605.6105957 6.0000000000 8.2040004730  -999.250000 -0.057999998  -999.250000 0.3129903674  -999.250000 97.760429382 75.064239502 17.139196396  -999.250000 18.023735046 0.0419999994
 2605.7629395 6.0000000000 8.2130002975  -999.250000 -0.056006402  -999.250000 0.3069952130  -999.250000 98.998596191 74.812828064 17.149965286  -999.250000 18.012086868 0.0419999994
 2605.9155273 6.0000000000 8.1999998093  -999.250000 -0.056998398  -999.250000 0.3040255904  -999.250000 98.119400024 74.804992676 17.021205902  -999.250000 18.005996704 0.0419999994
 2606.0678711 6.0000000000 8.2150001526  -999.250000 -0.057000000  -999.250000 0.3119952083  -999.250000 96.797119141 74.827812195 17.108858109  -999.250000 18.064756393 0.0419999994
 2606.2202148 6.0000000000 8.2019996643  -999.250000 -0.057998396  -999.250000 0.3090015948  -999.250000 95.319412231 74.904602051 17.317665100  -999.250000 18.262823105 0.0419999994
 2606.3725586 6.0000000000 8.2130002975  -999.250000 -0.055009600  -999.250000 0.3100160360  -999.250000 96.927986145 74.994155884 17.475494385  -999.250000 18.452554703 0.0419999994
 2606.5251465 6.0000000000 8.2040004730  -999.250000 -0.056996796  -999.250000 0.3199552000  -999.250000 98.232582092 75.106529236 17.702634811  -999.250000 18.751710892 0.0419999994
 2606.6774902 6.0000000000 8.2130002975  -999.250000 -0.058996797  -999.250000 0.3059839606  -999.250000 98.940292358 75.194015503 18.098365784  -999.250000 19.279264450 0.0419999994
 2606.8298340 6.0000000000 8.2100000381  -999.250000 -0.063991994  -999.250000 0.2959952056  -999.250000 96.743843079 75.237976074 18.736976624  -999.250000 19.798608780 0.0419999994
 2606.9821777 6.0000000000 8.2040004730  -999.250000 -0.064000003  -999.250000 0.2930384874  -999.250000 95.720558167 75.349258423 19.078453064  -999.250000 20.161714554 0.0419999994
 2607.1345215 6.0000000000 8.2159996033  -999.250000 -0.063003197  -999.250000 0.3170000017  -999.250000 97.649963379 75.579940796 19.277362823  -999.250000 20.352926254 0.0419999994
 2607.2871094 6.0000000000 8.2110004425  -999.250000 -0.061003204  -999.250000 0.3169327974  -999.250000 99.978416443 75.699333191 19.340898514  -999.250000 20.455921173 0.0419999994
 2607.4394531 6.0000000000 8.2270002365  -999.250000 -0.056008015  -999.250000 0.2959952056  -999.250000 100.77509308 75.621719360 19.267118454  -999.250000 20.483079910 0.0419999994
 2607.5917969 6.0000000000 8.2139997482  -999.250000 -0.054003205  -999.250000 0.2930176556  -999.250000 99.959793091 75.517250061 19.206096649  -999.250000 20.436363220 0.0419999994
 2607.7441406 6.0000000000 8.2279996872  -999.250000 -0.050012801  -999.250000 0.3040032089  -999.250000 99.428329468 75.365150452 19.167123795  -999.250000 20.469596863 0.0419999994
 2607.8967285 6.0000000000 8.2159996033  -999.250000 -0.052995190  -999.250000 0.3059679866  -999.250000 100.38143921 75.342155457 19.218915939  -999.250000 20.477161407 0.0419999994
 2608.0490723 6.0000000000 8.2250003815  -999.250000 -0.052001603  -999.250000 0.2959871888  -999.250000 102.02880096 75.547195435 19.116165161  -999.250000 20.353622437 0.0419999994
 2608.2014160 6.0000000000 8.2189998627  -999.250000 -0.054995190  -999.250000 0.2879919708  -999.250000 103.81635284 75.691223145 18.939283371  -999.250000 20.212638855 0.0419999994
 2608.3537598 6.0000000000 8.2290000916  -999.250000 -0.059983999  -999.250000 0.2829935849  -999.250000 103.21175385 75.727073669 18.724689484  -999.250000 20.007823944 0.0419999994
