# LAS format log file from PETREL
# Project units are specified as depth units
#==================================================================
~Version information
VERS.   2.0:
WRAP.   NO:
#==================================================================
~Well
STRT .m      1227.1519775 :
STOP .m      2817.9040527 :
STEP .m     0.00000000 :
NULL .        -999.250000 :
COMP.           : COMPANY
WELL.  36/7-1   : WELL
FLD.            : FIELD
LOC.            : LOCATION
SRVC.           : SERVICE COMPANY
DATE.  2018-09-11 14:49:03   : Log Export Date {yyyy-MM-dd HH:mm:ss}
PROV.           : PROVINCE
UWI.   36/7-1   : UNIQUE WELL ID
API.            : API NUMBER
#==================================================================
~Curve
DEPT .m                   : DEPTH
Lithology_geolink ._      : Lithology_geolink
CALI .in                  : CALI
BS .in                    : BS
DRHO .g/cm3               : DRHO
SGR .gAPI                 : SGR
NPHI .m3/m3               : NPHI
RHOB .g/cm3               : RHOB
GR .gAPI                  : GR
DTC .us/ft                : DTC
RDEP .ohm.m               : RDEP
SP .mV                    : SP
RSHA .ohm.m               : RSHA
RMED .ohm.m               : RMED
~Parameter
#==================================================================
~Ascii
# ...
 1347.8529053 6.0000000000 12.319000244 12.250000954 -0.045995191 118.88274384 0.4559711516 2.3405287266 91.766197205 121.52886963 2.1149663925 -183.1824188 1.7901409864 0.0590000004
 1348.0052490 6.0000000000 12.312000275 12.250000954 -0.038025618 116.97959137 0.4171248972 2.3284218311 92.853187561 121.49792480 2.1478414536 -184.7582855 1.8200745583 0.0590000004
 1348.1575928 6.0000000000 12.340000153 12.250000954 -0.036006410 115.14378357 0.4369359016 2.3352596760 93.966537476 121.37835693 2.1559550762 -187.0792236 1.8348839283 0.0590000004
 1348.3100586 6.0000000000 12.326999664 12.250000954 -0.035999998 113.24387360 0.3931409121 2.3572192192 94.109405518 121.09919739 2.2117307186 -188.0073547 1.8945336342 0.0590000004
 1348.4624023 6.0000000000 12.295999527 12.250000954 -0.039987180 111.54804993 0.4358621836 2.3925840855 93.314369202 120.70240021 2.3054730892 -188.2361755 1.9800577164 0.0590000004
 1348.6148682 6.0000000000 12.315000534 12.250000954 -0.044983990 110.30352783 0.4379935861 2.4131994247 92.075561523 120.09316254 2.3617308140 -186.3437347 2.0375211239 0.0590000004
 1348.7672119 6.0000000000 12.350000381 12.250000954 -0.057958331 109.04112244 0.4449775517 2.4158053398 90.303955078 119.33984375 2.4505720139 -184.7686310 2.0759999752 0.0590000004
 1348.9196777 6.0000000000 12.703001022 12.250000954 -0.064983174 107.69365692 0.4200600684 2.4100000858 87.619125366 118.32577515 2.4569711685 -185.4216003 2.0684676170 0.0590000004
 1349.0720215 6.0000000000 13.262001038 12.250000954 -0.069983989 107.57393646 0.4409327507 2.4131994247 84.641365051 117.25688934 2.4450576305 -187.2387848 2.0524928570 0.0590000004
 1349.2244873 6.0000000000 12.329000473 12.250000954 -0.064014427 107.63018799 0.4410000145 2.4204230309 81.587722778 116.08706665 2.3972306252 -188.5476532 2.0379567146 0.0590000004
 1349.3768311 6.0000000000 12.340999603 12.250000954 -0.065993592 108.61102295 0.4489743710 2.4166014194 79.974166870 115.51952362 2.3999857903 -189.6684875 2.0199999809 0.0590000004
 1349.5292969 6.0000000000 12.345001221 12.250000954 -0.069990382 111.36244965 0.4360312521 2.4106922150 81.517768860 116.03374481 2.3860671520 -190.2905884 2.0117502213 0.0590000004
 1349.6816406 6.0000000000 12.343000412 12.250000954 -0.070000000 111.98031616 0.4270288050 2.4266877174 84.377059937 116.81519318 2.3382308483 -190.6278839 1.9912692308 0.0590000004
 1349.8341064 6.0000000000 12.331000328 12.250000954 -0.062019229 112.21280670 0.4060504735 2.4380674362 87.689598083 118.07890320 2.3370046616 -190.9127655 1.9853042364 0.0590000004
 1349.9864502 6.0000000000 12.350999832 12.250000954 -0.066983990 110.21118927 0.4000192285 2.4304020405 89.287139893 118.91857910 2.3399856091 -189.5659027 1.9833292961 0.0590000004
 1350.1389160 6.0000000000 12.347999573 12.250000954 -0.069992788 109.26327515 0.4179567397 2.4130001068 89.197517395 118.99763489 2.3429856300 -188.2377014 1.9871625900 0.0590000004
 1350.2912598 6.0000000000 12.343000412 12.250000954 -0.068006411 108.87930298 0.4359423518 2.4208207130 87.890548706 118.76283264 2.3867886066 -188.3193512 2.0235674381 0.0590000004
 1350.4436035 6.0000000000 12.354999542 12.250000954 -0.057035256 108.96923065 0.4180577099 2.4403245449 86.767524719 117.96376038 2.3949551582 -189.4799652 2.0217163563 0.0590000004
 1350.5960693 6.0000000000 12.380000114 12.250000954 -0.053012811 111.86647034 0.4000576437 2.4436013699 87.474929810 117.63171387 2.3920142651 -190.0361328 2.0194132328 0.0590000004
 1350.7484131 6.0000000000 12.381999969 12.250000954 -0.050009616 114.73661041 0.3870416582 2.4220609665 89.731964111 118.14128113 2.3740866184 -189.3649139 1.9915095568 0.0590000004
 1350.9008789 6.0000000000 12.385999680 12.250000954 -0.054987982 115.78121185 0.4029615223 2.3940465450 91.634757996 118.91301727 2.3073217869 -187.8379517 1.9386525154 0.0590000004
 1351.0532227 6.0000000000 12.402000427 12.250000954 -0.053006403 115.61184692 0.4259263277 2.3763549328 93.388504028 120.15502930 2.2443027496 -186.6612549 1.9190889597 0.0590000004
 1351.2056885 6.0000000000 12.407000542 12.250000954 -0.053997599 115.38692474 0.4309879839 2.3734424114 94.204246521 120.96991730 2.2330529690 -186.8112946 1.9253370762 0.0590000004
 1351.3580322 6.0000000000 12.411999702 12.250000954 -0.054996796 115.18830109 0.4020928741 2.3652226925 94.660591125 121.01395416 2.2718126774 -187.5527496 1.9202235937 0.0590000004
 1351.5104980 6.0000000000 12.482000351 12.250000954 -0.045024041 114.87399292 0.3640913367 2.3477692604 95.533752441 120.47379303 2.2630431652 -187.6526489 1.9166741371 0.0590000004
 1351.6628418 6.0000000000 12.460000038 12.250000954 -0.033038430 112.63210297 0.3819423616 2.3038702011 95.217613220 118.88667297 2.2212018967 -186.7612152 1.8849567175 0.0590000004
 1351.8153076 6.0000000000 12.461001396 12.250000954 -0.032002404 110.76077271 0.4378653765 2.2660191059 92.974533081 118.35528564 2.1921391487 -185.4747620 1.8619455099 0.0590000004
 1351.9676514 6.0000000000 12.463000298 12.250000954 -0.019041633 109.26739502 0.4549455643 2.2520232201 90.341117859 119.71926117 2.1999616623 -184.7723999 1.8657764196 0.0590000004
 1352.1201172 6.0000000000 12.456000328 12.250000954 -0.012016827 110.77653503 0.4520072043 2.2316153049 88.959243774 121.48236084 2.1870625019 -185.6579590 1.8560544252 0.0590000004
 1352.2724609 6.0000000000 12.423000336 12.250000954 -0.011003203 111.14791107 0.4330608547 2.2017574310 89.604370117 123.95763397 2.1571443081 -187.6767883 1.8765792847 0.0590000004
 1352.4248047 6.0000000000 12.233000755 12.250000954 -0.021964744 110.57656097 0.4629038572 2.1942291260 89.797645569 125.13309479 2.2425179482 -188.5850067 1.9482067823 0.0590000004
 1352.5772705 6.0000000000 12.151000977 12.250000954 -0.030971177 108.38222504 0.4360864460 2.2429935932 89.814476013 123.97029877 2.3096778393 -188.0252991 2.0109560490 0.0590000004
 1352.7296143 6.0000000000 12.239000320 12.250000954 -0.038974360 109.36495972 0.4350032210 2.3237180710 90.652175903 122.13904572 2.4353942871 -187.5368347 2.0727739334 0.0590000004
 1352.8820801 6.0000000000 12.187999725 12.250000954 -0.035012811 111.60315704 0.4090832770 2.3650000095 91.996902466 119.10166168 2.4837694168 -189.0249176 2.1082065105 0.0590000004
 1353.0344238 6.0000000000 12.308000565 12.250000954 -0.047958333 114.40031433 0.4259455204 2.3547058105 92.006874084 117.77590179 2.4392161369 -189.9274902 2.0853004456 0.0590000004
 1353.1868896 6.0000000000 12.305999756 12.250000954 -0.057975959 116.58132172 0.4359759390 2.3466730118 90.853675842 119.52503967 2.3743124008 -190.0945282 2.0550215244 0.0590000004
 1353.3392334 6.0000000000 12.258999825 12.250000954 -0.054012813 117.46678925 0.4399871826 2.3777308464 89.629737854 120.47790527 2.3879327774 -189.7017365 2.0722379684 0.0590000004
 1353.4916992 6.0000000000 12.256999016 12.250000954 -0.049012017 117.31522369 0.4399999976 2.4032692909 91.000312805 120.00106049 2.4128799438 -189.4110565 2.0866413116 0.0590000004
 1353.6440430 6.0000000000 12.269000053 12.250000954 -0.059964772 116.56278229 0.4071056843 2.4102890491 92.390747070 119.46061707 2.4100143909 -189.7167511 2.0748965740 0.0590000004
 1353.7965088 6.0000000000 12.253001213 12.250000954 -0.071971148 115.43121338 0.4189711511 2.4136250019 93.036033630 118.80461121 2.3612353802 -190.9853058 2.0431632996 0.0590000004
 1353.9488525 6.0000000000 12.273999214 12.250000954 -0.072996795 113.83453369 0.4120224118 2.4315979481 91.655120850 118.22881317 2.3540337086 -191.7944336 2.0155529976 0.0590000004
 1354.1013184 6.0000000000 12.265000343 12.250000954 -0.060031250 114.07445526 0.4030216336 2.4546921253 89.603027344 117.79596710 2.3052353859 -191.8529510 1.9943153858 0.0590000004
 1354.2536621 6.0000000000 12.265000343 12.250000954 -0.055016011 115.78009796 0.4129679501 2.4554018974 88.681365967 117.29174042 2.2552404404 -191.2353363 1.9691202641 0.0590000004
 1354.4060059 6.0000000000 12.273999214 12.250000954 -0.058987182 119.36705780 0.4289487004 2.4340953827 89.114654541 116.65851593 2.2589776516 -189.7442932 1.9635893106 0.0590000004
