# LAS format log file from PETREL
# Project units are specified as depth units
#==================================================================
~Version information
VERS.   2.0:
WRAP.   NO:
#==================================================================
~Well
STRT .m      1227.1519775 :
STOP .m      2817.9040527 :
STEP .m     0.00000000 :
NULL .        -999.250000 :
COMP.           : COMPANY
WELL.  36/7-1   : WELL
FLD.            : FIELD
LOC.            : LOCATION
SRVC.           : SERVICE COMPANY
DATE.  2018-09-11 14:49:03   : Log Export Date {yyyy-MM-dd HH:mm:ss}
PROV.           : PROVINCE
UWI.   36/7-1   : UNIQUE WELL ID
API.            : API NUMBER
#==================================================================
~Curve
DEPT .m                   : DEPTH
Lithology_geolink ._      : Lithology_geolink
CALI .in                  : CALI
BS .in                    : BS
DRHO .g/cm3               : DRHO
SGR .gAPI                 : SGR
NPHI .m3/m3               : NPHI
RHOB .g/cm3               : RHOB
GR .gAPI                  : GR
DTC .us/ft                : DTC
RDEP .ohm.m               : RDEP
SP .mV                    : SP
RSHA .ohm.m               : RSHA
RMED .ohm.m               : RMED
~Parameter
#==================================================================
~Ascii
# ...
 2393.9270020 6.0000000000 8.2309999466  -999.250000 -0.055998400  -999.250000 0.3319983780  -999.250000 98.662437439 83.061264038 7.1789822578  -999.250000 6.7489743233 0.0450000018
 2394.0793457 6.0000000000 8.2309999466  -999.250000 -0.056000002  -999.250000 0.3309823573  -999.250000 100.23896790 82.676521301 7.5214500427  -999.250000 7.3377580643 0.0450000018
 2394.2319336 6.0000000000 8.2480001450  -999.250000 -0.055000000  -999.250000 0.3200736046  -999.250000 101.82175446 82.295257568 8.3669996262  -999.250000 8.4216718674 0.0450000018
 2394.3842773 6.0000000000 8.2489995956  -999.250000 -0.056996800  -999.250000 0.3430032134  -999.250000 102.63332367 81.921821594 9.6249837875  -999.250000 10.406227112 0.0450000018
 2394.5366211 6.0000000000 8.2539997101  -999.250000 -0.062990382  -999.250000 0.3449871838  -999.250000 100.98978424 81.694404602 13.349024773  -999.250000 12.989954948 0.0450000018
 2394.6889648 6.0000000000 8.2500000000  -999.250000 -0.063000001  -999.250000 0.3369471133  -999.250000 97.848312378 81.725921631 15.879946709  -999.250000 14.260497093 0.0450000018
 2394.8415527 6.0000000000 8.2650003433  -999.250000 -0.063000001  -999.250000 0.3040480018  -999.250000 96.594871521 81.810829163 14.784000397  -999.250000 13.766288757 0.0450000018
 2394.9938965 6.0000000000 8.2690000534  -999.250000 -0.064999998  -999.250000 0.3190112114  -999.250000 97.089981079 81.989616394 14.145999908  -999.250000 12.702075958 0.0450000018
 2395.1462402 6.0000000000 8.2519998550  -999.250000 -0.064999998  -999.250000 0.3260432780  -999.250000 99.306106567 82.401115417 12.833104134  -999.250000 10.647487640 0.0450000018
 2395.2985840 6.0000000000 8.2370004654  -999.250000 -0.064999998  -999.250000 0.3530063927  -999.250000 99.612075806 83.225303650 8.6027870178  -999.250000 8.7591638565 0.0450000018
 2395.4511719 6.0000000000 8.2299995422  -999.250000 -0.067000002  -999.250000 0.3570255935  -999.250000 99.000556946 83.642303467 9.3800001144  -999.250000 8.7776536942 0.0450000018
 2395.6035156 6.0000000000 8.2399997711  -999.250000 -0.064000003  -999.250000 0.3649775684  -999.250000 98.913612366 83.338554382 9.6070003510  -999.250000 9.0781393051 0.0450000018
 2395.7558594 6.0000000000 8.2239999771  -999.250000 -0.062003199  -999.250000 0.3509391248  -999.250000 99.953575134 82.628356934 9.6988534927  -999.250000 9.7460870743 0.0450000018
 2395.9082031 6.0000000000 8.2290000916  -999.250000 -0.060003202  -999.250000 0.3129535317  -999.250000 98.533424377 81.202392578 12.406654358  -999.250000 10.325284958 0.0450000018
 2396.0605469 5.0000000000 8.2349996567  -999.250000 -0.055008013  -999.250000 0.2839294970  -999.250000 94.457359314 79.339164734 11.430573463  -999.250000 9.5217247009 0.0450000018
 2396.2131348 5.0000000000 8.2500000000  -999.250000 -0.054000001  -999.250000 0.2399647981  -999.250000 90.683853149 76.696296692 9.4379997253  -999.250000 8.5158195496 0.0450000018
 2396.3654785 5.0000000000 8.2580003738  -999.250000 -0.062985599  -999.250000 0.2290000021  -999.250000 88.553176880 74.825981140 8.9607648849  -999.250000 8.0584096909 0.0450000018
 2396.5178223 5.0000000000 8.2530002594  -999.250000 -0.063998401  -999.250000 0.2290272415  -999.250000 86.945251465 74.308723450 8.5596427917  -999.250000 7.6922035217 0.0450000018
 2396.6701660 5.0000000000 8.2700004578  -999.250000 -0.064998396  -999.250000 0.2460128218  -999.250000 85.149108887 74.423202515 7.9559679031  -999.250000 7.1859183311 0.0450000018
 2396.8227539 5.0000000000 8.2729997635  -999.250000 -0.064000003  -999.250000 0.2539840043  -999.250000 86.465957642 75.659950256 7.4310002327  -999.250000 6.5228075981 0.0450000018
 2396.9750977 5.0000000000 8.2799997330  -999.250000 -0.061999999  -999.250000 0.2490128130  -999.250000 90.291137695 77.057701111 6.1399998665  -999.250000 5.7589874268 0.0450000018
 2397.1274414 5.0000000000 8.2720003128  -999.250000 -0.061999999  -999.250000 0.2569919825  -999.250000 93.203224182 78.742485046 5.4650816917  -999.250000 5.2593255043 0.0450000018
 2397.2797852 5.0000000000 8.2980003357  -999.250000 -0.059004810  -999.250000 0.2520032227  -999.250000 96.295288086 79.972671509 5.2223877907  -999.250000 5.0294294357 0.0450000018
 2397.4323730 6.0000000000 8.3190002441  -999.250000 -0.057999998  -999.250000 0.2539744079  -999.250000 98.820793152 80.397369385 4.9980001450  -999.250000 4.9408268929 0.0450000018
 2397.5847168 6.0000000000 8.3179998398  -999.250000 -0.059000000  -999.250000 0.2459983975  -999.250000 100.85271454 80.757118225 5.1240000725  -999.250000 5.0094671249 0.0450000018
 2397.7370605 6.0000000000 8.3290004730  -999.250000 -0.061995201  -999.250000 0.2450096160  -999.250000 99.299858093 81.003677368 5.2478017807  -999.250000 5.1056523323 0.0450000018
 2397.8894043 6.0000000000 8.3610000610  -999.250000 -0.060003202  -999.250000 0.2510032058  -999.250000 97.501884460 81.001045227 5.2480001450  -999.250000 5.3034152985 0.0450000018
 2398.0417480 6.0000000000 8.3520002365  -999.250000 -0.062995195  -999.250000 0.2530224323  -999.250000 97.622703552 80.556488037 5.7791476250  -999.250000 5.7128009796 0.0450000018
 2398.1943359 6.0000000000 8.3559999466  -999.250000 -0.063000001  -999.250000 0.2670191824  -999.250000 100.08542633 80.376358032 6.4320001602  -999.250000 6.0553345680 0.0450000018
 2398.3466797 6.0000000000 8.3479995728  -999.250000 -0.062001597  -999.250000 0.2730240524  -999.250000 101.74003601 80.663856506 6.4919042587  -999.250000 6.1453862190 0.0450000018
 2398.4990234 6.0000000000 8.3479995728  -999.250000 -0.063996799  -999.250000 0.2879727483  -999.250000 100.98154449 80.505554199 6.6836924553  -999.250000 6.3283972740 0.0450000018
 2398.6513672 6.0000000000 8.3400001526  -999.250000 -0.063001603  -999.250000 0.2710080147  -999.250000 96.882011414 79.556701660 7.0494136810  -999.250000 6.6207852364 0.0450000018
 2398.8039551 6.0000000000 8.2690000534  -999.250000 -0.057999998  -999.250000 0.2760095894  -999.250000 91.675025940 78.922851563 7.5300002098  -999.250000 7.1498656273 0.0450000018
 2398.9562988 5.0000000000 8.2589998245  -999.250000 -0.057000000  -999.250000 0.2790881693  -999.250000 89.287467957 78.847915649 8.3839998245  -999.250000 8.0565452576 0.0450000018
 2399.1086426 5.0000000000 8.2659997940  -999.250000 -0.064987198  -999.250000 0.3340144157  -999.250000 89.479881287 78.993354797 10.036351204  -999.250000 9.1669645309 0.0450000018
 2399.2609863 5.0000000000 8.2580003738  -999.250000 -0.060008012  -999.250000 0.3429919779  -999.250000 90.674949646 79.529586792 11.303969383  -999.250000 9.6367502213 0.0450000018
 2399.4135742 5.0000000000 8.2500000000  -999.250000 -0.057999998  -999.250000 0.3378688097  -999.250000 91.203033447 80.026596069 10.258000374  -999.250000 9.0561923981 0.0450000018
 2399.5659180 5.0000000000 8.2550001144  -999.250000 -0.059999999  -999.250000 0.2969839573  -999.250000 91.565628052 80.452163696 9.0649995804  -999.250000 8.4986066818 0.0450000018
 2399.7182617 5.0000000000 8.2589998245  -999.250000 -0.061996799  -999.250000 0.2870176435  -999.250000 93.266571045 80.721450806 8.8872852325  -999.250000 8.4513912201 0.0450000018
 2399.8706055 5.0000000000 8.2539997101  -999.250000 -0.060003202  -999.250000 0.2980112135  -999.250000 94.932563782 80.715530396 9.1805286407  -999.250000 8.6699485779 0.0450000018
 2400.0229492 5.0000000000 8.2559995651  -999.250000 -0.062995195  -999.250000 0.3049920201  -999.250000 96.055076599 80.734138489 9.3397455215  -999.250000 8.8804702759 0.0450000018
 2400.1755371 5.0000000000 8.2500000000  -999.250000 -0.061999999  -999.250000 0.2999743819  -999.250000 95.406974792 80.796333313 9.2629995346  -999.250000 9.1594085693 0.0450000018
 2400.3278809 5.0000000000 8.2510004044  -999.250000 -0.057007998  -999.250000 0.2839967906  -999.250000 94.039329529 80.874008179 9.9439086914  -999.250000 9.6124868393 0.0450000018
 2400.4802246 5.0000000000 8.2569999695  -999.250000 -0.057998396  -999.250000 0.2820288539  -999.250000 92.131584167 80.979095459 10.197594643  -999.250000 9.7375383377 0.0450000018
