# LAS format log file from PETREL
# Project units are specified as depth units
#==================================================================
~Version information
VERS.   2.0:
WRAP.   NO:
#==================================================================
~Well
STRT .m      1227.1519775 :
STOP .m      2817.9040527 :
STEP .m     0.00000000 :
NULL .        -999.250000 :
COMP.           : COMPANY
WELL.  36/7-1   : WELL
FLD.            : FIELD
LOC.            : LOCATION
SRVC.           : SERVICE COMPANY
DATE.  2018-09-11 14:49:03   : Log Export Date {yyyy-MM-dd HH:mm:ss}
PROV.           : PROVINCE
UWI.   36/7-1   : UNIQUE WELL ID
API.            : API NUMBER
#==================================================================
~Curve
DEPT .m                   : DEPTH
Lithology_geolink ._      : Lithology_geolink
CALI .in                  : CALI
BS .in                    : BS
DRHO .g/cm3               : DRHO
SGR .gAPI                 : SGR
NPHI .m3/m3               : NPHI
RHOB .g/cm3               : RHOB
GR .gAPI                  : GR
DTC .us/ft                : DTC
RDEP .ohm.m               : RDEP
SP .mV                    : SP
RSHA .ohm.m               : RSHA
RMED .ohm.m               : RMED
~Parameter
#==================================================================
~Ascii
# ...
 1971.4739990 13.000000000 12.147998810 12.250000954 -0.059002403 103.23894501 0.3659999967 2.4733970165 79.914314270 106.77473450 2.0962786674 -189.7368774 1.9636386633 0.0520000011
 1971.6264648 13.000000000 12.147998810 12.250000954 -0.060996797 105.80305481 0.3930000067 2.4633941650 83.326278687 107.09881592 2.1179471016 -188.7492981 1.9604667425 0.0520000011
 1971.7788086 13.000000000 12.142000198 12.250000954 -0.063995197 105.93312836 0.3849999905 2.4533970356 83.855285645 107.60674286 2.1140129566 -190.8408508 1.9661185741 0.0520000011
 1971.9311523 13.000000000 12.161999702 12.250000954 -0.065995194 105.01179504 0.4050000012 2.4531161785 82.571540833 108.44226837 2.1259615421 -192.2475281 1.9749727249 0.0520000011
 1972.0836182 13.000000000 12.166999817 12.250000954 -0.063004807 103.86557770 0.4059999883 2.4636394978 81.393501282 108.65946960 2.1060640812 -192.4850006 1.9647819996 0.0520000011
 1972.2359619 13.000000000 12.181999207 12.250000954 -0.062002402 102.13306427 0.3939999938 2.4651618004 81.738792419 107.77451324 2.1040065289 -191.7423706 2.0002763271 0.0520000011
 1972.3884277 13.000000000 12.177000046 12.250000954 -0.062998399 99.662933350 0.3849999905 2.4653942585 80.931686401 107.09758759 2.1957788467 -190.7698517 2.0655984879 0.0520000011
 1972.5407715 13.000000000 12.180000305 12.250000954 -0.063997604 99.084526062 0.3479999900 2.4618823528 78.864082336 106.79283142 2.2597949505 -191.1056824 2.1186101437 0.0520000011
 1972.6932373 13.000000000 12.180000305 12.250000954 -0.064000003 98.849533081 0.3350000083 2.4691634178 77.657508850 106.14506531 2.3168628216 -191.7462769 2.1624550819 0.0520000011
 1972.8455811 13.000000000 12.206000328 12.250000954 -0.063002400 99.067222595 0.3170000017 2.4769632816 78.298309326 104.88760376 2.3788013458 -190.7734680 2.1526131630 0.0520000011
 1972.9980469 13.000000000 12.227999687 12.250000954 -0.061003204 97.791923523 0.3300000131 2.4814758301 78.796752930 104.56916046 2.2373414040 -192.3311462 2.0618124008 0.0520000011
 1973.1503906 13.000000000 12.239000320 12.250000954 -0.060002401 94.603240967 0.3519999981 2.4705147743 77.464279175 105.92452240 2.1572563648 -192.5744629 1.9957510233 0.0520000011
 1973.3028564 13.000000000 12.253001213 12.250000954 -0.060998399 92.216392517 0.3519999981 2.4561154842 76.010803223 107.11475372 2.1031296253 -190.1580505 1.9391739368 0.0520000011
 1973.4552002 13.000000000 12.265999794 12.250000954 -0.060002401 91.822135925 0.3409999907 2.4506397247 75.231353760 108.00811005 1.9803938866 -188.2702179 1.8824110031 0.0520000011
 1973.6076660 13.000000000 12.302000046 12.250000954 -0.061996795 94.351966858 0.3319999874 2.4532451630 76.172607422 108.30234528 1.9790023565 -188.4795685 1.8805804253 0.0520000011
 1973.7600098 13.000000000 12.329999924 12.250000954 -0.061001603 95.047111511 0.3440000117 2.4647645950 78.075012207 107.52843475 2.0168783665 -188.0450287 1.9328012466 0.0520000011
 1973.9123535 13.000000000 12.326000214 12.250000954 -0.060002401 94.934387207 0.3799999952 2.4836344719 79.039924622 106.64461517 2.1077084541 -188.6423645 2.0409967899 0.0520000011
 1974.0648193 13.000000000 12.343000412 12.250000954 -0.064991988 96.456222534 0.3459999859 2.5144925117 79.211509705 105.56366730 2.3083562851 -189.9232941 2.1481778622 0.0520000011
 1974.2171631 13.000000000 12.338998795 12.250000954 -0.060012009 99.749229431 0.3440000117 2.5391218662 79.152618408 104.83086395 2.3339200020 -190.0456390 2.1663339138 0.0520000011
 1974.3696289 13.000000000 12.312999725 12.250000954 -0.057004809 101.33287048 0.3280000091 2.5195767879 81.667533875 104.71811676 2.2901408672 -188.4038391 2.1343765259 0.0520000011
 1974.5219727 13.000000000 12.328000069 12.250000954 -0.063983187 100.28189850 0.3529999852 2.4803090096 83.919097900 105.41246033 2.2491314411 -187.8232422 2.0688910484 0.0520000011
 1974.6744385 13.000000000 12.310000420 12.250000954 -0.067993596 98.305732727 0.3589999974 2.4570817947 83.815795898 107.54956818 2.0973653793 -188.8149261 1.9858469963 0.0520000011
 1974.8267822 13.000000000 12.308000565 12.250000954 -0.061016813 98.811332703 0.3289999962 2.4582796097 81.101791382 108.56115723 2.0431728363 -188.8930969 1.9624716043 0.0520000011
 1974.9792480 13.000000000 12.338998795 12.250000954 -0.061998397 99.953887939 0.3199999928 2.4570000172 78.800811768 107.56513214 2.0719304085 -190.3538666 1.9983460903 0.0520000011
 1975.1315918 13.000000000 12.336999893 12.250000954 -0.062997602 100.30377960 0.3339999914 2.4562795162 78.153411865 106.69298553 2.1009070873 -191.2902985 2.0282778740 0.0520000011
 1975.2840576 13.000000000 12.350000381 12.250000954 -0.064996794 98.779411316 0.3670000136 2.4553606510 77.406669617 106.04008484 2.1010000706 -190.5288391 2.0168814659 0.0520000011
 1975.4364014 13.000000000 12.348999023 12.250000954 -0.069987990 97.243064880 0.3819999993 2.4596030712 76.362838745 105.59738922 2.0720930099 -189.5202179 1.9820152521 0.0520000011
 1975.5888672 13.000000000 12.359999657 12.250000954 -0.068001606 94.856468201 0.3639999926 2.4742932320 75.658592224 105.52778625 2.0061585903 -190.2480774 1.9650280476 0.0520000011
 1975.7412109 13.000000000 12.347999573 12.250000954 -0.064003207 92.222221375 0.3440000117 2.4954853058 76.921958923 104.93620300 2.0209519863 -190.5979309 2.0125737190 0.0520000011
 1975.8935547 13.000000000 12.345001221 12.250000954 -0.064998396 87.828475952 0.3289999962 2.5105977058 78.188850403 103.41566467 2.1117084026 -190.5729218 2.0921089649 0.0520000011
 1976.0460205 13.000000000 12.350999832 12.250000954 -0.064000808 83.270011902 0.3160000145 2.5177204609 78.206687927 101.55996704 2.2076923847 -190.8803711 2.2250230312 0.0520000011
 1976.1983643 13.000000000 12.361000061 12.250000954 -0.064998396 79.742103577 0.3210000098 2.5279943943 76.194282532 99.111213684 2.4173269272 -191.4497223 2.4441328049 0.0520000011
 1976.3508301 13.000000000 12.352001190 12.250000954 -0.062002402 78.327636719 0.2899999917 2.5577018261 72.570899963 96.563201904 2.7110583782 -192.0697174 2.7038147449 0.0520000011
 1976.5031738 13.000000000 12.340000153 12.250000954 -0.058006402 79.334777832 0.2619999945 2.5949704647 67.682510376 93.844001770 2.9223237038 -190.5340271 2.9792425632 0.0520000011
 1976.6556396 13.000000000 12.312999725 12.250000954 -0.053004004 79.841369629 0.2370000035 2.6140336990 62.293956757 91.055801392 3.2691657543 -188.4651489 3.3383581638 0.0520000011
 1976.8079834 13.000000000 12.312999725 12.250000954 -0.057995994 78.955039978 0.2450000048 2.6012353897 59.654026031 88.150878906 3.8042833805 -188.8501740 3.6410527229 0.0520000011
 1976.9604492 13.000000000 12.325000763 12.250000954 -0.061996795 75.288597107 0.2520000041 2.5888366699 59.876255035 86.307838440 3.8758316040 -189.9488068 3.7146635056 0.0520000011
 1977.1127930 13.000000000 12.314000130 12.250000954 -0.064997591 71.413078308 0.2440000027 2.5850000381 60.393539429 86.360908508 3.8141984940 -190.9177856 3.7759680748 0.0520000011
 1977.2652588 13.000000000 12.328000069 12.250000954 -0.067997605 68.294067383 0.2310000062 2.5875241756 57.915405273 85.913909912 4.0424499512 -189.1983337 3.9728052616 0.0520000011
 1977.4176025 13.000000000 12.338998795 12.250000954 -0.066001602 67.136665344 0.2070000023 2.5934412479 54.363109589 84.576927185 4.2513303757 -187.2028503 4.1700482368 0.0520000011
 1977.5700684 13.000000000 12.359999657 12.250000954 -0.065000795 68.495697021 0.1969999969 2.5952787399 52.365371704 83.111396790 4.3826851845 -187.7205811 4.4203467369 0.0520000011
 1977.7224121 13.000000000 12.347000122 12.250000954 -0.064999998 71.583854675 0.1899999976 2.5921986103 52.899597168 81.420089722 4.9023313522 -187.9549713 4.7305526733 0.0520000011
 1977.8748779 13.000000000 12.362001419 12.250000954 -0.065999202 75.251953125 0.2060000002 2.5904421806 52.935424805 80.396995544 5.0366806984 -188.0329285 4.8797988892 0.0520000011
 1978.0272217 13.000000000 12.371000290 12.250000954 -0.063002408 76.795402527 0.2090000063 2.5908381939 52.172023773 80.566772461 5.0808587074 -187.6598053 4.8816938400 0.0520000011
