# LAS format log file from PETREL
# Project units are specified as depth units
#==================================================================
~Version information
VERS.   2.0:
WRAP.   NO:
#==================================================================
~Well
STRT .m      334.06079102 :
STOP .m      2807.3603516 :
STEP .m     0.00000000 :
NULL .        -999.250000 :
COMP.           : COMPANY
WELL.  7/1-1   : WELL
FLD.            : FIELD
LOC.            : LOCATION
SRVC.           : SERVICE COMPANY
DATE.  2018-09-11 14:49:04   : Log Export Date {yyyy-MM-dd HH:mm:ss}
PROV.           : PROVINCE
UWI.   7/1-1   : UNIQUE WELL ID
API.            : API NUMBER
#==================================================================
~Curve
DEPT .m                   : DEPTH
Lithology_geolink ._      : Lithology_geolink
DCAL .in                  : DCAL
CALI .in                  : CALI
BS .in                    : BS
ROP .m/h                  : ROP
DRHO .g/cm3               : DRHO
NPHI .m3/m3               : NPHI
RHOB .g/cm3               : RHOB
GR .gAPI                  : GR
DTC .us/ft                : DTC
DT .us/ft                 : DT
DTE .us/ft                : DTE
RDEP .ohm.m               : RDEP
SP .mV                    : SP
RSHA .ohm.m               : RSHA
RMED .ohm.m               : RMED
~Parameter
#==================================================================
~Ascii
# ...
 2803.8552246 5.0000000000 12.538499832 12.538499832 12.250000954 0.4226294756 0.0216739997 0.2323230058 2.3573999405  -999.250000 89.948097229 89.509948730 90.107200623 1.0987000465 21.769725800 1.0706930161 1.0778839588
 2804.0075684 5.0000000000 12.547400475 12.547400475 12.250000954 0.4218294621 0.0239509996 0.2401559949 2.3506999016  -999.250000 91.188499451 91.268989563 91.817001343 1.0938999653 22.548851013 1.0744938850 1.0745474100
 2804.1599121 5.0000000000 12.535400391 12.535400391 12.250000954 0.4463600814 0.0334310010 0.2404409945 2.3573999405  -999.250000 91.129699707 92.946647644 93.479499817 1.0921000242 23.032526016 1.0690088272 1.0683231354
 2804.3122559  -999.250000 12.523500443 12.523500443 12.250000954 0.4721093178 0.0429099984 0.2407259941 2.3640999794  -999.250000 91.070800781 92.658813477 92.271697998 1.0902999640 23.514953613 1.0634179115 1.0627987385
 2804.4648438  -999.250000 12.511500359 12.511500359 12.250000954 0.4725221097 0.0523900017 0.2410109937 2.3708000183  -999.250000 91.012001038 91.325408936 90.880096436 1.0885000229 23.998926163 1.0579087734 1.0575640202
 2804.6171875  -999.250000 12.508399963 12.508399963 12.250000954 0.4720184207 0.0468930006 0.2363200039 2.3724999428  -999.250000 90.246200562 89.641456604 89.057197571 1.1111999750 23.584465027 1.0682833195 1.0582782030
 2804.7695313  -999.250000 12.507900238 12.507900238 12.250000954 0.4714221358 0.0368979983 0.2301339954 2.3726999760  -999.250000 89.267997742 87.818557739 87.234298706 1.1411000490 22.898998260 1.0834757090 1.0741448402
 2804.9218750  -999.250000 12.507399559 12.507399559 12.250000954 0.4708221555 0.0269029997 0.2239490002 2.3729000092  -999.250000 88.289810181 87.491416931 87.612701416 1.1711000204 22.214195251 1.0986514091 1.0959128141
 2805.0744629  -999.250000 12.520899773 12.520899773 12.250000954 0.4703183770 0.0239560008 0.2193070054  -999.250000  -999.250000 88.198699951 88.225311279 88.513603210 1.2007999420 21.998144150 1.1154730320 1.1176559925
 2805.2268066  -999.250000 12.548898697 12.548898697 12.250000954 0.4697221220 0.0283979997 0.2162819952  -999.250000  -999.250000 89.037803650 88.779212952 88.904502869 1.2302999496 22.277750015 1.1338706017 1.1394128799
 2805.3791504  -999.250000 12.576899529 12.576899529 12.250000954 0.4691221416 0.0328399986 0.2132569999  -999.250000  -999.250000 89.876998901 89.733070374 90.123901367 1.2597999573 22.558250427 1.1522705555 1.1569321156
 2805.5314941  -999.250000 12.599900246 12.599900246 12.250000954 0.4691962898 0.0349089988  -999.250000  -999.250000  -999.250000 90.592903137 90.720016479 91.001197815 1.2809000015 22.930702209 1.1682744026 1.1697820425
 2805.6838379  -999.250000 12.603899956 12.603899956 12.250000954 0.4696808159 0.0279079992  -999.250000  -999.250000  -999.250000 90.837898254 91.171478271 91.251800537 1.2697000504 23.654378891 1.1755766869 1.1800230742
 2805.8364258  -999.250000 12.608000755 12.608000755 12.250000954 0.4702778757 0.0209069997  -999.250000  -999.250000  -999.250000 91.082801819 91.317481995 91.348396301 1.2584999800 24.380838394 1.1827884912 1.1859560013
 2805.9887695  -999.250000 12.612000465 12.612000465 12.250000954 0.4707816243 0.0139060002  -999.250000  -999.250000  -999.250000 91.327796936 91.346092224 91.345001221 1.2472000122 25.106239319 1.1900882721 1.1901538372
 2806.1411133  -999.250000 12.626099586 12.626099586 12.250000954 0.4713779092 0.0138349999  -999.250000  -999.250000  -999.250000 91.104103088 91.342689514 91.341598511 1.2340999842 25.360294342 1.1772205830 1.1906166077
 2806.2934570  -999.250000 12.640999794 12.640999794 12.250000954 0.4718807936 0.0143139996  -999.250000  -999.250000  -999.250000 90.843299866 91.065994263 90.935997009 1.2209000587 25.575908661 1.1627464294 1.1758627892
 2806.4460449  -999.250000 12.655900002 12.655900002 12.250000954 0.4723816216 0.0147919999  -999.250000  -999.250000  -999.250000 90.582397461 90.636734009 90.495903015 1.2077000141 25.792154312 1.1481233835 1.1516239643
 2806.5983887  -999.250000 12.587200165 12.587200165 12.250000954 0.4729779065 0.0122429999  -999.250000  -999.250000  -999.250000 90.190200806 90.390922546 90.341400146 1.2058999538 25.210931778 1.1459035873 1.1291986704
 2806.7507324  -999.250000 12.472599983 12.472599983 12.250000954 0.4734815657 0.0080329999  -999.250000  -999.250000  -999.250000 89.725799561 89.827163696 89.584602356 1.2103999853 24.191036224 1.1504926682 1.1316051483
 2806.9030762  -999.250000 12.357999802 12.357999802 12.250000954 0.4739808440 0.0038220000  -999.250000  -999.250000  -999.250000 89.261398315 89.240776062 89.078590393 1.2149000168 23.172065735 1.1550853252 1.1484025717
 2807.0556641  -999.250000 12.164299965 12.164299965 12.250000954 0.4745778441 0.0000380000  -999.250000  -999.250000  -999.250000 88.941802979 88.839714050 88.727302551 1.2174999714 22.643842697 1.1602916718 1.1638200283
 2807.2080078  -999.250000 11.832899094 11.832899094 12.250000954 0.4750815928 -0.003002000  -999.250000  -999.250000  -999.250000 88.873992920 88.589706421 88.524803162 1.2165999413 22.978061676 1.1666897535 1.1693192720
 2807.3603516  -999.250000 11.501500130 11.501500130 12.250000954 0.4756778777 -0.006042000  -999.250000  -999.250000  -999.250000 88.806297302 88.580924988 88.607398987 1.2158000469 23.313661575 1.1730897427 1.1708192825
