# LAS format log file from PETREL
# Project units are specified as depth units
#==================================================================
~Version information
VERS.   2.0:
WRAP.   NO:
#==================================================================
~Well
STRT .m      334.06079102 :
STOP .m      2807.3603516 :
STEP .m     0.00000000 :
NULL .        -999.250000 :
COMP.           : COMPANY
WELL.  7/1-1   : WELL
FLD.            : FIELD
LOC.            : LOCATION
SRVC.           : SERVICE COMPANY
DATE.  2018-09-11 14:49:04   : Log Export Date {yyyy-MM-dd HH:mm:ss}
PROV.           : PROVINCE
UWI.   7/1-1   : UNIQUE WELL ID
API.            : API NUMBER
#==================================================================
~Curve
DEPT .m                   : DEPTH
Lithology_geolink ._      : Lithology_geolink
DCAL .in                  : DCAL
CALI .in                  : CALI
BS .in                    : BS
ROP .m/h                  : ROP
DRHO .g/cm3               : DRHO
NPHI .m3/m3               : NPHI
RHOB .g/cm3               : RHOB
GR .gAPI                  : GR
DTC .us/ft                : DTC
DT .us/ft                 : DT
DTE .us/ft                : DTE
RDEP .ohm.m               : RDEP
SP .mV                    : SP
RSHA .ohm.m               : RSHA
RMED .ohm.m               : RMED
~Parameter
#==================================================================
~Ascii
# ...
 2640.3298340 9.0000000000 12.401899338 12.401899338 12.250000954 1.5486246347 0.0798669979 0.2955900133 2.4249000549 71.030647278 111.68520355 112.83030701 113.11290741 0.7799999714 27.022052765 0.8764204979 0.8679935932
 2640.4824219 9.0000000000 12.429200172 12.429200172 12.250000954 1.5480210781 0.0825909972 0.3013409972 2.4312996864 70.576522827 112.39240265 112.56958771 112.31390381 0.7759000063 26.849077225 0.8700102568 0.8689720035
 2640.6347656 9.0000000000 12.472999573 12.472999573 12.250000954 1.5473246574 0.0723010004 0.2892459929 2.4247999191 68.826004028 111.42650604 111.33190155 110.86869812 0.7914999723 26.690954208 0.8769887686 0.8766269088
 2640.7871094 9.0000000000 12.519001007 12.519001007 12.250000954 1.5467212200 0.0603119992 0.2748219967 2.4165999889 66.904083252 110.24220276 109.96389771 109.53710175 0.8095999956 26.534849167 0.8856860399 0.8855077028
 2640.9394531 9.0000000000 12.565100670 12.565100670 12.250000954 1.6309220791 0.0483230017 0.2603980005 2.4084000587 64.984947205 109.05789948 108.93772125 108.65499878 0.8277000189 26.378999710 0.8943721652 0.8939076662
 2641.0920410 9.0000000000 12.550800323 12.550800323 12.250000954 1.7632004023 0.0448860005 0.2558009923 2.4112000465 62.662517548 108.14040375 108.09092712 107.82680511 0.8521000147 26.242918015 0.9088767767 0.9107666612
 2641.2443848 9.0000000000 12.496999741 12.496999741 12.250000954 1.7490793467 0.0470630005 0.2576580048 2.4212000370 60.081935883 107.39820099 107.56269073 107.43840027 0.8806999922 26.120595932 0.9271706939 0.9282119870
 2641.3967285 9.0000000000 12.443300247 12.443300247 12.250000954 1.7478210926 0.0492409989 0.2595140040 2.4312000275 57.500934601 106.65599823 106.70767975 106.36299896 0.9092000127 25.998195648 0.9454706907 0.9469577074
 2641.5490723 9.0000000000 12.405699730 12.405699730 12.250000954 1.7471246719 0.0512549989 0.2569169998 2.4384999275 56.103736877 105.98289490 105.96869659 105.78269958 0.9373000264 25.936698914 0.9625725746 0.9634564519
 2641.7014160 9.0000000000 12.402099609 12.402099609 12.250000954 1.7465212345 0.0529260002 0.2449779958 2.4400999546 57.189907074 105.45468903 105.66316986 105.60678864 0.9646000266 26.002687454 0.9770536423 0.9779846072
 2641.8540039 9.0000000000 12.398500443 12.398500443 12.250000954 1.7458246946 0.0545979999 0.2330390066 2.4418001175 58.283447266 104.92649841 105.25754547 105.09319305 0.9919000268 26.069093704 0.9915767312 0.9923920035
 2642.0063477 9.0000000000 12.394700050 12.394700050 12.250000954 1.7452211380 0.0562370010 0.2213879973 2.4433000088 59.322036743 104.40920258 104.38116455 104.04530334 1.0189000368 26.112531662 1.0056773424 1.0067166090
 2642.1586914 9.0000000000 12.384300232 12.384300232 12.250000954 2.0845966339 0.0571440011 0.2163140029 2.4442000389 59.144386292 104.14080811 103.05671692 102.59040070 1.0394999981 25.634965897 1.0118900537 1.0194538832
 2642.3110352 9.0000000000 12.373999596 12.373999596 12.250000954 2.4296436310 0.0580510013 0.2112389952 2.4449999332 58.965076447 103.87249756 102.63986969 102.66320038 1.0599999428 25.157331467 1.0180802345 1.0237077475
 2642.4636230 9.0000000000 12.363599777 12.363599777 12.250000954 2.4397737980 0.0589580014 0.2061650008 2.4458000660 58.785285950 103.60419464 103.30934143 103.61340332 1.0806000233 24.678167343 1.0242900848 1.0255999565
 2642.6159668 9.0000000000 12.363800049 12.363800049 12.250000954 2.4378669262 0.0643810034 0.2013339996 2.4535000324 58.204231262 102.75009918 103.46949005 103.40160370 1.1016999483 24.670011520 1.0360810757 1.0340782404
 2642.7683105 9.0000000000 12.367300034 12.367300034 12.250000954 2.4359669685 0.0712210014 0.1965789944 2.4633998871 57.496532440 101.71230316 102.47125244 102.03240204 1.1229000092 24.810174942 1.0495784283 1.0436115265
 2642.9206543 9.0000000000 12.370800018 12.370800018 12.250000954 2.4341633320 0.0780619979 0.1918240041 2.4732000828 56.789764404 100.67440033 101.05461884 100.59339905 1.1441999674 24.950349808 1.0630568266 1.0611448288
 2643.0732422 9.0000000000 12.363599777 12.363599777 12.250000954 2.4322638512 0.0757210031 0.1863809973 2.4746999741 55.643833160 99.605491638 99.060882568 98.343299866 1.1603000164 24.964078903 1.0749809742 1.0766136646
 2643.2255859 9.0000000000 12.344799995 12.344799995 12.250000954 2.4303669930 0.0634460002 0.1801919937 2.4672999382 54.025592804 98.502792358 98.015197754 97.860801697 1.1711000204 24.839998245 1.0848841667 1.0908000469
 2643.3779297 9.0000000000 12.326000214 12.326000214 12.250000954 2.4284670353 0.0511719994 0.1740030050 2.4598000050 52.406692505 97.400108337 97.026794434 96.633399963 1.1818000078 24.715698242 1.0948840380 1.1000167131
 2643.5302734 9.0000000000 12.312199593 12.312199593 12.250000954 2.4265670776 0.0423830003 0.1708209962 2.4556999207 51.424873352 96.578498840 96.470657349 96.393890381 1.1798000336 24.634429932 1.1010900736 1.1031192541
 2643.6826172 9.0000000000 12.318400383 12.318400383 12.250000954 2.4246668816 0.0475820005 0.1797080040 2.4651000500 52.998741150 96.884902954 95.096961975 94.485198975 1.1267000437 24.726005554 1.0923281908 1.0995230675
 2643.8352051 9.0000000000 12.324500084 12.324500084 12.250000954 2.4967672825 0.0527810007 0.1885949969 2.4744999409 54.581668854 97.191299438 96.053344727 96.791297913 1.0736999512 24.818052292 1.0834143162 1.0902559757
 2643.9875488 9.0000000000 12.330699921 12.330699921 12.250000954 3.2260448933 0.0579800010 0.1974820048 2.4839000702 56.162166595 97.497703552 97.440551758 97.746803284 1.0206999779 24.909954071 1.0746140480 1.0749089718
 2644.1398926 9.0000000000 12.349599838 12.349599838 12.250000954 3.7521443367 0.0692100003 0.2095579952 2.4755001068 58.121261597 100.56449890 100.64841461 102.01709747 0.9638000131 24.611278534 1.0334661007 1.0478961468
 2644.2922363 9.0000000000 12.369700432 12.369700432 12.250000954 3.7684707642 0.0809729993 0.2219170034 2.4656000137 60.111320496 103.87570190 104.25899506 105.31649017 0.9065999985 24.277967453 0.9895408154 1.0040974617
 2644.4448242 9.0000000000 12.389900208 12.389900208 12.250000954 3.7665669918 0.0927369967 0.2342749983 2.4556999207 62.107807159 107.18700409 107.26571655 108.18299866 0.8493000269 23.943435669 0.9454705119 0.9484879971
 2644.5971680 9.0000000000 12.389100075 12.389100075 12.250000954 3.7646672726 0.0928720012 0.2504369915 2.4454998970 63.173194885 108.84829712 111.17362213 112.58429718 0.8015999794 23.960670471 0.9088586569 0.8902538419
 2644.7495117 9.0000000000 12.376399994 12.376399994 12.250000954 3.7627670765 0.0864019990 0.2687590122 2.4351000786 63.709941864 109.57260132 112.60285187 112.61160278 0.7591999769 24.177951813 0.8764519095 0.8550204635
 2644.9018555 9.0000000000 12.363800049 12.363800049 12.250000954 3.7608668804 0.0799319968 0.2870810032 2.4245998859 64.245086670 110.29689789 110.33497620 109.26110077 0.7167999744 24.395103455 0.8442033529 0.8323871493
 2645.0544434 9.0000000000 12.357000351 12.357000351 12.250000954 3.7589640617 0.0754429996 0.2992689908 2.4200000763 64.607116699 111.50340271 112.38811493 113.85229492 0.6866999865 24.567523956 0.8205378652 0.8213134408
 2645.2067871 9.0000000000 12.360900879 12.360900879 12.250000954 3.7570669651 0.0745209977 0.3004089892 2.4258999825 64.653221130 113.57859802 113.93845367 113.97900391 0.6784999967 24.657554626 0.8128123283 0.8099479675
 2645.3591309 9.0000000000 12.364800453 12.364800453 12.250000954 3.2529213428 0.0736000016 0.3015480042 2.4317998886 64.698722839 115.65390015 115.85689545 116.74269867 0.6703000069 24.747356415 0.8051123619 0.8027820587
 2645.5114746 9.0000000000 12.368699074 12.368699074 12.250000954 2.8898935318 0.0719439983 0.3027400076 2.4365999699 64.831687927 117.58149719 117.66876984 118.10559082 0.6636000276 24.815490723 0.7977118492 0.7972871661
 2645.6638184 9.0000000000 12.373299599 12.373299599 12.250000954 2.8339831829 0.0613889992 0.3045690060 2.4279999733 66.022979736 117.71630096 117.83026886 117.70040131 0.6750000119 24.618930817 0.7938124537 0.7898641229
 2645.8164063 9.0000000000 12.377901077 12.377901077 12.250000954 2.8305668831 0.0508330017 0.3063980043 2.4193999767 67.219886780 117.85119629 118.40100098 118.73069763 0.6865000129 24.421316147 0.7898064256 0.7824040055
