# LAS format log file from PETREL
# Project units are specified as depth units
#==================================================================
~Version information
VERS.   2.0:
WRAP.   NO:
#==================================================================
~Well
STRT .m      334.06079102 :
STOP .m      2807.3603516 :
STEP .m     0.00000000 :
NULL .        -999.250000 :
COMP.           : COMPANY
WELL.  7/1-1   : WELL
FLD.            : FIELD
LOC.            : LOCATION
SRVC.           : SERVICE COMPANY
DATE.  2018-09-11 14:49:04   : Log Export Date {yyyy-MM-dd HH:mm:ss}
PROV.           : PROVINCE
UWI.   7/1-1   : UNIQUE WELL ID
API.            : API NUMBER
#==================================================================
~Curve
DEPT .m                   : DEPTH
Lithology_geolink ._      : Lithology_geolink
DCAL .in                  : DCAL
CALI .in                  : CALI
BS .in                    : BS
ROP .m/h                  : ROP
DRHO .g/cm3               : DRHO
NPHI .m3/m3               : NPHI
RHOB .g/cm3               : RHOB
GR .gAPI                  : GR
DTC .us/ft                : DTC
DT .us/ft                 : DT
DTE .us/ft                : DTE
RDEP .ohm.m               : RDEP
SP .mV                    : SP
RSHA .ohm.m               : RSHA
RMED .ohm.m               : RMED
~Parameter
#==================================================================
~Ascii
# ...
 2155.3933105 5.0000000000 13.214099884 13.214099884 12.250000954 1.0044121742 0.0398910008 0.2526859939 2.2915000916 45.439201355 127.78130341 127.43485260 127.00559998 0.5928000212 29.555900574 0.6398000121 0.6419507861
 2155.5456543 5.0000000000 13.212600708 13.212600708 12.250000954 1.0037055016 0.0350919999 0.2474489957 2.2878000736 44.666198730 127.04620361 127.00873566 127.01020813 0.5938000083 29.247400284 0.6410999894 0.6390159726
 2155.6979980 5.0000000000 13.196000099 13.196000099 12.250000954 1.0035057068 0.0336240008 0.2544719875 2.2902998924 44.194355011 127.17600250 127.01421356 127.01609802 0.5950000286 29.087455750 0.6426974535 0.6405858994
 2155.8503418 5.0000000000 13.179300308 13.179300308 12.250000954 1.0032087564 0.0321570002 0.2614960074 2.2929000854 43.721660614 127.30580139 127.16986847 127.24240112 0.5961999893 28.927356720 0.6443972588 0.6446859241
 2156.0026855 5.0000000000 13.162500381 13.162500381 12.250000954 1.0030057430 0.0305679999 0.2682720125 2.2953000069 43.237079620 127.43530273 127.43714142 127.52899933 0.5974000096 28.770650864 0.6459974647 0.6460679770
 2156.1552734 5.0000000000 13.142900467 13.142900467 12.250000954 1.0028054714 0.0224350002 0.2618770003 2.2890000343 42.111198425 127.55139923 127.72416687 127.81600952 0.5983999968 28.796100616 0.6460000277 0.6461679935
 2156.3076172 5.0000000000 13.123399734 13.123399734 12.250000954 1.0025086403 0.0143020004 0.2554819882 2.2827999592 40.987998962 127.66738892 127.83007050 127.83670044 0.5995000005 28.821659088 0.6460000277 0.6462679505
 2156.4599609 5.0000000000 13.103799820 13.103799820 12.250000954 1.0023057461 0.0061690002 0.2490870059 2.2765998840 39.862903595 127.78350067 127.82038879 127.81269836 0.6004999876 28.847358704 0.6460000277 0.6463679075
 2156.6123047 5.0000000000 13.090100288 13.090100288 12.250000954 1.0021057129 0.0066820001 0.2439659983 2.2778000832 40.540710449 127.72850037 127.74312592 127.71030426 0.6015999913 29.001552582 0.6461997032 0.6465358734
 2156.7648926 5.0000000000 13.078399658 13.078399658 12.250000954 1.0019054413 0.0102709997 0.2392980009 2.2815999985 41.865100861 127.61270142 127.63352203 127.59738922 0.6025999784 29.201999664 0.6464999914 0.6461240053
 2156.9172363 5.0000000000 13.066800117 13.066800117 12.250000954 0.9845155478 0.0138600003 0.2346300036 2.2855000496 43.188499451 127.49680328 127.51123810 127.47059631 0.6036000252 29.402299881 0.6467999816 0.6465115547
 2157.0695801 5.0000000000 13.065500259 13.065500259 12.250000954 0.9838057756 0.0181489997 0.2344699949 2.2925000191 44.544525146 127.50449371 127.36071777 127.30889130 0.6043000221 29.549165726 0.6467999816 0.6468679309
 2157.2219238 6.0000000000 13.076700211 13.076700211 12.250000954 0.9835087061 0.0232710000 0.2396730036 2.3032999039 45.944057465 127.65930176 127.28511810 127.27390289 0.6047000289 29.633464813 0.6463007927 0.6464923024
 2157.3745117 6.0000000000 13.087900162 13.087900162 12.250000954 0.9833054543 0.0283920001 0.2448759973 2.3141000271 47.346000671 127.81410217 127.62942505 127.79589844 0.6050999761 29.717699051 0.6457999945 0.6447334886
 2157.5268555 6.0000000000 13.100700378 13.100700378 12.250000954 0.9831054211 0.0326410010 0.2493129969 2.3220000267 48.541000366 127.91950226 127.99105835 128.08290100 0.6056013107 29.789100647 0.6456000209 0.6462439895
 2157.6791992 6.0000000000 13.121398926 13.121398926 12.250000954 0.9829058051 0.0327959992 0.2501589954 2.3159000874 48.776622772 127.79319763 128.08683777 128.08869934 0.6064012647 29.800680161 0.6462988853 0.6473679543
 2157.8315430 6.0000000000 13.142100334 13.142100334 12.250000954 0.9826085567 0.0329519995 0.2510049939 2.3099000454 49.012622833 127.66680145 128.09271240 128.09460449 0.6072000265 29.812381744 0.6470986605 0.6474679708
 2157.9838867 6.0000000000 13.162799835 13.162799835 12.250000954 0.9825029373 0.0331070013 0.2518509924 2.3039000034 49.248622894 127.54049683 127.60598755 127.37550354 0.6079999804 29.823980331 0.6478986740 0.6475679278
 2158.1364746 6.0000000000 13.176799774 13.176799774 12.250000954 0.9822081923 0.0324079953 0.2538450062 2.3046998978 48.542301178 127.27439880 126.90773010 126.68759918 0.6087009311 29.894100189 0.6491000056 0.6477360129
 2158.2888184 6.0000000000 13.189999580 13.189999580 12.250000954 0.9820057750 0.0316080004 0.2559719980 2.3062996864 47.726409912 126.99179840 126.45963287 126.35209656 0.6093009710 29.970876694 0.6502981186 0.6478679180
 2158.4411621 5.0000000000 13.203300476 13.203300476 12.250000954 0.9818057418 0.0308090001 0.2581000030 2.3078999519 46.909107208 126.70929718 126.42276764 126.45610809 0.6098999977 30.047775269 0.6514980793 0.6506859064
 2158.5935059 5.0000000000 13.181400299 13.181400299 12.250000954 0.9816057682 0.0327129997 0.2602219880 2.3099999428 47.253246307 126.72649384 127.85890198 128.52059937 0.6092000008 29.947162628 0.6514002085 0.6520679593
 2158.7460938 5.0000000000 13.137499809 13.137499809 12.250000954 0.9813081622 0.0363159999 0.2623400092 2.3122999668 48.330398560 126.93199921 127.93212891 127.65519714 0.6077977419 29.734399796 0.6503000259 0.6521679759
 2158.8984375 6.0000000000 13.093600273 13.093600273 12.250000954 0.9811057448 0.0399199985 0.2644580007 2.3146998882 49.407100677 127.13750458 126.96660614 126.64179993 0.6063974500 29.521799088 0.6492999792 0.6496179700
 2159.0507813 6.0000000000 13.071599960 13.071599960 12.250000954 0.9809057713 0.0417010002 0.2667390108 2.3169000149 50.260135651  -999.250000 127.86772919 128.44599915 0.6047966480 29.392608643 0.6479022503 0.6498269439
 2159.2031250 6.0000000000 13.093199730 13.093199730 12.250000954 0.9807058573 0.0398389995 0.2693470120 2.3187003136 50.670845032  -999.250000 128.68681335 128.80039978 0.6026999950 29.429340363 0.6457034945 0.6492089629
 2159.3557129 6.0000000000 13.114899635 13.114899635 12.250000954 0.9804081321 0.0379769988 0.2719550133 2.3204998970 51.081501007  -999.250000 129.35569763 129.61570740 0.6006969810 29.466499329 0.6434999704 0.6443091631
 2159.5080566 6.0000000000 13.137000084 13.137000084 12.250000954 0.9803027511 0.0361940004 0.2742269933 2.3220000267 51.407901764  -999.250000 129.93510437 130.08540344 0.5988014340 29.503200531 0.6414999962 0.6413480043
 2159.6604004 6.0000000000 13.168199539 13.168199539 12.250000954 0.9800087214 0.0358549990 0.2704240084 2.3185999393 50.228988647  -999.250000 129.24833679 128.85350037 0.5997015834 29.534450531 0.6425982118 0.6436858773
 2159.8127441 6.0000000000 13.199400902 13.199400902 12.250000954 0.9798057079 0.0355160013 0.2666209936 2.3152999878 49.048091888  -999.250000 127.95025635 127.52420044 0.6007000208 29.565851212 0.6436982155 0.6450679302
 2159.9650879 6.0000000000 13.230600357 13.230600357 12.250000954 0.9796058536 0.0351779982 0.2628180087 2.3118999004 47.867191315  -999.250000 127.21883392 127.07479858 0.6017000079 29.597150803 0.6446983814 0.6451679468
 2160.1176758 5.0000000000 13.201399803 13.201399803 12.250000954 0.9794054627 0.0378349982 0.2603259981 2.3143999577 46.565101624  -999.250000 126.94839478 126.88890839 0.6055074930 29.590299606 0.6478999853 0.6470360160
 2160.2700195 5.0000000000 13.154298782 13.154298782 12.250000954 0.9792057872 0.0413790010 0.2582220137 2.3187999725 45.231636047  -999.250000 126.71305084 126.63009644 0.6102074981 29.572229385 0.6515941024 0.6516371965
 2160.4223633 5.0000000000 13.107199669 13.107199669 12.250000954 0.9789087176 0.0449230000 0.2561179996 2.3231000900 43.896041870  -999.250000 126.60923767 126.59940338 0.6148999929 29.554029465 0.6552941203 0.6561859250
 2160.5747070 5.0000000000 13.077099800 13.077099800 12.250000954 0.9787057042 0.0457540005 0.2526600063 2.3224000931 43.454605103  -999.250000 126.54273224 126.51599884 0.6176000237 29.576864243 0.6572967768 0.6575679779
 2160.7272949 5.0000000000 13.064599991 13.064599991 12.250000954 0.9785054326 0.0437689982 0.2477892041 2.3164000511 43.943099976  -999.250000 126.34947205 126.27110291 0.6183013320 29.642499924 0.6575000286 0.6576679945
 2160.8796387 5.0000000000 13.052101135 13.052101135 12.250000954 0.9783058167 0.0417839997 0.2429304719 2.3103001118 44.432201385  -999.250000 126.13133240 126.06539917 0.6191006303 29.708099365 0.6578000188 0.6578359008
