# LAS format log file from PETREL
# Project units are specified as depth units
#==================================================================
~Version information
VERS.   2.0:
WRAP.   NO:
#==================================================================
~Well
STRT .m      334.06079102 :
STOP .m      2807.3603516 :
STEP .m     0.00000000 :
NULL .        -999.250000 :
COMP.           : COMPANY
WELL.  7/1-1   : WELL
FLD.            : FIELD
LOC.            : LOCATION
SRVC.           : SERVICE COMPANY
DATE.  2018-09-11 14:49:04   : Log Export Date {yyyy-MM-dd HH:mm:ss}
PROV.           : PROVINCE
UWI.   7/1-1   : UNIQUE WELL ID
API.            : API NUMBER
#==================================================================
~Curve
DEPT .m                   : DEPTH
Lithology_geolink ._      : Lithology_geolink
DCAL .in                  : DCAL
CALI .in                  : CALI
BS .in                    : BS
ROP .m/h                  : ROP
DRHO .g/cm3               : DRHO
NPHI .m3/m3               : NPHI
RHOB .g/cm3               : RHOB
GR .gAPI                  : GR
DTC .us/ft                : DTC
DT .us/ft                 : DT
DTE .us/ft                : DTE
RDEP .ohm.m               : RDEP
SP .mV                    : SP
RSHA .ohm.m               : RSHA
RMED .ohm.m               : RMED
~Parameter
#==================================================================
~Ascii
# ...
 852.83038330  -999.250000 18.147699356 18.147699356 17.500000000 0.9584056139  -999.250000  -999.250000  -999.250000 43.263801575 177.26881409 177.40109253 177.68969727 1.0637999773 34.771701813 1.2005988359 1.2031155825
 852.98278809  -999.250000 18.147499084 18.147499084 17.500000000 0.9672002196  -999.250000  -999.250000  -999.250000 43.422500610 178.11590576 178.13470459 178.34449768 1.0763000250 34.298000336 1.2036987543 1.2040437460
 853.13519287  -999.250000 18.162700653 18.162700653 17.500000000 0.9748147726  -999.250000  -999.250000  -999.250000 43.966701508 178.36340332 179.48973083 180.02961731 1.0799000263 33.640598297 1.2118966579 1.2101447582
 853.28759766  -999.250000 18.179899216 18.179899216 17.500000000 0.9744056463  -999.250000  -999.250000  -999.250000 44.560001373 178.53469849 180.39021301 180.56019592 1.0823999643 32.959800720 1.2206964493 1.2279875278
 853.44000244  -999.250000 18.197000504 18.197000504 17.500000000 0.9739056230  -999.250000  -999.250000  -999.250000 45.153198242 178.70599365 179.30039978 178.70651245 1.0849000216 32.278999329 1.2295963764 1.2338767052
 853.59240723  -999.250000 18.200500488 18.200500488 17.500000000 0.9692527056  -999.250000  -999.250000  -999.250000 45.842899323 178.50939941 179.29199219 179.56799316 1.0784000158 31.789102554 1.2339981794 1.2339795828
 853.74481201  -999.250000 18.195199966 18.195199966 17.500000000 0.9644538164  -999.250000  -999.250000  -999.250000 46.595199585 178.07380676 179.46313477 179.41369629 1.0659999847 31.423200607 1.2354993820 1.2361350060
 853.89721680  -999.250000 18.189899445 18.189899445 17.500000000 0.9597526193  -999.250000  -999.250000  -999.250000 47.347499847 177.63832092 178.19963074 177.62800598 1.0535999537 31.057300568 1.2369993925 1.2387676239
 854.04962158  -999.250000 18.186300278 18.186300278 17.500000000 0.9550526738  -999.250000  -999.250000  -999.250000 47.815700531 177.14929199 177.09024048 176.83720398 1.0428999662 30.898899078 1.2347009182 1.2357238531
 854.20202637  -999.250000 18.186100006 18.186100006 17.500000000 0.9502538443  -999.250000  -999.250000  -999.250000 47.694900513 176.54949951 176.13890076 175.81030273 1.0355000496 31.170499802 1.2243041992 1.2269638777
 854.35437012  -999.250000 18.186000824 18.186000824 17.500000000 0.9455528259  -999.250000  -999.250000  -999.250000 47.574100494 175.94979858 175.47592163 175.31829834 1.0281000137 31.442102432 1.2140082121 1.2155445814
 854.50677490  -999.250000 18.185699463 18.185699463 17.500000000 0.9408527017  -999.250000  -999.250000  -999.250000 47.435001373 175.35490417 175.38047791 175.40979004 1.0211000443 31.732997894 1.2039080858 1.2032048702
 854.65917969  -999.250000 18.181999207 18.181999207 17.500000000 0.9360538125  -999.250000  -999.250000  -999.250000 46.904201508 174.86450195 175.26130676 175.19131470 1.0233000517 32.436798096 1.1991038322 1.1935591698
 854.81158447  -999.250000 18.178400040 18.178400040 17.500000000 0.9313526750  -999.250000  -999.250000  -999.250000 46.373401642 174.37422180 174.38447571 174.00410461 1.0255999565 33.140598297 1.1943019629 1.1860747337
 854.96398926  -999.250000 18.174699783 18.174699783 17.500000000 1.1715750694  -999.250000  -999.250000  -999.250000 45.842601776 173.88380432 173.82969666 173.74748230 1.0277999640 33.844398499 1.1895018816 1.1875377893
 855.11639404  -999.250000 18.174100876 18.174100876 17.500000000 1.1825069189  -999.250000  -999.250000  -999.250000 46.079101563 173.70661926 173.81022644 173.83979797 1.0370999575 34.657398224 1.1878007650 1.1876009703
 855.26879883  -999.250000 18.174400330 18.174400330 17.500000000 1.1817101240  -999.250000  -999.250000  -999.250000 46.553001404 173.62629700 173.55592346 173.42210388 1.0485999584 35.504199982 1.1870003939 1.1857125759
 855.42120361  -999.250000 18.174699783 18.174699783 17.500000000 1.1807111502  -999.250000  -999.250000  -999.250000 47.026901245 173.54588318 173.42523193 173.42669678 1.0600999594 36.351001740 1.1862003803 1.1856077909
 855.57360840  -999.250000 18.172300339 18.172300339 17.500000000 1.1798101664  -999.250000  -999.250000  -999.250000 46.825099945 173.84320068 173.68937683 173.81320190 1.0643999577 36.717498779 1.1852003336 1.1849844456
 855.72601318  -999.250000 18.166999817 18.166999817 17.500000000 1.1789101362  -999.250000  -999.250000  -999.250000 45.900001526 174.54460144 174.44836426 174.74780273 1.0609999895 36.569900513 1.1838005781 1.1820853949
 855.87841797  -999.250000 18.161699295 18.161699295 17.500000000 1.1961048841  -999.250000  -999.250000  -999.250000 44.974899292 175.24609375 175.45195007 175.78390503 1.0575000048 36.422199249 1.1825004816 1.1813077927
 856.03082275  -999.250000 18.157699585 18.157699585 17.500000000 1.1954101324  -999.250000  -999.250000  -999.250000 44.611900330 175.88061523 175.81483459 175.82940674 1.0516999960 36.248298645 1.1815003157 1.1816359758
 856.18322754  -999.250000 18.158800125 18.158800125 17.500000000 1.1219331026  -999.250000  -999.250000  -999.250000 46.468200684 176.25079346 176.17030334 176.33070374 1.0369000435 35.970798492 1.1816998720 1.1821080446
 856.33557129  -999.250000 18.159999847 18.159999847 17.500000000 1.0294765234  -999.250000  -999.250000  -999.250000 48.324501038 176.62100220 176.64271545 176.78979492 1.0220999718 35.693298340 1.1819998026 1.1829116344
 856.48797607  -999.250000 18.161199570 18.161199570 17.500000000 0.9831137061  -999.250000  -999.250000  -999.250000 50.180900574 176.99110413 176.99517822 177.09199524 1.0072000027 35.415798187 1.1821998358 1.1825883389
 856.64038086  -999.250000 18.170999527 18.170999527 17.500000000 0.9731076956  -999.250000  -999.250000  -999.250000 48.337501526 176.42199707 176.88362122 176.78540039 1.0041999817 35.324901581 1.1709090471 1.1757076979
 856.79278564  -999.250000 18.181600571 18.181600571 17.500000000 0.9636065960  -999.250000  -999.250000  -999.250000 46.177898407 175.77259827 176.65370178 176.59161377 1.0022000074 35.249900818 1.1585049629 1.1699495316
 856.94519043  -999.250000 18.192100525 18.192100525 17.500000000 0.9540076256  -999.250000  -999.250000  -999.250000 44.018299103 175.12319946 175.44618225 174.90620422 1.0003000498 35.174999237 1.1461050510 1.1503504515
 857.09759521  -999.250000 18.199699402 18.199699402 17.500000000 0.9530101418  -999.250000  -999.250000  -999.250000 43.264801025 175.13439941 174.64944458 174.52839661 1.0005999804 34.849899292 1.1319056749 1.1232144833
 857.25000000  -999.250000 18.205600739 18.205600739 17.500000000 0.9522089958  -999.250000  -999.250000  -999.250000 43.300800323 175.51629639 175.74572754 176.31959534 1.0020999908 34.384300232 1.1166061163 1.0971018076
 857.40240479  -999.250000 18.211500168 18.211500168 17.500000000 0.9513100982  -999.250000  -999.250000  -999.250000 43.336799622 175.89830017 176.32258606 176.32400513 1.0037000179 33.918800354 1.1013060808 1.0883562565
 857.55480957  -999.250000 18.212299347 18.212299347 17.500000000 0.9504100680  -999.250000  -999.250000  -999.250000 43.690101624 175.96090698 175.94462585 175.76577759 1.0089000463 33.511199951 1.1001005173 1.0959155560
 857.70721436  -999.250000 18.204099655 18.204099655 17.500000000 0.9496089816  -999.250000  -999.250000  -999.250000 44.608600616 175.45469666 175.43890381 175.28480530 1.0204999447 33.206699371 1.1240903139 1.1215515137
 857.85961914  -999.250000 18.195999146 18.195999146 17.500000000 0.9487101436  -999.250000  -999.250000  -999.250000 45.527099609 174.94850159 174.88281250 174.69329834 1.0320999622 32.902198792 1.1479904652 1.1522884369
 858.01202393  -999.250000 18.189100266 18.189100266 17.500000000 1.0370975733  -999.250000  -999.250000  -999.250000 46.415298462 174.49719238 174.45599365 174.34440613 1.0425000191 32.607601166 1.1706908941 1.1713504791
 858.16442871  -999.250000 18.198299408 18.198299408 17.500000000 1.1809797287  -999.250000  -999.250000  -999.250000 46.949401855 174.68820190 174.04725647 173.90769958 1.0378999710 32.428501129 1.1791965961 1.1813081503
 858.31683350  -999.250000 18.207399368 18.207399368 17.500000000 1.1907080412  -999.250000  -999.250000  -999.250000 47.483398438 174.87919617 173.91082764 173.91229248 1.0333000422 32.249401093 1.1876965761 1.1934202909
