# LAS format log file from PETREL
# Project units are specified as depth units
#==================================================================
~Version information
VERS.   2.0:
WRAP.   NO:
#==================================================================
~Well
STRT .m      334.06079102 :
STOP .m      2807.3603516 :
STEP .m     0.00000000 :
NULL .        -999.250000 :
COMP.           : COMPANY
WELL.  7/1-1   : WELL
FLD.            : FIELD
LOC.            : LOCATION
SRVC.           : SERVICE COMPANY
DATE.  2018-09-11 14:49:04   : Log Export Date {yyyy-MM-dd HH:mm:ss}
PROV.           : PROVINCE
UWI.   7/1-1   : UNIQUE WELL ID
API.            : API NUMBER
#==================================================================
~Curve
DEPT .m                   : DEPTH
Lithology_geolink ._      : Lithology_geolink
DCAL .in                  : DCAL
CALI .in                  : CALI
BS .in                    : BS
ROP .m/h                  : ROP
DRHO .g/cm3               : DRHO
NPHI .m3/m3               : NPHI
RHOB .g/cm3               : RHOB
GR .gAPI                  : GR
DTC .us/ft                : DTC
DT .us/ft                 : DT
DTE .us/ft                : DTE
RDEP .ohm.m               : RDEP
SP .mV                    : SP
RSHA .ohm.m               : RSHA
RMED .ohm.m               : RMED
~Parameter
#==================================================================
~Ascii
# ...
 2313.2795410 10.000000000 13.854900360 13.854900360 12.250000954 0.6411885023 0.0022890000 0.1858869940 2.3896999359 9.2070960999 80.602996826 81.032920837 81.274391174 0.6638000011 8.1655359268 0.8439251781 0.8426513076
 2313.4321289 10.000000000 13.859999657 13.859999657 12.250000954 0.6339731216 0.0050079999 0.1926891059 2.3915984631 9.1466999054 81.147598267 81.395973206 81.452903748 0.6451823711 8.1430997849 0.8282999992 0.8259966373
 2313.5844727 10.000000000 13.862400055 13.862400055 12.250000954 0.6218739152 0.0054520001 0.1933712214 2.3906953335 9.2357997894 81.546302795 81.126861572 80.974197388 0.6341919899 8.2608995438 0.8181999922 0.8168759942
 2313.7368164 10.000000000 13.862700462 13.862700462 12.250000954 0.6211121678 0.0040630000 0.1891362220 2.3876953125 9.4449653625 81.827499390 81.202293396 81.309097290 0.6291919947 8.4911308289 0.8127087951 0.8159230947
 2313.8891602 10.000000000 13.862999916 13.862999916 12.250000954 0.6036480665 0.0026730001 0.1849090010 2.3847000599 9.6544647217 82.108802795 81.737228394 81.938697815 0.6241999865 8.7217302322 0.8071089983 0.8071230650
 2314.0415039 10.000000000 13.862500191 13.862500191 12.250000954 0.6028091311 0.0023070001 0.1806329936 2.3838999271 9.8097515106 82.349601746 82.557846069 82.849899292 0.6238999963 8.8100585938 0.8041048050 0.8026320934
 2314.1940918 10.000000000 13.859700203 13.859700203 12.250000954 0.6023151875 0.0046660001 0.1762379706 2.3893086910 9.8207998276 82.482902527 82.959548950 83.010894775 0.6359192729 8.5186996460 0.8082000017 0.8030760288
 2314.3464355 10.000000000 13.857000351 13.857000351 12.250000954 0.6020091176 0.0070250002 0.1718489826 2.3946084976 9.8315830231 82.616195679 82.985153198 82.973098755 0.6479193568 8.2275667191 0.8121936321 0.8122692704
 2314.4987793 10.000000000 13.854201317 13.854201317 12.250000954 0.6015151739 0.0093850000 0.1674679965 2.3998999596 9.8423824310 82.749488831 82.753990173 82.651397705 0.6600000262 7.9359669685 0.8162934184 0.8163641095
 2314.6511230 10.000000000 13.842900276 13.842900276 12.250000954 0.6012091041 0.0077720000 0.1665010005 2.4045999050 9.3117513657 82.191802979 82.064422607 81.788200378 0.6801999807 8.0675878525 0.8301777244 0.8296859264
 2314.8037109 9.0000000000 13.831600189 13.831600189 12.250000954 0.6008121371 0.0061280001 0.1655604988 2.4094076157 8.7750997543 81.628692627 81.444519043 81.283599854 0.7004323602 8.2033996582 0.8442999721 0.8470839858
 2314.9560547 9.0000000000 13.820300102 13.820300102 12.250000954 0.6004121304 0.0044829999 0.1646248996 2.4141943455 8.2392997742 81.065605164 81.017089844 80.892303467 0.7206152081 8.3390998840 0.8582999706 0.8599102497
 2315.1083984 9.0000000000 13.815899849 13.815899849 12.250000954 0.6000121832 0.0026880000 0.1664376855 2.4106893539 8.3905582428 80.703498840 80.774879456 80.719902039 0.7301079631 8.2618236542 0.8689829111 0.8744397163
 2315.2607422 9.0000000000 13.814200401 13.814200401 12.250000954 0.5996121764 0.0008310000 0.1693609953 2.4040000439 8.8207092285 80.422996521 80.339309692 80.160202026 0.7350999713 8.0980625153 0.8783849478 0.8859192133
 2315.4133301 9.0000000000 13.812600136 13.812600136 12.250000954 0.5993086696 -0.001026000 0.1722906977 2.3972954750 9.2518997192 80.142501831 80.018257141 79.951797485 0.7402036786 7.9340004921 0.8878999949 0.8914200068
 2315.5656738 9.0000000000 13.818799973 13.818799973 12.250000954 0.6158801913 -0.000324000 0.1733437181 2.3945035934 9.5427999496 80.122596741 80.035095215 80.074096680 0.7424976230 7.9896998405 0.8920999765 0.8938239813
 2315.7180176 9.0000000000 13.835399628 13.835399628 12.250000954 0.6160121560 0.0037630000 0.1719247401 2.3968036175 9.6486301422 80.447303772 80.282104492 80.379501343 0.7409977317 8.3354463577 0.8896039724 0.8929730654
 2315.8703613 9.0000000000 13.852000237 13.852000237 12.250000954 0.6156121492 0.0078509999 0.1705089957 2.3991000652 9.7547302246 80.771896362 80.685096741 80.828903198 0.7396000028 8.6817445755 0.8871039748 0.8894461989
 2316.0227051 9.0000000000 13.869500160 13.869500160 12.250000954 0.6246168017 0.0111379996 0.1693879962 2.4015998840 9.8704147339 80.996688843 81.107559204 81.238998413 0.7386000156 8.9752302170 0.8853028417 0.8839551806
 2316.1752930 9.0000000000 13.892100334 13.892100334 12.250000954 0.6321719885 0.0098730000 0.1699619293 2.4051058292 10.041600227 80.653099060 81.196365356 81.176399231 0.7405028343 8.9679002762 0.8874999881 0.8792120218
 2316.3276367 9.0000000000 13.914799690 13.914799690 12.250000954 0.6320121884 0.0086080004 0.1705349237 2.4087054729 10.212499619 80.309600830 80.860778809 80.712997437 0.7423028350 8.9601125717 0.8896964788 0.8833358884
 2316.4799805 9.0000000000 13.937500000 13.937500000 12.250000954 0.6316121817 0.0073429998 0.1711069942 2.4121999741 10.383500099 79.966102600 80.051322937 79.741500854 0.7440999746 8.9523124695 0.8918964863 0.8913359046
 2316.6323242 9.0000000000 13.897599220 13.897599220 12.250000954 0.6312121749 0.0097510004 0.1703139991 2.4121999741 10.488699913 79.808998108 79.305686951 79.100601196 0.7452999949 8.7887620926 0.9000868797 0.9030051231
 2316.7849121 9.0000000000 13.848299980 13.848299980 12.250000954 0.6308121681 0.0127130002 0.1693133861 2.4116992950 10.584099770 79.680000305 78.737449646 78.567405701 0.7464017868 8.6010999680 0.9090999961 0.9111079574
 2316.9372559 9.0000000000 13.798999786 13.798999786 12.250000954 0.6301213503 0.0156750008 0.1683108360 2.4113023281 10.679400444 79.551002502 79.137748718 79.404800415 0.7475001812 8.4138002396 0.9180999994 0.9193550944
 2317.0895996 9.0000000000 13.776499748 13.776499748 12.250000954 0.6296151876 0.0172830001 0.1657160670 2.4128046036 10.598899841 79.644088745 80.064636230 80.373596191 0.7475992441 8.3989238739 0.9186990261 0.9194102287
 2317.2419434 9.0000000000 13.772699356 13.772699356 12.250000954 0.6461794376 0.0179399997 0.1620109975 2.4156999588 10.395400047 79.892791748 80.781188965 80.972999573 0.7470999956 8.5046300888 0.9135083556 0.9112730622
 2317.3945313 9.0000000000 13.768898964 13.768898964 12.250000954 0.6371827126 0.0185979996 0.1582960039 2.4185993671 10.191800117 80.141502380 80.808448792 80.731399536 0.7464971542 8.6107997894 0.9082999825 0.9054437876
 2317.5468750 9.0000000000 13.766499519 13.766499519 12.250000954 0.6284645200 0.0173390005 0.1558074057 2.4181876183 9.9842996597 80.220703125 79.976753235 79.623397827 0.7446925044 8.7076997757 0.9060000181 0.9054239988
 2317.6992188 9.0000000000 13.767000198 13.767000198 12.250000954 0.7747961879 0.0117560001 0.1560603976 2.4104876518 9.7679996490 79.917594910 79.014160156 78.728897095 0.7399923205 8.7837781906 0.9101932645 0.9099410772
 2317.8515625 9.0000000000 13.767499924 13.767499924 12.250000954 0.8870202303 0.0061730002 0.1563130021 2.4028000832 9.5517997742 79.614501953 78.752899170 78.764198303 0.7351999879 8.8599777222 0.9144930840 0.9157410264
 2318.0039063 9.0000000000 13.767800331 13.767800331 12.250000954 0.8899152875 0.0007690000 0.1565829962 2.3952000141 9.3373003006 79.326400757 79.337684631 79.608200073 0.7304999828 8.9267930984 0.9184935689 0.9188230634
 2318.1564941 9.0000000000 13.761401176 13.761401176 12.250000954 0.8894151449 0.0020269998 0.1574724317 2.3957006931 9.1883001328 79.594398499 80.207839966 80.488609314 0.7269943953 8.6450004578 0.9139000177 0.9163399935
 2318.3088379 9.0000000000 13.754900932 13.754900932 12.250000954 0.8889151812 0.0032840001 0.1583604217 2.3962006569 9.0394001007 79.862396240 80.528785706 80.547599792 0.7234942317 8.3635511398 0.9093073606 0.9109589458
 2318.4611816 9.0000000000 13.748499870 13.748499870 12.250000954 0.9054793715 0.0045420001 0.1592469960 2.3966999054 8.8903999329 80.130401611 80.294776917 80.175796509 0.7199000120 8.0816516876 0.9048072100 0.9046833515
 2318.6135254 9.0000000000 13.739600182 13.739600182 12.250000954 0.9055152535 0.0052000000 0.1589429975 2.3947999477 8.6724996567 80.251899719 80.082504272 80.038497925 0.7197999954 8.1457958221 0.9037017822 0.9000179768
 2318.7661133 9.0000000000 13.729900360 13.729900360 12.250000954 0.9050151706 0.0056550000 0.1582298726 2.3919954300 8.4312000275 80.323402405 80.113487244 80.148597717 0.7209017873 8.3290996552 0.9039000273 0.9013839960
