# LAS format log file from PETREL
# Project units are specified as depth units
#==================================================================
~Version information
VERS.   2.0:
WRAP.   NO:
#==================================================================
~Well
STRT .m      2859.8344727 :
STOP .m      3172.2546387 :
STEP .m     0.00000000 :
NULL .        -999.250000 :
COMP.           : COMPANY
WELL.  7/1-2 S   : WELL
FLD.            : FIELD
LOC.            : LOCATION
SRVC.           : SERVICE COMPANY
DATE.  2018-09-11 14:49:04   : Log Export Date {yyyy-MM-dd HH:mm:ss}
PROV.           : PROVINCE
UWI.   7/1-2 S   : UNIQUE WELL ID
API.            : API NUMBER
#==================================================================
~Curve
DEPT .m                   : DEPTH
Lithology_geolink ._      : Lithology_geolink
DCAL .in                  : DCAL
CALI .in                  : CALI
BS .in                    : BS
ROP .m/h                  : ROP
DRHO .g/cm3               : DRHO
THOR .ppm                 : THOR
NPHI .m3/m3               : NPHI
RHOB .g/cm3               : RHOB
PEF .b/e                  : PEF
GR .gAPI                  : GR
URAN .ppm                 : URAN
DTC .us/ft                : DTC
DT .us/ft                 : DT
DTS .us/ft                : DTS
RDEP .ohm.m               : RDEP
RSHA .ohm.m               : RSHA
RMED .ohm.m               : RMED
~Parameter
#==================================================================
~Ascii
# ...
 3106.2656250 1.0000000000 8.4359998703 8.4359998703 8.5000000000 30387.410156 0.0003000000 2.8840999603 0.1749999970 2.2726480961 5.9942998886 42.794300079 0.9333999753 76.234397888 76.234397888 136.80880737 0.4527352452 0.4060160220 0.4274258018
 3106.4179688 1.0000000000 8.4327001572 8.4327001572 8.5000000000 29405.570313 -0.020400001 2.8422000408 0.1836999953 2.2626402378 6.2627000809 42.739799500 0.9167000055 78.091400146 78.091400146 139.16729736 0.3948926330 0.3578770757 0.3734863698
 3106.5703125 1.0000000000 8.4385004044 8.4385004044 8.5000000000 29114.570313 -0.014000000 2.7618999481 0.2016000003 2.2477989197 6.7121000290 41.785099030 0.8945000172 79.111297607 79.111297607 141.07260132 0.3578593135 0.3293456733 0.3388554752
 3106.7226563 1.0000000000 8.4455995560 8.4455995560 8.5000000000 30465.210938 -0.010400000 2.6061999798 0.2014999986 2.2375729084 6.4190001488 41.873901367 0.9054999948 78.998001099 78.998001099 142.32150269 0.3415521681 0.3211262226 0.3239476979
 3106.8752441 1.0000000000 8.4379997253 8.4379997253 8.5000000000 31789.408203 -0.006900000 2.3048999310 0.2002999932 2.2500479221 7.2396998405 43.691001892 0.9065999985 77.835296631 77.835296631 141.86929321 0.3490878046 0.3377732337 0.3324862421
 3107.0275879 1.0000000000 8.4434995651 8.4434995651 8.5000000000 32496.384766 -0.013100000 2.0804998875 0.1944999993 2.2816519737 7.9300999641 41.912998199 0.8991000056 76.175498962 76.175498962 139.62739563 0.3851421475 0.3864219487 0.3689414859
 3107.1799316 1.0000000000 8.4296998978 8.4296998978 8.5000000000 34091.390625 -0.009100000 1.9204001427 0.1905999929 2.3288307190 7.7231998444 42.862201691 0.9217000008 73.965103149 73.965103149 135.59179688 0.4615773857 0.4856408536 0.4448781908
 3107.3322754 1.0000000000 8.4011001587 8.4011001587 8.5000000000 34948.367188 0.0182000007 1.7739000320 0.1859000027 2.4042222500 8.1448001862 43.020698547 0.9480999708 71.409698486 71.409698486 130.36369324 0.6011523008 0.6779830456 0.5839539170
 3107.4848633 1.0000000000 8.4189996719 8.4189996719 8.5000000000 31599.691406 -0.038699999 1.7267999649 0.1576000005 2.4812560081 10.184900284 40.387199402 0.9393000007 68.563003540 68.563003540 124.63849640 0.8190509677 1.0223481655 0.8081408739
 3107.6372070 16.000000000 8.4329004288 8.4329004288 8.5000000000 28089.490234 -0.039000001 1.7784999609 0.1269000024 2.5163249969 9.4086999893 38.891700745 0.9404000044 66.104499817 66.104499817 119.13950348 1.0950574875 1.5323822498 1.1153075695
 3107.7895508 16.000000000 8.4250001907 8.4250001907 8.5000000000 23750.078125 -0.006300000 1.8046000004 0.1027000025 2.5205700397 9.0032997131 38.045600891 0.9815999866 64.134101868 64.134101868 114.63099670 1.4202786684 2.1643869877 1.5235455036
 3107.9418945 16.000000000 8.4252004623 8.4252004623 8.5000000000 22652.466797 -0.028000001 1.8722000122 0.0970999971 2.5343403816 9.0141000748 38.604900360 0.9833999872 62.844898224 62.844898224 110.40540314 1.8345716000 2.9650330544 2.1231770515
 3108.0944824 16.000000000 8.4355001450 8.4355001450 8.5000000000 19562.638672 -0.027799999 2.0064001083 0.0982000008 2.5599613190 8.9511995316 35.182300568 0.9484999776 62.874599457 62.874599457 108.87390137 2.2109980583 3.7101080418 2.7906315327
 3108.2468262 16.000000000 8.4307003021 8.4307003021 8.5000000000 17623.632813 -0.017600000 2.0450000763 0.0917999968 2.5690920353 8.2253999710 35.197601318 0.9197000265 63.965698242 63.965698242 109.86239624 2.1714644432 3.3585662842 2.7932972908
 3108.3991699 1.0000000000 8.4104995728 8.4104995728 8.5000000000 14458.968750 -0.024499999 2.1115999222 0.0930000022 2.5329029560 6.3070998192 34.883201599 0.8830000162 66.169601440 66.169601440 114.03221130 1.6836827993 2.1900746822 2.0173454285
 3108.5515137 1.0000000000 8.4161996841 8.4161996841 8.5000000000 13222.662109 -0.001700000 2.3218998909 0.1048000008 2.4530577660 6.1304001808 39.708599091 0.7307000160 68.191200256 68.191200256 118.88050079 1.1540489197 1.3222898245 1.2772859335
 3108.7041016 1.0000000000 8.4236001968 8.4236001968 8.5000000000 13258.325195 0.0178999994 2.3659000397 0.1265999973 2.3717155457 6.5029997826 40.828998566 0.6578999758 70.159500122 70.159500122 122.90799713 0.8322144151 0.8909889460 0.8792359829
 3108.8564453 1.0000000000 8.4125003815 8.4125003815 8.5000000000 14615.330078 0.0093999999 2.2725000381 0.1482000053 2.3366720676 6.5735001564 42.496299744 0.6930000186 71.714797974 71.714797974 124.45700073 0.7047038674 0.7225692272 0.7259450555
 3109.0087891 1.0000000000 8.4258003235 8.4258003235 8.5000000000 17065.447266 -0.024100000 2.3104000092 0.1595000029 2.3680067062 7.2246999741 45.762699127 0.7059999704 72.117500305 72.117500305 124.21099854 0.7200750113 0.7133144140 0.7293940783
 3109.1611328 1.0000000000 8.4245996475 8.4245996475 8.5000000000 18135.294922 -0.043400001 2.3592998981 0.1559000015 2.4345452785 5.7527999878 49.840599060 0.7645000219 71.084396362 71.084396362 122.93219757 0.8653668165 0.8276164532 0.8614879847
 3109.3134766 1.0000000000 8.4682998657 8.4682998657 8.5000000000 18807.048828 -0.050099999 2.3373000622 0.1386000067 2.4698596001 6.0869998932 50.847698212 0.8087000251 68.393203735 68.393203735 121.77320099 1.0391429663 0.9727347493 1.0233809948
 3109.4660645 1.0000000000 8.4744997025 8.4744997025 8.5000000000 18191.914063 -0.026699999 2.2897000313 0.1242000014 2.4745318890 7.3063001633 46.461399078 0.8417999744 67.485900879 67.485900879 121.66049957 1.0365051031 0.9645139575 1.0147148371
 3109.6184082 1.0000000000 8.4652996063 8.4652996063 8.5000000000 18178.748047 -0.003900000 2.2335999012 0.1218999997 2.4701588154 6.6584000587 43.265998840 0.8935999870 68.123100281 68.123100281 123.77369690 0.8610816002 0.8049560785 0.8416777253
 3109.7707520 1.0000000000 8.4391002655 8.4391002655 8.5000000000 19041.869141 -0.029600000 2.1140000820 0.1348000020 2.4197328091 5.6552000046 41.912799835 0.9419999719 69.867202759 69.867202759 127.34200287 0.6653137803 0.6295810938 0.6519041657
 3109.9230957 1.0000000000 8.4399995804 8.4399995804 8.5000000000 20313.724609 0.0170000009 2.1205000877 0.1433999985 2.3305239677 5.8158001900 41.639198303 0.9354000092 72.489898682 72.489898682 131.87730408 0.5179719925 0.4972240031 0.5096556544
 3110.0756836 1.0000000000 8.4172000885 8.4172000885 8.5000000000 20943.015625 0.0052000000 2.1703000069 0.1641000062 2.2797067165 5.1421999931 39.838100433 0.9354000092 75.006401062 75.006401062 135.54229736 0.4312384725 0.4184257984 0.4259336591
 3110.2280273 1.0000000000 8.4317998886 8.4317998886 8.5000000000 21879.103516 -0.011700000 2.2569000721 0.1984000057 2.3039119244 4.7174000740 39.511798859 0.9225999713 77.611099243 77.611099243 138.19380188 0.3936600685 0.3831564188 0.3893584907
 3110.3803711 1.0000000000 8.4549999237 8.4549999237 8.5000000000 24866.560547 -0.024599999 2.5039000511 0.1938000023 2.3383440971 5.3224000931 41.583000183 0.8612999916 79.801704407 79.801704407 140.37049866 0.3797222674 0.3676248193 0.3750229180
 3110.5327148 1.0000000000 8.4472999573 8.4472999573 8.5000000000 25563.220703 0.0041000000 2.5841000080 0.1846999973 2.3264327049 6.1079998016 41.541301727 0.7739999890 80.746597290 80.746597290 141.86990356 0.3645486236 0.3481624126 0.3583534360
 3110.6853027 1.0000000000 8.4475002289 8.4475002289 8.5000000000 27992.710938 -0.009000000 2.4697999954 0.1858000010 2.2893252373 5.8481001854 42.718101501 0.7063999772 81.078102112 81.078102112 142.93240356 0.3438331783 0.3226408660 0.3356363773
 3110.8376465 1.0000000000 8.4347000122 8.4347000122 8.5000000000 28411.431641 -0.005700000 2.3055999279 0.1876000017 2.2698199749 5.2017998695 44.263198853 0.6825000048 81.162796021 81.162796021 144.13600159 0.3277257979 0.3018333316 0.3171296418
 3110.9899902 1.0000000000 8.4327001572 8.4327001572 8.5000000000 30014.449219 0.0052000000 2.0905001163 0.1974000037 2.2637557983 4.5510001183 41.692798615 0.6600999832 81.234497070 81.234497070 145.09590149 0.3200123310 0.2903184295 0.3067166507
 3111.1423340 1.0000000000 8.4249000549 8.4249000549 8.5000000000 30369.197266 -0.001600000 1.8651000261 0.2002000064 2.2632865906 4.7788000107 41.418998718 0.6862000227 81.009696960 81.009696960 145.26260376 0.3204991817 0.2885029018 0.3044036925
