# LAS format log file from PETREL
# Project units are specified as depth units
#==================================================================
~Version information
VERS.   2.0:
WRAP.   NO:
#==================================================================
~Well
STRT .m      2859.8344727 :
STOP .m      3172.2546387 :
STEP .m     0.00000000 :
NULL .        -999.250000 :
COMP.           : COMPANY
WELL.  7/1-2 S   : WELL
FLD.            : FIELD
LOC.            : LOCATION
SRVC.           : SERVICE COMPANY
DATE.  2018-09-11 14:49:04   : Log Export Date {yyyy-MM-dd HH:mm:ss}
PROV.           : PROVINCE
UWI.   7/1-2 S   : UNIQUE WELL ID
API.            : API NUMBER
#==================================================================
~Curve
DEPT .m                   : DEPTH
Lithology_geolink ._      : Lithology_geolink
DCAL .in                  : DCAL
CALI .in                  : CALI
BS .in                    : BS
ROP .m/h                  : ROP
DRHO .g/cm3               : DRHO
THOR .ppm                 : THOR
NPHI .m3/m3               : NPHI
RHOB .g/cm3               : RHOB
PEF .b/e                  : PEF
GR .gAPI                  : GR
URAN .ppm                 : URAN
DTC .us/ft                : DTC
DT .us/ft                 : DT
DTS .us/ft                : DTS
RDEP .ohm.m               : RDEP
RSHA .ohm.m               : RSHA
RMED .ohm.m               : RMED
~Parameter
#==================================================================
~Ascii
# ...
 3086.1486816 1.0000000000 8.4377002716 8.4377002716 8.5000000000 29047.306641 -0.037900001 2.0534000397 0.1843000054 2.2911272049 12.990699768 35.364299774 1.0511000156 77.210700989 77.211914063 140.50883484 0.3403950334 0.3378956914 0.3515895605
 3086.3010254 1.0000000000 8.4700002670 8.4700002670 8.5000000000 29172.615234 0.0159000009 2.0631999969 0.1815000027 2.2897288799 9.6071996689 34.727100372 1.0084999800 76.956001282 76.956817627 138.54310608 0.3298339248 0.3259383738 0.3428281546
 3086.4536133 1.0000000000 8.5143995285 8.5143995285 8.5000000000 29215.849609 -0.028800000 2.0107998848 0.2056999952 2.3170919418 10.670299530 35.967601776 0.9534999728 77.314201355 77.313629150 138.43556213 0.3230109215 0.3172139525 0.3370093107
 3086.6059570 1.0000000000 8.5240001678 8.5240001678 8.5000000000 29308.568359 -0.039600000 2.1242001057 0.2111999989 2.3034050465 10.029000282 36.726299286 0.8507000208 78.167800903 78.166435242 138.56069946 0.3118179440 0.3033222556 0.3254185915
 3086.7583008 1.0000000000 8.5908002853 8.5908002853 8.5000000000 29207.947266 -0.005300000 2.2913999557 0.1941999942 2.2545807362 8.9182996750 36.891498566 0.7634999752 79.011604309 79.010253906 138.77955627 0.2917322218 0.2808360755 0.3037347794
 3086.9106445 1.0000000000 8.6258001328 8.6258001328 8.5000000000 29093.169922 -0.024800001 2.4927000999 0.2120999992 2.2287192345 7.9230999947 37.389198303 0.7087000012 79.539001465 79.537315369 139.31657410 0.2756515145 0.2631566525 0.2860566676
 3087.0632324 1.0000000000 8.5934000015 8.5934000015 8.5000000000 28936.591797 -0.020099999 2.7137000561 0.2222999930 2.2362999916 7.6290001869 40.692100525 0.6891000271 79.837501526 79.837020874 140.21386719 0.2686111927 0.2549131513 0.2777132988
 3087.2155762 1.0000000000 8.4895000458 8.4895000458 8.5000000000 28746.210938 -0.023700001 2.9066998959 0.2157000005 2.2452690601 7.9979000092 40.695800781 0.6902999878 79.747901917 79.748046875 140.30644226 0.2658044994 0.2517051399 0.2740059197
 3087.3679199 1.0000000000 8.4827003479 8.4827003479 8.5000000000 28900.707031 0.0016000000 2.9934999943 0.1960999966 2.2594075203 10.053099632 37.823799133 0.7414000034 79.472099304 79.472541809 139.44618225 0.2665987313 0.2526983917 0.2740998566
 3087.5202637 1.0000000000 8.4848003387 8.4848003387 8.5000000000 29100.962891 -0.039900001 2.7184998989 0.2012999952 2.2704269886 8.3458003998 35.118801117 0.8338999748 78.643798828 78.646446228 138.33634949 0.2708862424 0.2575843334 0.2779875100
 3087.6728516 1.0000000000 8.4814996719 8.4814996719 8.5000000000 29447.921875 -0.025800001 2.5151000023 0.1984000057 2.2632112503 7.5900001526 36.037799835 0.8644999862 77.865509033 77.866752625 138.22816467 0.2694024146 0.2570009530 0.2760032117
 3087.8251953 1.0000000000 8.4823999405 8.4823999405 8.5000000000 29565.001953 -0.012100000 2.2604999542 0.2106000036 2.2543721199 7.3878002167 34.722000122 0.8998000026 77.723999023 77.724227905 139.31036377 0.2542243600 0.2431222796 0.2603251636
 3087.9775391 1.0000000000 8.4885997772 8.4885997772 8.5000000000 30347.802734 0.0015000000 2.0385000706 0.2109999955 2.2466008663 7.3836998940 33.231399536 0.9340999722 78.291801453 78.290893555 142.32505798 0.2325347811 0.2226328552 0.2379359007
 3088.1298828 1.0000000000 8.4701004028 8.4701004028 8.5000000000 30634.300781 0.0091000004 1.8734999895 0.2153999954 2.2361674309 7.3199000359 32.405998230 0.9699999690 79.145301819 79.143936157 146.75659180 0.2162261158 0.2066256404 0.2209272385
 3088.2822266 1.0000000000 8.4580001831 8.4580001831 8.5000000000 31156.384766 -0.028000001 1.6996999979 0.2434999943 2.2403922081 7.2820000648 34.606201172 1.0247999430 80.095497131 80.092453003 150.84100342 0.2093220800 0.1989246458 0.2133243233
 3088.4348145 1.0000000000 8.4568004608 8.4568004608 8.5000000000 31363.113281 -0.008300000 1.8210999966 0.2308000028 2.2519359589 7.3478999138 37.220001221 1.0343999863 80.833503723 80.832321167 152.41760254 0.2093998343 0.1971028894 0.2128008008
 3088.5871582 1.0000000000 8.4591999054 8.4591999054 8.5000000000 31584.326172 -0.013000000 2.1956999302 0.2245000005 2.2531933784 7.4749999046 40.292400360 0.9576999545 81.740394592 81.738945007 152.84233093 0.2136931121 0.1984977573 0.2161945403
 3088.7395020 1.0000000000 8.4547004700 8.4547004700 8.5000000000 31678.802734 -0.027700000 2.5502998829 0.2185000032 2.2411077023 7.1828999519 37.865501404 0.8712000251 82.194999695 82.194274902 153.44203186 0.2174939066 0.1992987245 0.2189955115
 3088.8918457 1.0000000000 8.4666996002 8.4666996002 8.5000000000 31779.642578 -0.024800001 2.8329999447 0.2252999991 2.2287626266 6.8288998604 37.970699310 0.8206999898 83.017997742 83.015365601 154.72068787 0.2153070271 0.1950137466 0.2156108767
 3089.0444336 1.0000000000 8.4680995941 8.4680995941 8.5000000000 31825.951172 0.0006000000 3.1282000542 0.2283000052 2.2175519466 6.3389000893 41.096500397 0.7387999892 84.241798401 84.239837646 156.39143372 0.2059150636 0.1857149005 0.2052166611
 3089.1967773 1.0000000000 8.4591999054 8.4591999054 8.5000000000 31937.650391 -0.016600000 3.1602001190 0.2199999988 2.2013337612 6.3028998375 40.451400757 0.7289999723 85.536697388 85.534622192 158.48144531 0.1951172948 0.1766145825 0.1936185956
 3089.3491211 1.0000000000 8.4689998627 8.4689998627 8.5000000000 31992.843750 -0.005100000 2.9716999531 0.2284000069 2.1896865368 6.2114000320 41.514099121 0.8432000279 86.441902161 86.440452576 160.04060364 0.1906072050 0.1742038429 0.1883084923
 3089.5014648 1.0000000000 8.4455995560 8.4455995560 8.5000000000 32073.826172 -0.001600000 2.8050000668 0.2308000028 2.1893827915 6.1230001450 43.470798492 0.9732000232 86.610702515 86.610160828 160.81903076 0.1951852739 0.1806792021 0.1922872066
 3089.6540527 1.0000000000 8.4397001266 8.4397001266 8.5000000000 32116.837891 -0.006000000 2.7702000141 0.2324000001 2.1950275898 5.9853000641 40.764801025 1.0563000441 86.221801758 86.222427368 160.90229797 0.2082789987 0.1950769126 0.2044804543
 3089.8063965 1.0000000000 8.4739999771 8.4739999771 8.5000000000 32419.466797 -0.008600000 3.0076999664 0.2476000041 2.2074120045 5.8020000458 44.128101349 1.0856000185 85.349090576 85.350486755 159.63174438 0.2278685868 0.2149681151 0.2231700271
 3089.9587402 1.0000000000 8.4850997925 8.4850997925 8.5000000000 32591.523438 -0.008000000 3.3422000408 0.2249999940 2.2330462933 5.5699000359 41.963798523 1.0283999443 84.432701111 84.434165955 157.51181030 0.2554557621 0.2400597781 0.2492581755
 3090.1110840 1.0000000000 8.4727001190 8.4727001190 8.5000000000 32653.626953 -0.010700000 3.5557000637 0.2233999968 2.2633087635 5.7307000160 42.409599304 0.9498999715 83.580398560 83.581764221 154.95510864 0.2866500020 0.2651597559 0.2784532011
 3090.2634277 1.0000000000 8.4799995422 8.4799995422 8.5000000000 32691.375000 -0.014700000 3.7846000195 0.2257999927 2.2793960571 7.1262001991 44.694301605 0.8331000209 83.242706299 83.243789673 153.41233826 0.3031471968 0.2741712034 0.2928539217
 3090.4160156 1.0000000000 8.4743995667 8.4743995667 8.5000000000 32796.929688 -0.004900000 3.8041999340 0.2113000005 2.2716760635 7.2209000587 44.022998810 0.7246999741 83.131401062 83.131576538 153.52491760 0.2947136164 0.2613206804 0.2830158472
 3090.5683594 1.0000000000 8.4671001434 8.4671001434 8.5000000000 32865.621094 -0.000800000 3.5618999004 0.2070000023 2.2513337135 6.5869002342 42.425201416 0.6798999906 83.415496826 83.415039063 153.92984009 0.2798238695 0.2456251532 0.2666262984
 3090.7207031 1.0000000000 8.4777002335 8.4777002335 8.5000000000 33023.957031 0.0057000001 3.2437999249 0.2062000036 2.2290356159 6.4309000969 40.837699890 0.6739000082 83.441001892 83.440963745 153.25688171 0.2757065594 0.2419059277 0.2605097890
 3090.8730469 1.0000000000 8.4912996292 8.4912996292 8.5000000000 33250.000000 -0.005600000 2.7883999348 0.2179999948 2.2236499786 6.5388998985 40.573501587 0.6998000145 82.631309509 82.633903503 151.10050964 0.2828769684 0.2524660826 0.2668795288
 3091.0256348 1.0000000000 8.4947996140 8.4947996140 8.5000000000 33404.605469 -0.0000000000 2.2595000267 0.2324000001 2.2499361038 6.6669001579 40.926601410 0.7742999792 80.932098389 80.934822083 147.45144653 0.3066618443 0.2811540067 0.2899629772
