# LAS format log file from PETREL
# Project units are specified as depth units
#==================================================================
~Version information
VERS.   2.0:
WRAP.   NO:
#==================================================================
~Well
STRT .m      334.06079102 :
STOP .m      2807.3603516 :
STEP .m     0.00000000 :
NULL .        -999.250000 :
COMP.           : COMPANY
WELL.  7/1-1   : WELL
FLD.            : FIELD
LOC.            : LOCATION
SRVC.           : SERVICE COMPANY
DATE.  2018-09-11 14:49:04   : Log Export Date {yyyy-MM-dd HH:mm:ss}
PROV.           : PROVINCE
UWI.   7/1-1   : UNIQUE WELL ID
API.            : API NUMBER
#==================================================================
~Curve
DEPT .m                   : DEPTH
Lithology_geolink ._      : Lithology_geolink
DCAL .in                  : DCAL
CALI .in                  : CALI
BS .in                    : BS
ROP .m/h                  : ROP
DRHO .g/cm3               : DRHO
NPHI .m3/m3               : NPHI
RHOB .g/cm3               : RHOB
GR .gAPI                  : GR
DTC .us/ft                : DTC
DT .us/ft                 : DT
DTE .us/ft                : DTE
RDEP .ohm.m               : RDEP
SP .mV                    : SP
RSHA .ohm.m               : RSHA
RMED .ohm.m               : RMED
~Parameter
#==================================================================
~Ascii
# ...
 362.25479126  -999.250000 18.218999863 18.218999863 25.999998093 0.5516972542  -999.250000  -999.250000  -999.250000 22.346599579  -999.250000 57.361686707 182.40330505  -999.250000 40.901847839  -999.250000 0.0731167048
 362.40716553  -999.250000 18.215200424 18.215200424 25.999998093 0.5516024828  -999.250000  -999.250000  -999.250000 22.481399536  -999.250000 57.376087189 182.40330505  -999.250000 38.154800415  -999.250000 0.0693174601
 362.55957031  -999.250000 18.216299057 18.216299057 25.999998093 0.5510029793  -999.250000  -999.250000  -999.250000 22.318300247  -999.250000 57.390483856 182.40330505  -999.250000 36.795745850  -999.250000 0.0651096925
 362.71197510  -999.250000 18.225200653 18.225200653 25.999998093 0.5504029989  -999.250000  -999.250000  -999.250000 21.691299438  -999.250000 57.404819489 182.40330505  -999.250000 37.599498749  -999.250000 0.0602339618
 362.86437988  -999.250000 18.233999252 18.233999252 25.999998093 0.5499023795  -999.250000  -999.250000  -999.250000 21.064300537  -999.250000 57.419185638 182.40330505  -999.250000 38.403900146  -999.250000 0.0549300760
 363.01678467  -999.250000 18.243600845 18.243600845 25.999998093 0.5493028760  -999.250000  -999.250000  -999.250000 20.539400101  -999.250000 57.433586121 182.40330505  -999.250000 38.995300293  -999.250000 0.0495300777
 363.16918945  -999.250000 18.258699417 18.258699417 25.999998093 0.5487028360  -999.250000  -999.250000  -999.250000 20.837900162  -999.250000 57.447986603 182.40330505  -999.250000 37.868000031  -999.250000 0.0441293418
 363.32159424  -999.250000 18.273899078 18.273899078 25.999998093 0.5482023954  -999.250000  -999.250000  -999.250000 21.136400223  -999.250000 57.462387085 182.40330505  -999.250000 36.740699768  -999.250000 0.0403605513
 363.47396851  -999.250000 18.288999557 18.288999557 25.999998093 0.5476029515  -999.250000  -999.250000  -999.250000 21.434999466  -999.250000 57.476783752 182.40330505  -999.250000 35.613399506  -999.250000 0.0401475765
 363.62637329  -999.250000 18.298200607 18.298200607 25.999998093 0.5470029712  -999.250000  -999.250000  -999.250000 21.136999130  -999.250000 57.491119385 182.40330505  -999.250000 37.286998749  -999.250000 0.0421990417
 363.77877808  -999.250000 18.306100845 18.306100845 25.999998093 0.5465025306  -999.250000  -999.250000  -999.250000 20.716299057  -999.250000 57.505485535 182.40330505  -999.250000 39.536598206  -999.250000 0.0446990393
 363.93118286  -999.250000 18.314100266 18.314100266 25.999998093 0.5459028482  -999.250000  -999.250000  -999.250000 20.295700073  -999.250000 57.519886017 182.40330505  -999.250000 41.786300659  -999.250000 0.0472669974
 364.08358765  -999.250000 18.304700851 18.304700851 25.999998093 0.5453028679  -999.250000  -999.250000  -999.250000 20.648199081  -999.250000 57.534286499 182.40330505  -999.250000 44.071300507  -999.250000 0.0493915267
 364.23599243  -999.250000 18.281099319 18.281099319 25.999998093 0.5448023677  -999.250000  -999.250000  -999.250000 21.637199402  -999.250000 57.548686981 182.40330505  -999.250000 46.385601044  -999.250000 0.0506798141
 364.38839722  -999.250000 18.257600784 18.257600784 25.999998093 0.5442028642  -999.250000  -999.250000  -999.250000 22.626100540  -999.250000 57.563022614 182.40330505  -999.250000 48.699798584  -999.250000 0.0513399094
 364.54077148  -999.250000 18.244100571 18.244100571 25.999998093 0.5609158874  -999.250000  -999.250000  -999.250000 23.660699844  -999.250000 57.577388763 182.40330505  -999.250000 50.547500610  -999.250000 0.0519077703
 364.69317627  -999.250000 18.258399963 18.258399963 25.999998093 0.5605025291  -999.250000  -999.250000  -999.250000 24.820100784  -999.250000 108.47644043 182.40330505  -999.250000 51.118801117  -999.250000 0.0524398088
 364.84558105  -999.250000 18.272699356 18.272699356 25.999998093 0.5599029660  -999.250000  -999.250000  -999.250000 25.979499817  -999.250000 166.40516663 182.40330505  -999.250000 51.690101624  -999.250000 0.0530077703
 364.99798584  -999.250000 18.286899567 18.286899567 25.999998093 0.5593028665  -999.250000  -999.250000  -999.250000 27.138900757  -999.250000 182.40995789 182.41310120  -999.250000 52.261398315  -999.250000 0.0536077693
 365.15039063  -999.250000 18.289400101 18.289400101 25.999998093 0.5588023663  -999.250000  -999.250000  -999.250000 28.043399811  -999.250000 182.41983032 182.42300415 2.4065999985 49.331199646  -999.250000 0.0573347099
 365.30279541  -999.250000 18.291599274 18.291599274 25.999998093 0.5582028627  -999.250000  -999.250000  -999.250000 28.944499969  -999.250000 182.42965698 182.43280029 2.6642000675 46.354499817  -999.250000 0.0897956565
 365.45520020  -999.250000 18.293899536 18.293899536 25.999998093 0.5577023625  -999.250000  -999.250000  -999.250000 29.845699310  -999.250000 182.43954468 182.44271851 2.9217998981 43.377799988  -999.250000 0.1799634993
 365.60757446  -999.250000 18.297500610 18.297500610 25.999998093 0.5584959984  -999.250000  -999.250000  -999.250000 29.428199768  -999.250000 182.44937134 182.45249939 2.6324999332 41.257999420  -999.250000 0.4331449568
 365.75997925  -999.250000 18.301599503 18.301599503 25.999998093 0.5592960119  -999.250000  -999.250000  -999.250000 28.461799622  -999.250000 182.45915222 182.46229553 2.1156001091 39.494899750  -999.250000 0.7930024862
 365.91238403  -999.250000 18.305799484 18.305799484 25.999998093 0.5601954460  -999.250000  -999.250000  -999.250000 27.495399475  -999.250000 182.46902466 182.47219849 1.5987000465 37.731899261  -999.250000 1.0545046329
 366.06478882  -999.250000 18.306100845 18.306100845 25.999998093 0.5609961152  -999.250000  -999.250000  -999.250000 27.092699051  -999.250000 182.47892761 182.48210144 1.6122000217 35.788700104  -999.250000 1.2062995434
 366.21719360  -999.250000 18.301200867 18.301200867 25.999998093 0.5618956685  -999.250000  -999.250000  -999.250000 27.452100754  -999.250000 182.48875427 182.49189758 2.3427000046 33.601898193 1.2717828751 1.3095090389
 366.36959839  -999.250000 18.296300888 18.296300888 25.999998093 0.5626961589  -999.250000  -999.250000  -999.250000 27.811599731  -999.250000 182.49856567 182.50170898 3.0731999874 31.415197372 1.3574827909 1.3847836256
 366.52200317  -999.250000 18.291500092 18.291500092 25.948999405 0.5634961128  -999.250000  -999.250000  -999.250000 28.039100647  -999.250000 182.50843811 182.51159668 3.6249001026 29.821300507 1.4367841482 1.4393390417
 366.67437744  -999.250000 18.287399292 18.287399292 25.595399857 0.5643954873  -999.250000  -999.250000  -999.250000 27.484699249  -999.250000 182.51824951 182.52139282 3.1173000336 31.741701126 1.4780833721 1.4879972935
 366.82678223  -999.250000 18.283199310 18.283199310 25.241800308 0.5651959777  -999.250000  -999.250000  -999.250000 26.930200577  -999.250000 182.52812195 182.53129578 2.6096999645 33.662200928 1.5193917751 1.5315321684
 366.97918701  -999.250000 18.279100418 18.279100418 24.888200760 0.5659961104  -999.250000  -999.250000  -999.250000 26.375799179  -999.250000 182.53796387 182.54110718 2.1020998955 35.582698822 1.5605918169 1.5631855726
 367.13159180  -999.250000 18.284000397 18.284000397 22.908000946 0.5668956637  -999.250000  -999.250000  -999.250000 26.499900818  -999.250000 182.54782104 182.55099487 2.0325000286 36.113300323 1.5816957951 1.5861719847
 367.28399658  -999.250000 18.290300369 18.290300369 20.670799255 0.5676961541  -999.250000  -999.250000  -999.250000 26.731300354  -999.250000 182.55766296 182.56080627 2.0322000980 36.424198151 1.5996963978 1.6071747541
 367.43640137  -999.250000 18.296600342 18.296600342 18.433599472 0.5685956478  -999.250000  -999.250000  -999.250000 26.962699890  -999.250000 182.56753540 182.57069397 2.0318000317 36.735198975 1.6175963879 1.6217178106
 367.58880615  -999.250000 18.302900314 18.302900314 17.500000000 0.9662797451  -999.250000  -999.250000  -999.250000 27.196699142  -999.250000 182.57736206 182.58050537 2.0280001163 35.866298676 1.6258983612 1.6259437799
 367.74118042  -999.250000 18.309200287 18.309200287 17.500000000 0.9677025676  -999.250000  -999.250000  -999.250000 27.432699203  -999.250000 182.58721924 182.59039307 2.0216999054 34.152500153 1.6273994446 1.6257921457
