# LAS format log file from PETREL
# Project units are specified as depth units
#==================================================================
~Version information
VERS.   2.0:
WRAP.   NO:
#==================================================================
~Well
STRT .m      2859.8344727 :
STOP .m      3172.2546387 :
STEP .m     0.00000000 :
NULL .        -999.250000 :
COMP.           : COMPANY
WELL.  7/1-2 S   : WELL
FLD.            : FIELD
LOC.            : LOCATION
SRVC.           : SERVICE COMPANY
DATE.  2018-09-11 14:49:04   : Log Export Date {yyyy-MM-dd HH:mm:ss}
PROV.           : PROVINCE
UWI.   7/1-2 S   : UNIQUE WELL ID
API.            : API NUMBER
#==================================================================
~Curve
DEPT .m                   : DEPTH
Lithology_geolink ._      : Lithology_geolink
DCAL .in                  : DCAL
CALI .in                  : CALI
BS .in                    : BS
ROP .m/h                  : ROP
DRHO .g/cm3               : DRHO
THOR .ppm                 : THOR
NPHI .m3/m3               : NPHI
RHOB .g/cm3               : RHOB
PEF .b/e                  : PEF
GR .gAPI                  : GR
URAN .ppm                 : URAN
DTC .us/ft                : DTC
DT .us/ft                 : DT
DTS .us/ft                : DTS
RDEP .ohm.m               : RDEP
RSHA .ohm.m               : RSHA
RMED .ohm.m               : RMED
~Parameter
#==================================================================
~Ascii
# ...
 2920.1850586 5.0000000000 8.7193002701 8.7193002701 12.250000954 23509.767578  -999.250000 1.9501999617 0.3684000075  -999.250000  -999.250000 141.17959595 3.9418001175 64.737998962 64.730728149 146.36640930 3.1989307404 3.0324814320 2.9925031662
 2920.3374023 5.0000000000 8.7104997635 8.7104997635 12.250000954 23137.763672  -999.250000 2.0973000526 0.3562000096  -999.250000  -999.250000 140.71989441 3.8943998814 73.678596497 73.649986267 150.85243225 3.1688952446 3.0829348564 3.0180158615
 2920.4899902 5.0000000000 8.7135000229 8.7135000229 12.250000954 21856.800781  -999.250000 2.4284999371 0.3458000124  -999.250000  -999.250000 133.99440002 3.7625000477 81.464599609 81.452125549 153.04231262 2.8511099815 2.6342206001 2.7426421642
 2920.6423340 5.0000000000 8.7005996704 8.7005996704 12.250000954 21765.021484  -999.250000 2.8210000992 0.3664999902  -999.250000  -999.250000 133.31269836 3.4326999187 84.984497070 84.978858948 152.83404541 2.7540550232 2.4513924122 2.5614900589
 2920.7946777 5.0000000000 8.7031002045 8.7031002045 12.250000954 21420.884766  -999.250000 2.8945999146 0.3587000072  -999.250000  -999.250000 136.85910034 3.2576999664 86.112396240 86.110588074 151.07142639 2.4347124100 2.0785980225 2.0723845959
 2920.9470215 5.0000000000 8.7062997818 8.7062997818 12.250000954 21896.998047  -999.250000 2.9056000710 0.3485000134  -999.250000  -999.250000 137.70219421 3.1684000492 86.304397583 86.303779602 149.15475464 2.3210630417 1.9691493511 1.9274628162
 2921.0996094 5.0000000000 8.6891002655 8.6891002655 12.250000954 23918.779297  -999.250000 2.8980000019 0.3386999965  -999.250000  -999.250000 138.27690125 3.1163001060 86.748001099 86.747291565 147.73516846 2.2807641029 1.9209767580 1.9133219719
 2921.2519531 5.0000000000 8.7243995667 8.7243995667 12.250000954 24483.367188  -999.250000 2.8901998997 0.3048000038  -999.250000  -999.250000 138.57530212 3.1472001076 87.096000671 87.095443726 147.65612793 2.3732514381 2.1448404789 2.1786739826
 2921.4042969 5.0000000000 8.7213001251 8.7213001251 12.250000954 26584.382813  -999.250000 3.0211000443 0.3350999951  -999.250000  -999.250000 137.64370728 3.2281999588 87.518096924 87.517417908 148.94732666 2.4232201576 2.2055032253 2.2314159870
 2921.5566406 5.0000000000 8.7196998596 8.7196998596 12.250000954 27126.859375  -999.250000 3.3050999641 0.3380999863  -999.250000  -999.250000 135.96789551 3.2772998810 88.184501648 88.183433533 151.07897949 2.4661314487 2.2839741707 2.2884087563
 2921.7089844 5.0000000000 8.7190999985 8.7190999985 12.250000954 29766.332031  -999.250000 3.8959002495 0.3666999936  -999.250000  -999.250000 142.35420227 3.3835999966 89.107398987 89.104446411 153.01420593 2.6215014458 2.6385619640 2.6276113987
 2921.8615723 5.0000000000 8.7215995789 8.7215995789 12.250000954 30371.537109  -999.250000 3.9320998192 0.3441999853  -999.250000  -999.250000 143.38960266 3.5589001179 89.718200684 89.717224121 154.42573547 2.6642322540 2.6789369583 2.6751253605
 2922.0139160 5.0000000000 8.7195997238 8.7195997238 12.250000954 31803.019531  -999.250000 3.7971000671 0.3325000107  -999.250000  -999.250000 148.50860596 3.7341001034 89.476898193 89.477287292 154.51037598 2.6721873283 2.6268837452 2.6703078747
 2922.1662598 5.0000000000 8.7055997849 8.7055997849 12.250000954 32162.787109  -999.250000 3.7242999077 0.3395000100  -999.250000  -999.250000 151.35760498 3.8073999882 89.085601807 89.086227417 154.18601990 2.7076430321 2.7069711685 2.7378914356
 2922.3186035 5.0000000000 8.7227001190 8.7227001190 12.250000954 32257.750000  -999.250000 3.5169000626 0.3553000093  -999.250000  -999.250000 151.42140198 3.8994998932 88.914802551 88.915351868 153.65779114 2.6596541405 2.6722121239 2.6575582027
 2922.4711914 5.0000000000 8.7266998291 8.7266998291 12.250000954 32284.019531  -999.250000 3.3315000534 0.3343000114  -999.250000  -999.250000 146.45939636 3.9423999786 88.640510559 88.640953064 153.18545532 2.6005947590 2.5464017391 2.5336983204
 2922.6235352 5.0000000000 8.7149000168 8.7149000168 12.250000954 32270.037109  -999.250000 3.4091999531 0.3228999972  -999.250000  -999.250000 142.77810669 3.7732999325 88.376403809 88.376823425 153.12109375 2.5305123329 2.3717799187 2.3641717434
 2922.7758789 5.0000000000 8.6807003021 8.6807003021 12.250000954 32190.046875  -999.250000 3.5739998817 0.3291999996  -999.250000  -999.250000 151.99650574 3.5534000397 87.948196411 87.948883057 153.86828613 2.5657432079 2.5446219444 2.5916345119
 2922.9282227 5.0000000000 8.6976003647 8.6976003647 12.250000954 32131.505859  -999.250000 3.6033000946 0.3382000029  -999.250000  -999.250000 148.60479736 3.4165999889 87.350593567 87.352508545 154.84266663 2.5391852856 2.5276553631 2.5368769169
 2923.0808105 5.0000000000 8.7137002945 8.7137002945 12.250000954 32509.277344  -999.250000 3.5887000561 0.3373999894  -999.250000  -999.250000 146.66070557 3.3092999458 87.055389404 87.055862427 155.39093018 2.3569922447 2.1665794849 2.1280558109
 2923.2331543 5.0000000000 8.7054996490 8.7054996490 12.250000954 32848.289063  -999.250000 3.5329999924 0.3501999974  -999.250000  -999.250000 143.90919495 3.2369999886 86.920898438 86.921112061 154.88391113 2.2808218002 2.0164401531 2.0088901520
 2923.3854980 5.0000000000 8.6789999008 8.6789999008 12.250000954 33456.406250  -999.250000 3.3612000942 0.3853000104  -999.250000  -999.250000 141.54600525 3.2214000225 87.284698486 87.284118652 154.19740295 2.2062194347 1.8956934214 1.8991758823
 2923.5378418 5.0000000000 8.7035999298 8.7035999298 12.250000954 33737.839844  -999.250000 3.2934000492 0.3790000081  -999.250000  -999.250000 147.66409302 3.1891000271 87.560302734 87.559860229 153.52328491 2.2249696255 1.8987947702 1.9128776789
 2923.6904297 5.0000000000 8.7123003006 8.7123003006 12.250000954 34334.253906  -999.250000 3.3259000778 0.3659000099  -999.250000  -999.250000 151.35809326 3.1424999237 87.883399963 87.882881165 153.27510071 2.3041732311 1.9800697565 2.0153357983
 2923.8427734 5.0000000000 8.7121000290 8.7121000290 12.250000954 34646.007813  -999.250000 3.3482999802 0.3222000003  -999.250000  -999.250000 154.15299988 3.1538999081 88.129699707 88.129302979 152.88732910 2.4438757896 2.1487293243 2.2067928314
 2923.9951172 5.0000000000 8.7208995819 8.7208995819 12.250000954 34886.207031  -999.250000 3.4110999107 0.3336000144  -999.250000  -999.250000 147.57290649 3.1633000374 88.229103088 88.228942871 152.56301880 2.6340949535 2.3043506145 2.3881094456
 2924.1474609 5.0000000000 8.7194004059 8.7194004059 12.250000954 34850.878906  -999.250000 3.4145998955 0.3046000004  -999.250000  -999.250000 147.52540588 3.2599999905 87.752502441 87.753265381 151.38198853 2.7587003708 2.4606494904 2.5837864876
 2924.2998047 5.0000000000 8.7105998993 8.7105998993 12.250000954 34682.707031  -999.250000 3.2927000523 0.2949000001  -999.250000  -999.250000 146.95629883 3.4623000622 85.580200195 85.587150574 148.71784973 3.0956189632 3.0915753841 3.0769178867
 2924.4523926 5.0000000000 8.7024002075 8.7024002075 12.250000954 34554.539063  -999.250000 3.1798999310 0.3427999914  -999.250000  -999.250000 147.49479675 3.5408999920 81.982994080 81.988761902 144.21601868 3.3214392662 3.5296001434 3.3984863758
 2924.6047363 5.0000000000 8.7049999237 8.7049999237 12.250000954 34245.949219  -999.250000 2.9702000618 0.3436000049  -999.250000  -999.250000 139.49620056 3.5929999352 77.825500488 77.832160950 139.45292664 3.7707793713 4.1876449585 4.0407700539
 2924.7570801 5.0000000000 8.7159996033 8.7159996033 12.250000954 34065.019531  -999.250000 2.8115999699 0.2743999958  -999.250000  -999.250000 127.68720245 3.5288000107 77.466003418 77.466583252 135.88482666  -999.250000  -999.250000  -999.250000
 2924.9094238 16.000000000 8.7229003906 8.7229003906 12.250000954 33661.238281  -999.250000 2.8222000599 0.2657000124  -999.250000  -999.250000 88.572700500 2.6354999542 77.266197205 77.266838074 133.87133789  -999.250000  -999.250000  -999.250000
 2925.0620117 16.000000000 8.7033004761 8.7033004761 12.250000954 33434.265625  -999.250000 2.8262000084 0.2790000141  -999.250000  -999.250000 83.328498840 2.3896999359 77.764099121 77.763298035 134.25556946  -999.250000  -999.250000  -999.250000
