# LAS format log file from PETREL
# Project units are specified as depth units
#==================================================================
~Version information
VERS.   2.0:
WRAP.   NO:
#==================================================================
~Well
STRT .m      2859.8344727 :
STOP .m      3172.2546387 :
STEP .m     0.00000000 :
NULL .        -999.250000 :
COMP.           : COMPANY
WELL.  7/1-2 S   : WELL
FLD.            : FIELD
LOC.            : LOCATION
SRVC.           : SERVICE COMPANY
DATE.  2018-09-11 14:49:04   : Log Export Date {yyyy-MM-dd HH:mm:ss}
PROV.           : PROVINCE
UWI.   7/1-2 S   : UNIQUE WELL ID
API.            : API NUMBER
#==================================================================
~Curve
DEPT .m                   : DEPTH
Lithology_geolink ._      : Lithology_geolink
DCAL .in                  : DCAL
CALI .in                  : CALI
BS .in                    : BS
ROP .m/h                  : ROP
DRHO .g/cm3               : DRHO
THOR .ppm                 : THOR
NPHI .m3/m3               : NPHI
RHOB .g/cm3               : RHOB
PEF .b/e                  : PEF
GR .gAPI                  : GR
URAN .ppm                 : URAN
DTC .us/ft                : DTC
DT .us/ft                 : DT
DTS .us/ft                : DTS
RDEP .ohm.m               : RDEP
RSHA .ohm.m               : RSHA
RMED .ohm.m               : RMED
~Parameter
#==================================================================
~Ascii
# ...
 2980.5356445 1.0000000000 8.5057001114 8.5057001114 8.5000000000 12330.464844 -0.004200000 2.8592998981 0.2336000055 2.1513912678 5.3144001961 27.301099777 0.8065999746 82.060592651 82.060699463 150.78411865 0.3709000051 0.2676999867 0.3325999975
 2980.6879883 1.0000000000 8.5002002716 8.5002002716 8.5000000000 13021.531250 -0.013800000 3.1080999374 0.2477000058 2.1792540550 4.4158000946 28.669099808 0.7221000195 81.918411255 81.918991089 151.60910034 0.3673000038 0.2709000111 0.3312999904
 2980.8403320 1.0000000000 8.5052995682 8.5052995682 8.5000000000 13401.409180 0.0153000001 3.3587000370 0.2567999959 2.2232413292 4.6122999191 32.648799896 0.6406999826 81.595863342 81.596199036 149.60549927 0.3752999902 0.2831000090 0.3407000005
 2980.9929199 1.0000000000 8.5025997162 8.5025997162 8.5000000000 14195.510742 0.0046000001 3.3506000042 0.2417999953 2.2434616089 5.6168999672 36.427398682 0.6342999935 81.427146912 81.427299500 146.54490662 0.3851000071 0.2966000140 0.3517000079
 2981.1452637 1.0000000000 8.4804000854 8.4804000854 8.5000000000 14539.181641 0.0049000001 3.6338000298 0.2207999974 2.2353789806 5.8713002205 35.278999329 0.5885000229 81.397842407 81.397796631 143.69459534 0.3828000128 0.3000999987 0.3515999913
 2981.2976074 1.0000000000 8.4591999054 8.4591999054 8.5000000000 15443.888672 0.0264999997 3.3169999123 0.2263000011 2.2264277935 4.6062998772 34.871898651 0.6672000289 81.418090820 81.418098450 141.83329773 0.3704000115 0.2946000099 0.3418999910
 2981.4499512 1.0000000000 8.4878997803 8.4878997803 8.5000000000 15865.351563 0.0109999999 2.4577000141 0.2398999929 2.2339704037 4.5387001038 30.976299286 0.9394999743 81.432395935 81.432296753 141.12489319 0.3562999964 0.2865999937 0.3300999999
 2981.6025391 1.0000000000 8.5045003891 8.5045003891 8.5000000000 15996.694336 -0.005300000 1.9937999249 0.2329999954 2.2406229973 5.2030000687 32.037998199 1.0764000416 81.511695862 81.511299133 141.07330322 0.3449999988 0.2795999944 0.3201999962
 2981.7548828 1.0000000000 8.5023002625 8.5023002625 8.5000000000 16062.533203 0.0009000000 1.8134000301 0.2432000041 2.2512204647 5.3148999214 33.645500183 1.1683000326 81.652503967 81.652198792 141.21080017 0.3395999968 0.2766000032 0.3154999912
 2981.9072266 1.0000000000 8.5031995773 8.5031995773 8.5000000000 16520.646484 0.0038999999 1.7426999807 0.2624000013 2.2611155510 5.9738998413 31.121400833 1.2502000332 81.672424316 81.673202515 141.11219788 0.3416000009 0.2790000141 0.3172999918
 2982.0595703 1.0000000000 8.4970998764 8.4970998764 8.5000000000 16766.658203 -0.003300000 1.8551000357 0.2750000060 2.2586843967 5.8737001419 32.907398224 1.2472000122 81.174240112 81.175102234 141.15859985 0.3501000106 0.2861000001 0.3248000145
 2982.2119141 1.0000000000 8.4832000732 8.4832000732 8.5000000000 17383.876953 -0.015799999 1.9295001030 0.2421000004 2.2555241585 5.3708000183 33.428901672 1.2193000317 80.452552795 80.454597473 141.06340027 0.3637000024 0.2969999909 0.3370999992
 2982.3645020 1.0000000000 8.5101995468 8.5101995468 8.5000000000 17738.849609 0.0044000000 1.9912999868 0.2280000001 2.2664566040 5.2898998260 33.911899567 1.1850999594 79.228805542 79.232200623 140.06680298 0.3838999867 0.3134000003 0.3555000126
 2982.5168457 1.0000000000 8.5074996948 8.5074996948 8.5000000000 18160.533203 0.0070000002 1.9427000284 0.2196000069 2.2822210789 5.8351998329 33.783000946 1.1148999929 78.109748840 78.111801147 135.87150574 0.4171000123 0.3411999941 0.3862000108
 2982.6691895 1.0000000000 8.4739999771 8.4739999771 8.5000000000 18419.929688 0.0031000001 1.8288999796 0.2167000026 2.2986602783 6.0742998123 34.474498749 1.0477999449 76.861053467 76.862892151 131.01809692 0.4726000130 0.3889999986 0.4381000102
 2982.8215332 1.0000000000 8.4851999283 8.4851999283 8.5000000000 19014.765625 0.0086000003 1.7197999954 0.2154999971 2.3106379509 6.0967998505 35.853599548 0.9914000630 75.729759216 75.731498718 126.26889801 0.5460000038 0.4555000067 0.5077000260
 2982.9741211 1.0000000000 8.5073003769 8.5073003769 8.5000000000 19608.943359 -0.020900000 1.6378999949 0.2120999992 2.2999820709 5.3998999596 35.928100586 0.9620000720 74.758666992 74.760696411 123.72499847 0.6003000140 0.5130000114 0.5608999729
 2983.1264648 1.0000000000 8.4916000366 8.4916000366 8.5000000000 19865.816406 -0.013100000 1.6319999695 0.1992000043 2.2793259621 5.0578999519 33.805000305 0.9563999772 74.201057434 74.201599121 122.93900299 0.6010000110 0.5332000256 0.5666000247
 2983.2788086 1.0000000000 8.4862003326 8.4862003326 8.5000000000 20388.998047 0.0313999988 1.6442999840 0.1870000064 2.2725284100 5.5967998505 33.053901672 0.9617000222 73.777198792 73.778297424 122.15379333 0.5781999826 0.5371000171 0.5504000187
 2983.4311523 1.0000000000 8.5052995682 8.5052995682 8.5000000000 20658.601563 0.0015000000 1.6540000439 0.2038999945 2.2711031437 5.8326001167 32.498798370 1.0162999630 73.189125061 73.189598083 122.04170227 0.5762000084 0.5606999993 0.5532000065
 2983.5837402 1.0000000000 8.5071001053 8.5071001053 8.5000000000 21047.806641 -0.003500000 1.6672999859 0.2087000012 2.2895357609 6.0661001205 33.535400391 1.0513000488 72.999412537 72.999000549 123.53140259 0.5916000009 0.6014000177 0.5710999966
 2983.7360840 1.0000000000 8.5094995499 8.5094995499 8.5000000000 21101.683594 -0.011200000 1.6843999624 0.1942999959 2.3040051460 5.5339999199 33.183200836 1.0501999855 73.188087463 73.187500000 125.53569794 0.5859000087 0.6205999851 0.5685999990
 2983.8884277 1.0000000000 8.4961004257 8.4961004257 8.5000000000 21187.707031 -0.023200000 1.7173999548 0.1900999993 2.2848002911 4.6262998581 33.894199371 1.0225000381 73.799240112 73.797096252 126.75679779 0.5407999754 0.5899999738 0.5270000100
 2984.0407715 1.0000000000 8.4795999527 8.4795999527 8.5000000000 21207.898438 -0.000400000 1.8408999443 0.1847999990 2.2526764870 4.8776998520 36.105098724 0.9768999815 75.262741089 75.259803772 127.82810211 0.4711000025 0.5207999945 0.4609999955
 2984.1931152 1.0000000000 8.4988002777 8.4988002777 8.5000000000 21236.208984 -0.009600000 2.1679000854 0.2034000009 2.2273888588 5.3870000839 34.359401703 0.8996999860 77.184509277 77.181007385 129.14590454 0.3998000026 0.4404999912 0.3926999867
 2984.3457031 1.0000000000 8.4702997208 8.4702997208 8.5000000000 21198.902344 -0.013000000 2.5385999680 0.2003999949 2.2009103298 6.6364998817 34.082801819 0.8335000277 79.196136475 79.191398621 131.22309875 0.3406000137 0.3697000146 0.3357000053
 2984.4980469 1.0000000000 8.4565000534 8.4565000534 8.5000000000 21046.818359 -0.006300000 2.8278000355 0.2096000016 2.1775259972 7.6985998154 32.601699829 0.7799000144 80.600059509 80.598197937 134.57760620 0.2980999947 0.3172000051 0.2944000065
 2984.6503906 1.0000000000 8.4385995865 8.4385995865 8.5000000000 21186.718750 -0.021600001 2.9351000786 0.2275999933 2.1742620468 8.5030002594 32.279998779 0.7940999866 81.764068604 81.762199402 139.46499634 0.2700999975 0.2818000019 0.2671000063
 2984.8027344 1.0000000000 8.4650001526 8.4650001526 8.5000000000 21820.400391 -0.042199999 2.8055000305 0.2427999973 2.1708815098 7.5998001099 34.341098785 0.8876000047 82.947883606 82.945899963 145.27780151 0.2511000037 0.2572999895 0.2484000027
 2984.9553223 1.0000000000 8.4643001556 8.4643001556 8.5000000000 21991.246094 -0.032900002 2.5013999939 0.2441000044 2.1447896957 6.7393999100 35.391998291 1.0479999781 84.134613037 84.131301880 149.78797913 0.2345999926 0.2363999933 0.2319999933
 2985.1076660 1.0000000000 8.4749002457 8.4749002457 8.5000000000 22670.023438 -0.020199999 2.0269000530 0.2402999997 2.1161086559 6.7880001068 35.119499207 1.2338999510 85.120559692 85.119194031 152.95489502 0.2169000059 0.2148000002 0.2143000066
 2985.2600098 1.0000000000 8.4640998840 8.4640998840 8.5000000000 22854.916016 -0.025599999 1.6773999929 0.2520000041 2.1022121906 6.9621000290 36.713600159 1.3487000465 85.957267761 85.956001282 155.16329956 0.1991000026 0.1938000023 0.1965000033
 2985.4123535 1.0000000000 8.4729995728 8.4729995728 8.5000000000 23676.890625 -0.030099999 1.3408000469 0.2671000063 2.1070432663 6.9696002007 35.983699799 1.4702999592 86.644927979 86.644302368 156.91839600 0.1860000044 0.1777999997 0.1832000017
