# LAS format log file from PETREL
# Project units are specified as depth units
#==================================================================
~Version information
VERS.   2.0:
WRAP.   NO:
#==================================================================
~Well
STRT .m      2859.8344727 :
STOP .m      3172.2546387 :
STEP .m     0.00000000 :
NULL .        -999.250000 :
COMP.           : COMPANY
WELL.  7/1-2 S   : WELL
FLD.            : FIELD
LOC.            : LOCATION
SRVC.           : SERVICE COMPANY
DATE.  2018-09-11 14:49:04   : Log Export Date {yyyy-MM-dd HH:mm:ss}
PROV.           : PROVINCE
UWI.   7/1-2 S   : UNIQUE WELL ID
API.            : API NUMBER
#==================================================================
~Curve
DEPT .m                   : DEPTH
Lithology_geolink ._      : Lithology_geolink
DCAL .in                  : DCAL
CALI .in                  : CALI
BS .in                    : BS
ROP .m/h                  : ROP
DRHO .g/cm3               : DRHO
THOR .ppm                 : THOR
NPHI .m3/m3               : NPHI
RHOB .g/cm3               : RHOB
PEF .b/e                  : PEF
GR .gAPI                  : GR
URAN .ppm                 : URAN
DTC .us/ft                : DTC
DT .us/ft                 : DT
DTS .us/ft                : DTS
RDEP .ohm.m               : RDEP
RSHA .ohm.m               : RSHA
RMED .ohm.m               : RMED
~Parameter
#==================================================================
~Ascii
# ...
 2900.0683594 7.0000000000 8.7228002548 8.7228002548 12.250000954 33069.781250  -999.250000 4.1676998138  -999.250000  -999.250000  -999.250000 233.99169922 6.0458998680 55.771797180  -999.250000  -999.250000 2.0337181091 1.8306394815 1.8431504965
 2900.2207031 7.0000000000 8.7130002975 8.7130002975 12.250000954 33142.128906  -999.250000 4.5893001556  -999.250000  -999.250000  -999.250000 245.36790466 5.9086999893 55.717300415  -999.250000  -999.250000 2.1800651550 1.9780634642 1.9830754995
 2900.3730469 7.0000000000 8.7210998535 8.7210998535 12.250000954 32860.367188  -999.250000 5.0033998489  -999.250000  -999.250000  -999.250000 256.01300049 5.8087000847 55.902698517  -999.250000  -999.250000 2.3041014671 2.1736865044 2.1371529102
 2900.5253906 7.0000000000 8.7390003204 8.7390003204 12.250000954 32664.349609  -999.250000 5.5773000717  -999.250000  -999.250000  -999.250000 262.90890503 5.6297001839 55.886203766  -999.250000  -999.250000 2.3800568581 2.2710883617 2.2396717072
 2900.6779785 7.0000000000 8.7234001160 8.7234001160 12.250000954 32539.378906  -999.250000 5.9444999695  -999.250000  -999.250000  -999.250000 265.83670044 5.4274001122 55.953804016  -999.250000  -999.250000 2.4886262417 2.3539674282 2.3875632286
 2900.8303223 7.0000000000 8.7251996994 8.7251996994 12.250000954 32446.935547  -999.250000 6.2339000702  -999.250000  -999.250000  -999.250000 263.22628784 5.1930999756 55.875999451  -999.250000  -999.250000 2.5626814365 2.4497463703 2.5160939693
 2900.9826660 7.0000000000 8.7249002457 8.7249002457 12.250000954 32252.007813  -999.250000 6.3428997993  -999.250000  -999.250000  -999.250000 264.49639893 5.0876998901 55.831501007  -999.250000  -999.250000 2.5777759552 2.4693686962 2.5340714455
 2901.1350098 7.0000000000 8.7430000305 8.7430000305 12.250000954 32097.664063  -999.250000 6.1726999283  -999.250000  -999.250000  -999.250000 256.84179688 5.0441999435 55.841899872  -999.250000  -999.250000 2.5216901302 2.3488934040 2.4021120071
 2901.2873535 7.0000000000 8.7178001404 8.7178001404 12.250000954 31772.566406  -999.250000 5.8980998993  -999.250000  -999.250000  -999.250000 237.90139771 5.0253000259 55.856098175  -999.250000  -999.250000 2.3913180828 2.0518529415 2.0580041409
 2901.4399414 7.0000000000 8.6933002472 8.6933002472 12.250000954 31497.531250  -999.250000 6.0213999748  -999.250000  -999.250000  -999.250000 235.54379272 5.0205001831 55.795200348  -999.250000  -999.250000 2.3843104839 2.0176534653 1.9945001602
 2901.5922852 7.0000000000 8.7070999146 8.7070999146 12.250000954 31660.216797  -999.250000 6.2912001610  -999.250000  -999.250000  -999.250000 229.79580688 4.9390001297 55.937400818  -999.250000  -999.250000 2.4617755413 2.1602709293 2.1351740360
 2901.7446289 7.0000000000 8.7048997879 8.7048997879 12.250000954 31806.839844  -999.250000 6.3902001381  -999.250000  -999.250000  -999.250000 227.72380066 4.8675999641 55.558898926  -999.250000  -999.250000 2.5404739380 2.2777118683 2.2645926476
 2901.8969727 7.0000000000 8.7170000076 8.7170000076 12.250000954 31668.054688  -999.250000 6.2992000580  -999.250000  -999.250000  -999.250000 224.68440247 4.7613000870 56.140903473  -999.250000  -999.250000 2.8426303864 2.6481115818 2.7314019203
 2902.0495605 7.0000000000 8.7222003937 8.7222003937 12.250000954 31534.503906  -999.250000 5.8590998650  -999.250000  -999.250000  -999.250000 224.15170288 4.6168999672 55.981201172  -999.250000  -999.250000 2.9008080959 2.7213842869 2.7747328281
 2902.2019043 7.0000000000 8.7283000946 8.7283000946 12.250000954 31864.591797  -999.250000 5.0847997665  -999.250000  -999.250000  -999.250000 226.92199707 4.6525998116 56.057399750  -999.250000  -999.250000 2.9674932957 2.7591397762 2.7748000622
 2902.3542480 7.0000000000 8.7271995544 8.7271995544 12.250000954 32083.787109  -999.250000 4.5485000610  -999.250000  -999.250000  -999.250000 228.29049683 4.8035998344 55.819198608  -999.250000  -999.250000 3.0077357292 2.7635929585 2.7806904316
 2902.5065918 7.0000000000 8.7203998566 8.7203998566 12.250000954 32278.064453  -999.250000 4.1441998482  -999.250000  -999.250000  -999.250000 229.52409363 5.0734000206 55.605598450  -999.250000  -999.250000 3.0406944752 2.7130620480 2.7466094494
 2902.6591797 7.0000000000 8.7104997635 8.7104997635 12.250000954 32331.158203  -999.250000 3.7804999352  -999.250000  -999.250000  -999.250000 223.96310425 5.8284001350 55.326999664  -999.250000  -999.250000 3.0605683327 2.7221848965 2.7430057526
 2902.8115234 7.0000000000 8.7185001373 8.7185001373 12.250000954 32629.333984  -999.250000 3.9964997768  -999.250000  -999.250000  -999.250000 227.44580078 6.0088000298 55.219100952  -999.250000  -999.250000 3.1261947155 2.7653307915 2.7419016361
 2902.9638672 7.0000000000 8.7259998322 8.7259998322 12.250000954 32818.792969  -999.250000 4.0900001526  -999.250000  -999.250000  -999.250000 231.00280762 6.1465001106 55.244598389  -999.250000  -999.250000 3.1729252338 2.7716898918 2.7472913265
 2903.1162109 7.0000000000 8.7121000290 8.7121000290 12.250000954 33089.582031  -999.250000 4.2060999870  -999.250000  -999.250000  -999.250000 227.98229980 6.3186001778 55.476001740  -999.250000  -999.250000 3.2945048809 2.8928055763 2.8575232029
 2903.2685547 7.0000000000 8.7276000977 8.7276000977 12.250000954 33200.050781  -999.250000 4.2529001236  -999.250000  -999.250000  -999.250000 233.48019409 6.3790001869 55.520801544  -999.250000  -999.250000 3.4596705437 3.1869564056 3.1450774670
 2903.4211426 7.0000000000 8.7044000626 8.7044000626 12.250000954 33351.910156  -999.250000 4.1698999405  -999.250000  -999.250000  -999.250000 235.87480164 6.3836998940 55.603702545  -999.250000  -999.250000 3.8453817368 4.0893530846 4.1339139938
 2903.5734863 7.0000000000 8.7135000229 8.7135000229 12.250000954 33452.394531  -999.250000 3.9897999763  -999.250000  -999.250000  -999.250000 244.34539795 6.3130998611 55.426200867  -999.250000  -999.250000 3.6826622486 3.5900039673 3.6846237183
 2903.7258301 7.0000000000 8.7300996780 8.7300996780 12.250000954 33488.488281  -999.250000 3.7815999985  -999.250000  -999.250000  -999.250000 236.04310608 6.2203001976 55.302101135  -999.250000  -999.250000 3.5470170975 3.2785985470 3.3440454006
 2903.8781738 7.0000000000 8.7363996506 8.7363996506 12.250000954 33538.753906  -999.250000 3.7188000679  -999.250000  -999.250000  -999.250000 230.38130188 6.1107997894 55.300899506  -999.250000  -999.250000 3.2059941292 2.9180557728 2.7993469238
 2904.0307617 7.0000000000 8.7370996475 8.7370996475 12.250000954 28382.070313  -999.250000 3.6166999340  -999.250000  -999.250000  -999.250000 232.05140686 6.0124001503 55.441600800  -999.250000  -999.250000 3.0867896080 2.7528631687 2.6323652267
 2904.1831055 7.0000000000 8.7285003662 8.7285003662 12.250000954 20674.361328  -999.250000 3.5801999569  -999.250000  -999.250000  -999.250000 224.40719604 5.9303002357 55.613300323  -999.250000  -999.250000 2.9715845585 2.5594100952 2.5114936829
 2904.3354492 7.0000000000 8.7241001129 8.7241001129 12.250000954 19357.892578  -999.250000 3.5966000557  -999.250000  -999.250000  -999.250000 226.61279297 5.9987001419 55.778099060  -999.250000  -999.250000 2.9582211971 2.5662884712 2.5759961605
 2904.4877930 7.0000000000 8.7132997513 8.7132997513 12.250000954 17279.279297  -999.250000 3.9288001060  -999.250000  -999.250000  -999.250000 226.91090393 6.1662001610 55.867198944  -999.250000  -999.250000 2.9865090847 2.7103376389 2.7546267509
 2904.6403809 7.0000000000 8.7309999466 8.7309999466 12.250000954 18464.103516  -999.250000 4.5806999207  -999.250000  -999.250000  -999.250000 228.30200195 6.1911997795 56.028594971  -999.250000  -999.250000 2.9828062057 2.7489387989 2.7986304760
 2904.7927246 7.0000000000 8.7236995697 8.7236995697 12.250000954 20498.316406  -999.250000 5.4415001869  -999.250000  -999.250000  -999.250000 234.01379395 6.0489001274 56.019298553  -999.250000  -999.250000 2.8297455311 2.6094241142 2.5976228714
 2904.9450684 7.0000000000 8.7164001465 8.7164001465 12.250000954 22272.818359  -999.250000 6.2028999329  -999.250000  -999.250000  -999.250000 238.57859802 5.9667000771 55.995094299  -999.250000  -999.250000 2.7557184696 2.5099592209 2.4919691086
