# LAS format log file from PETREL
# Project units are specified as depth units
#==================================================================
~Version information
VERS.   2.0:
WRAP.   NO:
#==================================================================
~Well
STRT .m      2859.8344727 :
STOP .m      3172.2546387 :
STEP .m     0.00000000 :
NULL .        -999.250000 :
COMP.           : COMPANY
WELL.  7/1-2 S   : WELL
FLD.            : FIELD
LOC.            : LOCATION
SRVC.           : SERVICE COMPANY
DATE.  2018-09-11 14:49:04   : Log Export Date {yyyy-MM-dd HH:mm:ss}
PROV.           : PROVINCE
UWI.   7/1-2 S   : UNIQUE WELL ID
API.            : API NUMBER
#==================================================================
~Curve
DEPT .m                   : DEPTH
Lithology_geolink ._      : Lithology_geolink
DCAL .in                  : DCAL
CALI .in                  : CALI
BS .in                    : BS
ROP .m/h                  : ROP
DRHO .g/cm3               : DRHO
THOR .ppm                 : THOR
NPHI .m3/m3               : NPHI
RHOB .g/cm3               : RHOB
PEF .b/e                  : PEF
GR .gAPI                  : GR
URAN .ppm                 : URAN
DTC .us/ft                : DTC
DT .us/ft                 : DT
DTS .us/ft                : DTS
RDEP .ohm.m               : RDEP
RSHA .ohm.m               : RSHA
RMED .ohm.m               : RMED
~Parameter
#==================================================================
~Ascii
# ...
 3146.4990234 1.0000000000 8.4315996170 8.4315996170 8.5000000000 31665.716797 -0.026477564 4.3872566223 0.1753983945 2.3085741997 5.9017686844 27.548450470 1.1923077106 76.803398132 76.803672791 128.08296204 0.5759775639 0.5101633072 0.5366749763
 3146.6513672 1.0000000000 8.4076995850 8.4076995850 8.5000000000 31814.845703 -0.008429006 4.1239509583 0.1647171527 2.3143644333 5.9897575378 26.092422485 1.2433236837 76.584602356 76.584953308 127.70949554 0.5701093078 0.5104993582 0.5300105214
 3146.8037109 1.0000000000 8.4159002304 8.4159002304 8.5000000000 31947.312500 -0.016187500 3.8645381927 0.1647000015 2.3134076595 7.1461439133 27.943325043 1.2995531559 76.311698914 76.312133789 127.64080811 0.6099360585 0.5545293093 0.5661420226
 3146.9560547 1.0000000000 8.4160995483 8.4160995483 8.5000000000 32020.156250 -0.024872161 3.8993935585 0.1604137570 2.3040242195 7.3654017448 32.186786652 1.2908743620 76.178901672 76.179328918 127.56604004 0.7039982080 0.6503924727 0.6530212760
 3147.1086426 1.0000000000 8.4167003632 8.4167003632 8.5000000000 32085.351563 0.0174320508 3.9756708145 0.1604000032 2.3145737648 6.6980724335 34.981838226 1.2749333382 76.262603760 76.262466431 128.06948853 0.8315956593 0.7776961327 0.7712107301
 3147.2609863 1.0000000000 8.4395999908 8.4395999908 8.5000000000 32123.687500 -0.019840064 4.1393589973 0.1787705123 2.3459124565 6.3267941475 34.500183105 1.3000487089 76.910797119 76.909759521 128.88488770 0.9308410287 0.8757429123 0.8645504713
 3147.4133301 1.0000000000 8.4315996170 8.4315996170 8.5000000000 30064.166016 -0.003825801 4.3590836525 0.1737081707 2.3803935051 6.2946505547 34.997299194 1.3041679859 80.225799561 80.220489502 129.38000488 0.9734318852 0.9148374796 0.9079306126
 3147.5656738 1.0000000000 8.4321002960 8.4321002960 8.5000000000 28767.699219 0.0144414399 4.3950152397 0.1676195264 2.3972713947 6.3240056038 38.640007019 1.3524448872 86.234596252 86.215370178 129.20556641 0.9844647646 0.9208807945 0.9236497283
 3147.7182617 1.0000000000 8.4426002502 8.4426002502 8.5000000000 28809.449219 -0.004968750 4.5122675896 0.1771846265 2.4028429985 6.3695268631 46.163242340 1.3759884834 93.931999207 93.919662476 128.76480103 1.0098593235 0.9410676360 0.9543508291
 3147.8706055 1.0000000000 8.4512996674 8.4512996674 8.5000000000 28840.417969 -0.012987180 4.6686911583 0.1687136143 2.4166781902 7.2570757866 52.112171173 1.3773019314 94.684402466 94.683197021 128.54615784 1.0929666758 1.0165789127 1.0409610271
 3148.0229492 1.0000000000 8.4378995895 8.4378995895 8.5000000000 29615.990234 -0.030172437 4.7306203842 0.1668030471 2.4241762161 7.7671837807 56.054187775 1.3758891821 90.566802979 90.573402405 128.58773804 1.2217934132 1.1377058029 1.1727886200
 3148.1752930 1.0000000000 8.4084997177 8.4084997177 8.5000000000 30395.777344 -0.007971359 4.6697754860 0.1665009558 2.4259781837 7.6573553085 52.387889862 1.3870936632 84.828002930 84.846366882 128.73503113 1.2972583771 1.2104671001 1.2529433966
 3148.3278809 1.0000000000 8.4102001190 8.4102001190 8.5000000000 30705.898438 -0.021278525 4.7702455521 0.1571150720 2.4211962223 7.1328411102 47.781372070 1.3365218639 86.073898315 86.071899414 128.49728394 1.2616575956 1.1750571728 1.2228487730
 3148.4802246 1.0000000000 8.4215002060 8.4215002060 8.5000000000 31348.806641 -0.024694553 4.9219837189 0.1545041651 2.4027311802 6.6747336388 46.383430481 1.2590256929 90.282402039 90.275657654 129.10112000 1.1554703712 1.0664741993 1.1206638813
 3148.6325684 1.0000000000 8.4259004593 8.4259004593 8.5000000000 31697.228516 -0.001037981 5.0019769669 0.1681780517 2.3764569759 6.7086443901 44.099861145 1.2355756760 89.014999390 89.017028809 130.56954956 1.0122295618 0.9186370373 0.9799256921
 3148.7849121 1.0000000000 8.4271001816 8.4271001816 8.5000000000 32140.048828 -0.014478365 5.1849646568 0.1731919795 2.3531897068 6.7974572182 40.550689697 1.2663377523 82.972908020 82.982589722 132.29333496 0.8514576554 0.7575581670 0.8212543130
 3148.9372559 1.0000000000 8.4091997147 8.4091997147 8.5000000000 32088.251953 -0.015995201 5.3089218140 0.1801775992 2.3299415112 6.8972802162 37.065269470 1.3255691528 79.694503784 79.704994202 134.29727173 0.7106512189 0.6217351556 0.6821457744
 3149.0898438 1.0000000000 8.4104995728 8.4104995728 8.5000000000 31939.755859 -0.018196475 5.2274456024 0.1835945398 2.3080344200 7.2017116547 32.534656525 1.4425802231 79.105194092 79.106140137 135.52365112 0.6183474660 0.5342397690 0.5903466344
 3149.2421875 1.0000000000 8.4069004059 8.4069004059 8.5000000000 31812.763672 -0.012209615 5.2927470207 0.1835001707 2.2959780693 7.2810730934 30.330526352 1.5276467800 80.075996399 80.074440002 136.53198242 0.5805604458 0.4975586534 0.5516618490
 3149.3945313 1.0000000000 8.3976001740 8.3976001740 8.5000000000 31534.193359 -0.024280610 5.4386687279 0.1863953471 2.2886822224 7.0531663895 32.624309540 1.4960327148 80.760696411 80.759597778 137.23977661 0.5952762961 0.5082827210 0.5637804270
 3149.5468750 1.0000000000 8.4293003082 8.4293003082 8.5000000000 31360.705078 -0.012637440 5.5598297119 0.1924804747 2.2948298454 5.9975876808 35.942359924 1.3828614950 81.694702148 81.691711426 137.53594971 0.6552076340 0.5593361259 0.6197204590
 3149.6994629 1.0000000000 8.4316997528 8.4316997528 8.5000000000 31097.990234 -0.010303686 5.5177555084 0.1968929470 2.3178966045 5.8017091751 36.677337646 1.3064672947 83.949699402 83.946083069 137.55307007 0.7552397251 0.6471592784 0.7148475647
 3149.8518066 2.0000000000 8.4278001785 8.4278001785 8.5000000000 31222.244141 0.0078708334 5.5270166397 0.2108775526 2.3646979332 5.8217673302 40.196453094 1.2339736223 86.379508972 86.375617981 136.94627380 0.9275237322 0.7996554375 0.8809336424
 3150.0041504 2.0000000000 8.4364004135 8.4364004135 8.5000000000 31353.468750 -0.010370673 5.4194631577 0.2216826975 2.4232680798 5.9895305634 50.748271942 1.2064840794 87.811798096 87.809501648 135.84216309 1.2030582428 1.0423109531 1.1503679752
 3150.1564941 2.0000000000 8.4218997955 8.4218997955 8.5000000000 31515.777344 0.0173110403  -999.250000 0.2256872058 2.4511563778 6.3626031876 55.267646790  -999.250000 81.844596863 81.863693237 133.47140503 1.4452239275 1.2532242537 1.3954147100
 3150.3090820 2.0000000000 8.4272003174 8.4272003174 8.5000000000 31629.025391 -0.015946476  -999.250000 0.1889589727 2.4422605038 7.1886758804 51.577648163  -999.250000 77.981796265 77.987983704 131.27001953 1.4612754583 1.2647824287 1.4268507957
 3150.4614258 1.0000000000 8.4188995361 8.4188995361 8.5000000000 31697.894531 -0.017297918  -999.250000 0.1670350879 2.4143261909 7.8713064194 47.109859467  -999.250000 75.051300049 75.055999756 128.79336548 1.3193279505 1.1539778709 1.3040971756
 3150.6137695 1.0000000000 8.4167003632 8.4167003632 8.5000000000 31887.968750 -0.019795993  -999.250000 0.1635055989 2.3886156082 7.5398335457 39.372810364  -999.250000 74.654991150 74.655624390 127.32215118 1.1643484831 1.0459730625 1.1650229692
 3150.7661133 1.0000000000 8.4177999496 8.4177999496 8.5000000000 31940.419922 -0.011213781  -999.250000 0.1683921516 2.3726325035 7.1652002335 33.629695892  -999.250000 74.896896362 74.896507263 126.64997864 1.0224274397 0.9485561252 1.0337103605
 3150.9184570 1.0000000000 8.4342002869 8.4342002869 8.5000000000 32548.968750 0.0017584000  -999.250000 0.1672038436 2.3634595871 7.1328020096 30.452569962  -999.250000 75.154792786 75.153968811 126.41594696 0.9057737589 0.8635723591 0.9222570658
 3151.0710449 1.0000000000 8.4354000092 8.4354000092 8.5000000000 32734.201172 -0.014074519  -999.250000 0.1614093035 2.3600428104 7.2959380150 28.816308975  -999.250000 75.324798584 75.324523926 126.51583862 0.8436990380 0.8199695349 0.8624953628
 3151.2233887 1.0000000000 8.4125995636 8.4125995636 8.5000000000 32349.966797 -0.008508975  -999.250000 0.1579056084 2.3762321472 7.3102774620 27.376308441  -999.250000 75.357803345 75.357749939 126.50041962 0.8345146179 0.8205988407 0.8548121452
 3151.3757324 1.0000000000 8.3668003082 8.3668003082 8.5000000000 31607.134766 -0.009698078  -999.250000 0.1472171545 2.3933603764 8.3836765289 26.552618027  -999.250000 75.990798950 75.989784241 126.33028412 0.8476788402 0.8385711312 0.8690770864
