# LAS format log file from PETREL
# Project units are specified as depth units
#==================================================================
~Version information
VERS.   2.0:
WRAP.   NO:
#==================================================================
~Well
STRT .m      2859.8344727 :
STOP .m      3172.2546387 :
STEP .m     0.00000000 :
NULL .        -999.250000 :
COMP.           : COMPANY
WELL.  7/1-2 S   : WELL
FLD.            : FIELD
LOC.            : LOCATION
SRVC.           : SERVICE COMPANY
DATE.  2018-09-11 14:49:04   : Log Export Date {yyyy-MM-dd HH:mm:ss}
PROV.           : PROVINCE
UWI.   7/1-2 S   : UNIQUE WELL ID
API.            : API NUMBER
#==================================================================
~Curve
DEPT .m                   : DEPTH
Lithology_geolink ._      : Lithology_geolink
DCAL .in                  : DCAL
CALI .in                  : CALI
BS .in                    : BS
ROP .m/h                  : ROP
DRHO .g/cm3               : DRHO
THOR .ppm                 : THOR
NPHI .m3/m3               : NPHI
RHOB .g/cm3               : RHOB
PEF .b/e                  : PEF
GR .gAPI                  : GR
URAN .ppm                 : URAN
DTC .us/ft                : DTC
DT .us/ft                 : DT
DTS .us/ft                : DTS
RDEP .ohm.m               : RDEP
RSHA .ohm.m               : RSHA
RMED .ohm.m               : RMED
~Parameter
#==================================================================
~Ascii
# ...
 3066.0319824 1.0000000000 8.4980001450 8.4980001450 8.5000000000 37739.640625 -0.008500000 2.7181999683 0.2310999930 2.2312679291 7.4657001495 38.742198944 0.7662000060 83.914001465 83.915107727 159.08628845 0.2314721197 0.2072734088 0.2253732383
 3066.1843262 1.0000000000 8.5001001358 8.5001001358 8.5000000000 37897.164063 -0.018999999 2.6693999767 0.2355999947 2.2347517014 7.4777002335 38.901599884 0.7706000209 83.224403381 83.225509644 157.25573730 0.2474743575 0.2237735540 0.2410748452
 3066.3366699 1.0000000000 8.5004997253 8.5004997253 8.5000000000 38032.277344 -0.006600000 2.5250999928 0.2353000045 2.2512595654 7.2948999405 39.681301117 0.7731000185 82.491699219 82.492874146 155.62863159 0.2616772354 0.2394748479 0.2558762729
 3066.4890137 1.0000000000 8.4955997467 8.4955997467 8.5000000000 37992.128906 -0.004300000 2.3764998913 0.2097000033 2.2644279003 6.8555002213 40.585601807 0.8034999967 81.909301758 81.911163330 154.07557678 0.2791439891 0.2579407990 0.2744404972
 3066.6416016 1.0000000000 8.5100002289 8.5100002289 8.5000000000 37955.082031 -0.004300000 2.2690999508 0.2073000073 2.2780857086 6.3924999237 40.914699554 0.8294000030 81.321701050 81.322639465 152.73643494 0.3004658818 0.2794655561 0.2972634733
 3066.7939453 1.0000000000 8.5250997543 8.5250997543 8.5000000000 38089.335938 0.0020999999 2.2258999348 0.2034000009 2.2995798588 5.7989001274 37.723400116 0.8507000208 80.845306396 80.846069336 151.83454895 0.3174727559 0.2956740558 0.3160698712
 3066.9462891 1.0000000000 8.5438995361 8.5438995361 8.5000000000 38176.644531 0.0002000000 2.1684000492 0.1986999959 2.3146440983 5.6146998405 35.739498138 0.8644999862 80.676597595 80.676864624 151.64759827 0.3185982406 0.2958996594 0.3185960054
 3067.0986328 1.0000000000 8.5334997177 8.5334997177 8.5000000000 38066.468750 0.0033000000 2.1451001167 0.1908999979 2.3037922382 5.6533999443 37.082599640 0.8403000236 80.956802368 80.956352234 152.25172424 0.3011280298 0.2777291834 0.3015274107
 3067.2512207 1.0000000000 8.5255002975 8.5255002975 8.5000000000 37963.199219 -0.009900000 2.1350998878 0.1868000031 2.2627506256 5.7653999329 38.015499115 0.7864999771 81.740699768 81.739448547 154.23292542 0.2734443247 0.2500443161 0.2733451128
 3067.4035645 1.0000000000 8.5447998047 8.5447998047 8.5000000000 37824.230469 -0.009200000 2.0889999866 0.2036000043 2.2173838615 5.8331999779 37.810199738 0.6916999817 82.948997498 82.947059631 157.28500366 0.2451453656 0.2224442214 0.2441467941
 3067.5559082 1.0000000000 8.5436000824 8.5436000824 8.5000000000 37767.480469 -0.025500000 2.1754000187 0.2343000025 2.1824424267 5.8070998192 35.183498383 0.6492000222 84.382698059 84.380401611 160.61875916 0.2203397453 0.1988378167 0.2182414979
 3067.7082520 1.0000000000 8.5288000107 8.5288000107 8.5000000000 37645.019531 -0.018300001 2.6461000443 0.2428999990 2.1641595364 6.1796998978 35.729801178 0.5630999804 85.794097900 85.791839600 163.46035767 0.2009310871 0.1805293262 0.1977328509
 3067.8605957 1.0000000000 8.5313997269 8.5313997269 8.5000000000 37581.601563 -0.015000000 3.0594000816 0.2418999970 2.1626346111 6.3285999298 35.565700531 0.5137000084 86.547401428 86.544990540 164.97045898 0.1890380830 0.1691364795 0.1848412752
 3068.0131836 1.0000000000 8.5303001404 8.5303001404 8.5000000000 37455.855469 -0.009200000 3.2211999893 0.2389000058 2.1770200729 6.6336998940 37.895599365 0.5135999918 86.612991333 86.612884521 165.26681519 0.1856054515 0.1652062386 0.1805068851
 3068.1655273 1.0000000000 8.5539999008 8.5539999008 8.5000000000 37393.207031 -0.011300000 3.2939000130 0.2293999940 2.1977982521 6.6250000000 38.376300812 0.5562999845 86.109901428 86.110710144 164.25743103 0.1905919760 0.1685945392 0.1845934242
 3068.3178711 1.0000000000 8.5284004211 8.5284004211 8.5000000000 37325.734375 -0.002100000 3.2049000263 0.2285999954 2.2187221050 6.6307997704 39.143699646 0.6103000045 85.489501953 85.490493774 162.61154175 0.2026806176 0.1779849380 0.1958818883
 3068.4702148 1.0000000000 8.5255002975 8.5255002975 8.5000000000 37307.363281 0.0010000000 2.9430999756 0.2172999978 2.2429769039 6.7723999023 40.992298126 0.6755999923 84.934700012 84.936477661 161.29432678 0.2185491323 0.1910580844 0.2112507224
 3068.6228027 1.0000000000 8.5408000946 8.5408000946 8.5000000000 37272.242188 -0.014400000 2.4944999218 0.2166000009 2.2535579205 7.4131999016 42.693801880 0.7914999723 84.669601440 84.670028687 160.55787659 0.2295823693 0.2008842975 0.2224820405
 3068.7751465 1.0000000000 8.5416002274 8.5416002274 8.5000000000 37241.625000 0.0006000000 2.1805000305 0.2221000046 2.2347121239 7.2115001678 44.020599365 0.8780999780 84.675399780 84.675392151 160.43350220 0.2268044800 0.2001012862 0.2206030339
 3068.9274902 1.0000000000 8.5244998932 8.5244998932 8.5000000000 37287.472656 -0.005000000 1.9402000904 0.2334000021 2.2029836178 7.2122001648 40.052700043 0.9531000257 85.370399475 85.369285583 161.65034485 0.2129222751 0.1907150596 0.2080201954
 3069.0798340 1.0000000000 8.5521001816 8.5521001816 8.5000000000 37357.546875 -0.020400001 1.8012000322 0.2721000016 2.1754019260 7.1466999054 39.781101227 0.9604000449 86.253700256 86.250877380 163.99757385 0.1989447922 0.1811307222 0.1951412708
 3069.2324219 1.0000000000 8.5597000122 8.5597000122 8.5000000000 37384.175781 -0.027000001 1.8418999910 0.2623000145 2.1609427929 7.2417001724 39.349700928 0.9218999743 87.116798401 87.115417480 167.45205688 0.1898145825 0.1750097722 0.1867134571
 3069.3847656 1.0000000000 8.5389995575 8.5389995575 8.5000000000 37427.273438 -0.025900001 2.0992999077 0.2466000021 2.1623039246 7.6289000511 38.416698456 0.7899000049 87.675399780 87.674507141 169.82189941 0.1830108911 0.1698083282 0.1801105738
 3069.5371094 1.0000000000 8.5440998077 8.5440998077 8.5000000000 37388.781250 -0.031399999 2.3239998817 0.2416999936 2.1700749397 8.2692003250 39.154499054 0.6791999936 88.071403503 88.070770264 171.41355896 0.1754121780 0.1635100991 0.1726120263
 3069.6894531 1.0000000000 8.5411996841 8.5411996841 8.5000000000 37321.562500 -0.030800000 2.5841999054 0.2506000102 2.1613962650 8.1197996140 38.646598816 0.6161999702 88.311996460 88.311607361 172.05317688 0.1677123308 0.1569105834 0.1649123430
 3069.8417969 1.0000000000 8.5226001740 8.5226001740 8.5000000000 37225.968750 -0.024800001 2.8510000706 0.2969999909 2.1397287846 7.2116999626 41.339199066 0.6025000215 88.302696228 88.302726746 172.05848694 0.1633140743 0.1537102312 0.1605140865
 3069.9943848 1.0000000000 8.5388002396 8.5388002396 8.5000000000 37047.093750 -0.007000000 2.7753999233 0.2791000009 2.1330080032 7.1536998749 38.800998688 0.6420000196 88.082397461 88.082748413 170.97543335 0.1659956723 0.1577934325 0.1631956846
 3070.1467285 1.0000000000 8.5672998428 8.5672998428 8.5000000000 37182.320313 -0.012400000 2.5564999580 0.2495000064 2.1533961296 6.9791002274 36.944301605 0.7154999971 87.358200073 87.359359741 167.96862793 0.1779807657 0.1716777235 0.1753804535
 3070.2990723 1.0000000000 8.5581998825 8.5581998825 8.5000000000 37453.796875 -0.012200000 2.5009000301 0.2495999932 2.1912288666 6.9973001480 36.199100494 0.7251999974 86.122100830 86.124084473 163.53260803 0.1988665015 0.1959610581 0.1968655437
 3070.4514160 1.0000000000 8.5593996048 8.5593996048 8.5000000000 37365.742188 -0.010800000 2.3501000404 0.2309000045 2.2296047211 6.9074997902 34.878101349 0.7605999708 84.043296814 84.049949646 158.53271484 0.2253151983 0.2279972881 0.2246110439
 3070.6040039 1.0000000000 8.5706996918 8.5706996918 8.5000000000 37174.835938 0.0012000001 2.2177000046 0.2047999948 2.2745807171 7.1786999702 34.837299347 0.8094000220 81.651000977 81.654838562 153.39732361 0.2545531988 0.2652404010 0.2561495006
 3070.7563477 1.0000000000 8.5748996735 8.5748996735 8.5000000000 37091.488281 -0.023000000 2.3845999241 0.2004999965 2.3263959885 7.0448999405 32.224700928 0.8180000186 79.615203857 79.618469238 148.80995178 0.2888450325 0.3087303042 0.2945384681
 3070.9086914 1.0000000000 8.5631999969 8.5631999969 8.5000000000 36899.203125 -0.011800000 2.4024000168 0.1770000011 2.3605115414 6.1778998375 31.569200516 0.8032000065 78.763298035 78.764663696 144.91363525 0.3280371726 0.3547262549 0.3398273885
