# LAS format log file from PETREL
# Project units are specified as depth units
#==================================================================
~Version information
VERS.   2.0:
WRAP.   NO:
#==================================================================
~Well
STRT .m      334.06079102 :
STOP .m      2807.3603516 :
STEP .m     0.00000000 :
NULL .        -999.250000 :
COMP.           : COMPANY
WELL.  7/1-1   : WELL
FLD.            : FIELD
LOC.            : LOCATION
SRVC.           : SERVICE COMPANY
DATE.  2018-09-11 14:49:04   : Log Export Date {yyyy-MM-dd HH:mm:ss}
PROV.           : PROVINCE
UWI.   7/1-1   : UNIQUE WELL ID
API.            : API NUMBER
#==================================================================
~Curve
DEPT .m                   : DEPTH
Lithology_geolink ._      : Lithology_geolink
DCAL .in                  : DCAL
CALI .in                  : CALI
BS .in                    : BS
ROP .m/h                  : ROP
DRHO .g/cm3               : DRHO
NPHI .m3/m3               : NPHI
RHOB .g/cm3               : RHOB
GR .gAPI                  : GR
DTC .us/ft                : DTC
DT .us/ft                 : DT
DTE .us/ft                : DTE
RDEP .ohm.m               : RDEP
SP .mV                    : SP
RSHA .ohm.m               : RSHA
RMED .ohm.m               : RMED
~Parameter
#==================================================================
~Ascii
# ...
 1991.8679199  -999.250000 13.896200180 13.896200180 12.250000954 0.7222158313  -999.250000  -999.250000  -999.250000 37.927947998 152.19041443 153.18750000 153.04872131 0.4120000005 30.241537094 0.4455017447 0.4457243681
 1992.0203857  -999.250000 13.810500145 13.810500145 12.250000954 0.7214211822  -999.250000  -999.250000  -999.250000 38.412212372 151.91059875 151.84568787 151.27888489 0.4154999852 30.207225800 0.4452002347 0.4435967207
 1992.1727295  -999.250000 13.711400032 13.711400032 12.250000954 0.7207185626  -999.250000  -999.250000  -999.250000 38.176776886 150.68229675 153.72383118 154.87710571 0.4214999974 30.094581604 0.4503916800 0.4437192380
 1992.3251953  -999.250000 13.612199783 13.612199783 12.250000954 0.7199211717  -999.250000  -999.250000  -999.250000 37.940391541 149.45390320 153.74505615 153.21170044 0.4275000095 29.981590271 0.4555958211 0.4498418570
 1992.4775391  -999.250000 13.512999535 13.512999535 12.250000954 0.7192185521  -999.250000  -999.250000  -999.250000 37.704189301 148.22549438 148.98692322 146.99409485 0.4334999919 29.868690491 0.4607958198 0.4603820443
 1992.6300049  -999.250000 13.462698936 13.462698936 12.250000954 0.7184211612  -999.250000  -999.250000  -999.250000 38.782138824 145.23609924 146.31959534 146.00180054 0.4375999868 30.056249619 0.4637975991 0.4665470719
 1992.7823486  -999.250000 13.420800209 13.420800209 12.250000954 0.7118771672  -999.250000  -999.250000  -999.250000 40.087753296 141.94329834 140.25361633 137.54220581 0.4415000081 30.295907974 0.4664978385 0.4702140987
 1992.9348145  -999.250000 13.378899574 13.378899574 12.250000954 0.5643975139  -999.250000  -999.250000  -999.250000 41.393455505 138.65040588 137.07148743 136.84970093 0.4453000128 30.535507202 0.4691978097 0.4708562195
 1993.0871582  -999.250000 13.346099854 13.346099854 12.250000954 0.5259360075  -999.250000  -999.250000  -999.250000 42.214042664 139.22920227 139.23136902 140.35479736 0.4440000057 30.641315460 0.4662024081 0.4650281966
 1993.2396240  -999.250000 13.319999695 13.319999695 12.250000954 0.5241230726  -999.250000  -999.250000  -999.250000 42.671634674 142.70289612 141.49067688 142.02450562 0.4386999905 30.646795273 0.4589058459 0.4550528824
 1993.3919678  -999.250000 13.293800354 13.293800354 12.250000954 0.5235158801  -999.250000  -999.250000  -999.250000 43.128932953 146.17660522 145.71463013 147.45320129 0.4334999919 30.652196884 0.4517057836 0.4490169883
 1993.5443115  -999.250000 13.379799843 13.379799843 12.250000954 0.5396610498  -999.250000  -999.250000  -999.250000 43.292938232 148.79400635 149.50389099 150.47120667 0.4309999943 30.580215454 0.4471073747 0.4455576837
 1993.6967773  -999.250000 13.738400459 13.738400459 12.250000954 0.5394184589  -999.250000  -999.250000  -999.250000 42.743839264 149.32870483 150.84309387 151.01829529 0.4354000092 30.319610596 0.4487986267 0.4449078441
 1993.8491211  -999.250000 14.097001076 14.097001076 12.250000954 0.5386211872  -999.250000  -999.250000  -999.250000 42.194480896 149.86329651 151.54862976 151.79879761 0.4399000108 30.059118271 0.4504972994 0.4479538500
 1994.0015869  -999.250000 14.451100349 14.451100349 12.250000954 0.5379184484  -999.250000  -999.250000  -999.250000 41.649833679 150.38279724 150.37936401 149.71060181 0.4442000091 29.801406860 0.4521986246 0.4524268210
 1994.1539307  -999.250000 14.374899864 14.374899864 12.250000954 0.5371211767  -999.250000  -999.250000  -999.250000 41.635223389 149.46629333 149.17340088 148.91999817 0.4440000057 29.837142944 0.4525993764 0.4562102556
 1994.3063965  -999.250000 14.298700333 14.298700333 12.250000954 0.5364184976  -999.250000  -999.250000  -999.250000 41.620910645 148.54980469 148.69500732 148.58900452 0.4438000023 29.873170853 0.4528997540 0.4580477178
 1994.4587402  -999.250000 14.222599983 14.222599983 12.250000954 0.5356211662  -999.250000  -999.250000  -999.250000 41.606712341 147.63330078 147.73210144 147.32789612 0.4435999990 29.909172058 0.4532996714 0.4547987282
 1994.6112061  -999.250000 14.208900452 14.208900452 12.250000954 0.5899257064  -999.250000  -999.250000  -999.250000 41.960517883 147.56410217 146.30230713 145.81910706 0.4422999918 29.909900665 0.4518011808 0.4507888556
 1994.7635498  -999.250000 14.218400955 14.218400955 12.250000954 0.7219540477  -999.250000  -999.250000  -999.250000 42.451007843 147.80889893 146.53942871 146.87919617 0.4404999912 29.897508621 0.4496017694 0.4495640993
 1994.9160156  -999.250000 14.227800369 14.227800369 12.250000954 0.7248184681  -999.250000  -999.250000  -999.250000 42.941608429 148.05369568 147.59979248 147.93930054 0.4386999905 29.885108948 0.4474017620 0.4471888542
 1995.0683594  -999.250000 14.160599709 14.160599709 12.250000954 0.7409610748  -999.250000  -999.250000  -999.250000 43.327789307 148.69410706 148.65956116 148.99929810 0.4408000112 29.932161331 0.4478996098 0.4465756416
 1995.2208252  -999.250000 13.999099731 13.999099731 12.250000954 0.7407179475  -999.250000  -999.250000  -999.250000 43.585395813 149.82040405 149.72047424 150.05940247 0.4474999905 30.052003860 0.4517968595 0.4498612881
 1995.3731689  -999.250000 13.837698936 13.837698936 12.250000954 0.7568614483  -999.250000  -999.250000  -999.250000 43.842994690 150.94659424 150.86387634 151.24290466 0.4541999996 30.172004700 0.4555969536 0.4541549385
 1995.5255127  -999.250000 13.675000191 13.675000191 12.250000954 0.7566185594  -999.250000  -999.250000  -999.250000 44.208015442 151.78169250 152.08668518 152.48469543 0.4602000117 30.285118103 0.4594937563 0.4604602456
 1995.6779785  -999.250000 13.506199837 13.506199837 12.250000954 0.7558211684  -999.250000  -999.250000  -999.250000 45.107078552 151.17480469 154.71324158 155.76319885 0.4621999860 30.365234375 0.4633968771 0.4634797573
 1995.8303223  -999.250000 13.337400436 13.337400436 12.250000954 0.7551185489  -999.250000  -999.250000  -999.250000 46.005661011 150.56788635 152.82455444 151.43840027 0.4641999900 30.445072174 0.4673936069 0.4687602520
 1995.9827881  -999.250000 13.168600082 13.168600082 12.250000954 0.7035976648  -999.250000  -999.250000  -999.250000 46.905578613 149.96090698 150.11962891 149.49830627 0.4661999941 30.525035858 0.4712968767 0.4717797339
 1996.1351318  -999.250000 13.180899620 13.180899620 12.250000954 0.6381399035  -999.250000  -999.250000  -999.250000 45.942646027 149.20559692 147.40704346 146.42059326 0.4720000029 30.468889236 0.4761921763 0.4773320258
 1996.2875977  -999.250000 13.216300011 13.216300011 12.250000954 0.5466360450  -999.250000  -999.250000  -999.250000 44.739566803 148.43130493 144.67243958 143.84880066 0.4781999886 30.395359039 0.4810960591 0.4826549292
 1996.4399414  -999.250000 13.251799583 13.251799583 12.250000954 0.5265786052  -999.250000  -999.250000  -999.250000 43.537063599 147.65710449 146.36087036 147.54580688 0.4844000041 30.321758270 0.4860959947 0.4865140915
 1996.5924072  -999.250000 13.307900429 13.307900429 12.250000954 0.5253211856  -999.250000  -999.250000  -999.250000 42.773311615 146.30419922 145.85269165 145.05499268 0.4968000054 30.064706802 0.4921950996 0.4883797467
 1996.7447510  -999.250000 13.377499580 13.377499580 12.250000954 0.5246185660  -999.250000  -999.250000  -999.250000 42.294879913 144.57569885 140.42924500 138.24729919 0.5134000182 29.688501358 0.4989945590 0.4943397641
 1996.8972168  -999.250000 13.446999550 13.446999550 12.250000954 0.5238211751  -999.250000  -999.250000  -999.250000 41.816680908 142.84719849 139.17665100 139.61450195 0.5299000144 29.312200546 0.5058944821 0.5033895969
 1997.0495605  -999.250000 13.486900330 13.486900330 12.250000954 0.5295439959  -999.250000  -999.250000  -999.250000 41.601772308 140.12539673 143.53112793 145.37860107 0.5397999883 29.006944656 0.5150926113 0.5153692365
 1997.2020264  -999.250000 13.465200424 13.465200424 12.250000954 0.5395331383  -999.250000  -999.250000  -999.250000 41.932933807 135.34500122 143.60079956 142.76530457 0.5358999968 28.848926544 0.5291887522 0.5336139202
 1997.3543701  -999.250000 13.443400383 13.443400383 12.250000954 0.5390211344  -999.250000  -999.250000  -999.250000 42.264533997 130.56469727 133.31890869 128.86830139 0.5320000052 28.691026688 0.5432886481 0.5520275831
