# LAS format log file from PETREL
# Project units are specified as depth units
#==================================================================
~Version information
VERS.   2.0:
WRAP.   NO:
#==================================================================
~Well
STRT .m      2859.8344727 :
STOP .m      3172.2546387 :
STEP .m     0.00000000 :
NULL .        -999.250000 :
COMP.           : COMPANY
WELL.  7/1-2 S   : WELL
FLD.            : FIELD
LOC.            : LOCATION
SRVC.           : SERVICE COMPANY
DATE.  2018-09-11 14:49:04   : Log Export Date {yyyy-MM-dd HH:mm:ss}
PROV.           : PROVINCE
UWI.   7/1-2 S   : UNIQUE WELL ID
API.            : API NUMBER
#==================================================================
~Curve
DEPT .m                   : DEPTH
Lithology_geolink ._      : Lithology_geolink
DCAL .in                  : DCAL
CALI .in                  : CALI
BS .in                    : BS
ROP .m/h                  : ROP
DRHO .g/cm3               : DRHO
THOR .ppm                 : THOR
NPHI .m3/m3               : NPHI
RHOB .g/cm3               : RHOB
PEF .b/e                  : PEF
GR .gAPI                  : GR
URAN .ppm                 : URAN
DTC .us/ft                : DTC
DT .us/ft                 : DT
DTS .us/ft                : DTS
RDEP .ohm.m               : RDEP
RSHA .ohm.m               : RSHA
RMED .ohm.m               : RMED
~Parameter
#==================================================================
~Ascii
# ...
 3045.9150391 1.0000000000 8.5837001801 8.5837001801 8.5000000000 35163.937500 -0.008591827 1.4794000387 0.2363000065 2.2000904083 5.7521929741 37.054100037 1.0448000431 83.309997559 83.309631348 153.55583191 0.1893998384 0.1734993607 0.1840001643
 3046.0673828 1.0000000000 8.5513000488 8.5513000488 8.5000000000 35050.996094 0.0001718400 1.5973999500 0.2210000008 2.2019922733 5.7963590622 36.081901550 1.0362999439 83.276496887 83.276603699 153.08659363 0.1905961484 0.1750948727 0.1849967986
 3046.2199707 1.0000000000 8.5706996918 8.5706996918 8.5000000000 35050.632813 -0.003793590 1.6887999773 0.2160000056 2.2046923637 5.8122749329 33.984901428 0.9976999760 83.279899597 83.279891968 153.17395020 0.1904003322 0.1756990254 0.1848003268
 3046.3723145 1.0000000000 8.5850000381 8.5850000381 8.5000000000 35050.632813 -0.006695352 1.8553999662 0.2284000069 2.2041599751 6.4310069084 35.112300873 0.9240000248 83.319801331 83.319740295 153.90621948 0.1878041774 0.1739028841 0.1822041720
 3046.5246582 1.0000000000 8.5666999817 8.5666999817 8.5000000000 35050.632813 -0.011092949 1.9413000345 0.2303999960 2.1979413033 6.4145283699 35.226001740 0.8927000165 83.470298767 83.470054626 154.34719849 0.1852041781 0.1719032079 0.1796041727
 3046.6770020 1.0000000000 8.5552997589 8.5552997589 8.5000000000 35050.632813 -0.021982532 1.9805999994 0.2265000045 2.1920163631 6.3513016701 35.833499908 0.8745999932 83.362602234 83.362777710 154.70791626 0.1858988851 0.1729982346 0.1802988797
 3046.8293457 1.0000000000 8.5655002594 8.5655002594 8.5000000000 35050.632813 -0.016916320 1.9182000160 0.2283000052 2.1907684803 6.3035531044 37.999298096 0.8932999969 83.015998840 83.017105103 153.83520508 0.1907843202 0.1775852740 0.1848852783
 3046.9819336 1.0000000000 8.5634002686 8.5634002686 8.5000000000 35061.699219 -0.017399199 1.8187999725 0.2291000038 2.1908440590 6.3842701912 37.281101227 0.9225000143 82.220703125 82.221977234 151.80845642 0.1981881410 0.1838898957 0.1920884699
 3047.1342773 1.0000000000 8.5614004135 8.5614004135 8.5000000000 35078.476563 -0.014504647 1.7273000479 0.2252999991 2.2035326958 6.0964622498 37.743301392 0.9383000135 81.352294922 81.353683472 149.35462952 0.2078844607 0.1914878190 0.2013850957
 3047.2866211 1.0000000000 8.5530004501 8.5530004501 8.5000000000 35079.164063 -0.005714103 1.5808000565 0.2138999999 2.2240116596 5.2111206055 37.112800598 0.9900000095 80.222503662 80.224311829 146.03652954 0.2204798162 0.2007851005 0.2134806067
 3047.4389648 1.0000000000 8.5523996353 8.5523996353 8.5000000000 35042.519531 -0.000217600 1.5160000324 0.2153999954 2.2449326515 5.3664965630 34.931098938 1.0398999453 78.966407776 78.970428467 142.28283691 0.2349535972 0.2111667246 0.2275548726
 3047.5915527 1.0000000000 8.5375003815 8.5375003815 8.5000000000 34998.363281 -0.008386859 1.4925999641 0.2057999969 2.2626640797 6.3094868660 36.058101654 1.0930999517 77.860702515 77.862472534 138.33651733 0.2478793263 0.2201855779 0.2401798069
 3047.7438965 1.0000000000 8.5413999557 8.5413999557 8.5000000000 35013.523438 -0.012593269 1.4635000229 0.2006999999 2.2723336220 7.3939619064 35.606800079 1.1756999493 77.186798096 77.187881470 135.68804932 0.2568855882 0.2261903882 0.2489859015
 3047.8962402 1.0000000000 8.5324001312 8.5324001312 8.5000000000 35044.875000 -0.013698237 1.4282000065 0.2157000005 2.2782797813 8.4132661819 35.612400055 1.2441999912 76.748497009 76.749198914 134.72923279 0.2622913718 0.2299939096 0.2544911802
 3048.0485840 1.0000000000 8.5157003403 8.5157003403 8.5000000000 35061.992188 -0.008516640 1.3949999809 0.2076999992 2.2837345600 8.1535396576 33.306999207 1.2696000338 76.544700623 76.545349121 135.03411865 0.2662872076 0.2337878346 0.2586865723
 3048.2011719 1.0000000000 8.5424003601 8.5424003601 8.5000000000 35088.226563 -0.008300320 1.4228999615 0.2114000022 2.2823565006 7.5509662628 33.520999908 1.2304999828 76.727104187 76.726814270 135.93196106 0.2683966458 0.2372943908 0.2612958252
 3048.3535156 1.0000000000 8.5432996750 8.5432996750 8.5000000000 34801.902344 -0.014290385 1.4293999672 0.2096000016 2.2718958855 7.3712868690 35.672100067 1.1633000374 77.332603455 77.331634521 137.28713989 0.2667027116 0.2387976050 0.2601019442
 3048.5058594 1.0000000000 8.5422000885 8.5422000885 8.5000000000 34494.695313 -0.005114744 1.5031000376 0.2186000049 2.2532191277 7.5725760460 34.655200958 1.0551999807 78.271301270 78.269798279 138.60308838 0.2586129904 0.2357049584 0.2526120245
 3048.6582031 1.0000000000 8.5207004547 8.5207004547 8.5000000000 34348.062500 -0.021673398 1.5563999414 0.2213000059 2.2329654694 7.6041498184 32.220600128 0.9610000849 79.349296570 79.347572327 140.56994629 0.2452214658 0.2278126627 0.2398205251
 3048.8105469 1.0000000000 8.5139999390 8.5139999390 8.5000000000 34181.246094 -0.028577920 1.5654000044 0.2231000066 2.2209193707 7.6827478409 30.936300278 0.8894000053 80.256401062 80.253501892 143.22308350 0.2315438390 0.2186294496 0.2266422510
 3048.9631348 1.0000000000 8.5298004150 8.5298004150 8.5000000000 34044.757813 -0.017517788 1.5846999884 0.2340999991 2.2079279423 7.7638702393 31.407499313 0.8190000057 80.934700012 80.933616638 146.56384277 0.2210168242 0.2103133053 0.2163165063
 3049.1154785 1.0000000000 8.5318002701 8.5318002701 8.5000000000 33879.113281 -0.029580610 1.5851000547 0.2481999993 2.1987767220 7.7421350479 35.988399506 0.7893000245 81.586601257 81.585556030 149.57048035 0.2112157047 0.2006155401 0.2065156996
 3049.2678223 1.0000000000 8.5375995636 8.5375995636 8.5000000000 33858.472656 -0.022711059 1.6546000242 0.2243999988 2.1997895241 8.1598291397 35.817501068 0.7513999939 82.216201782 82.215194702 151.18002319 0.2015155405 0.1892182678 0.1966158748
 3049.4201660 1.0000000000 8.5401000977 8.5401000977 8.5000000000 33831.972656 -0.020207999 1.7822999954 0.2091999948 2.2084732056 8.5673933029 34.833698273 0.7225999832 82.208808899 82.208831787 151.25836182 0.1964163184 0.1812255979 0.1909182370
 3049.5727539 1.0000000000 8.5431003571 8.5431003571 8.5000000000 33794.746094 -0.018602565 1.9931999445 0.2275999933 2.2252280712 8.8185987473 35.965198517 0.7081999779 81.686698914 81.687538147 150.16235352 0.1996947080 0.1808006465 0.1932961494
 3049.7250977 1.0000000000 8.5328998566 8.5328998566 8.5000000000 33782.199219 -0.025588781 2.1854000092 0.2162999958 2.2401587963 8.7752704620 35.095401764 0.7064999938 81.138801575 81.139678955 149.19914246 0.2118804455 0.1885875016 0.2039828449
 3049.8774414 1.0000000000 8.5158004761 8.5158004761 8.5000000000 33642.175781 -0.042373076 2.4093000889 0.2067999989 2.2466135025 8.8729429245 36.988201141 0.7131999731 80.722900391 80.723564148 147.79743958 0.2285732329 0.2004809231 0.2186764479
 3050.0297852 1.0000000000 8.5005998611 8.5005998611 8.5000000000 33590.867188 -0.011598880 2.4386999607 0.2104000002 2.2444634438 8.8875532150 35.778099060 0.7161999941 80.587608337 80.588043213 147.55656433 0.2411596775 0.2093715221 0.2294654399
 3050.1823730 1.0000000000 8.4953002930 8.4953002930 8.5000000000 33726.988281 -0.026076604 2.3491001129 0.2226999998 2.2310419083 8.7702875137 31.758800507 0.7727000117 80.418998718 80.419265747 147.22703552 0.2464915067 0.2114966363 0.2330942303
 3050.3347168 1.0000000000 8.5253000259 8.5253000259 8.5000000000 33781.214844 -0.023204647 2.2962999344 0.2242999971 2.2209799290 8.8457784653 32.596000671 0.8258000016 80.347000122 80.347114563 147.10040283 0.2476980835 0.2097028941 0.2328004837
 3050.4870605 1.0000000000 8.5324001312 8.5324001312 8.5000000000 33608.976563 -0.013815064 2.1656999588 0.2203000039 2.2226605415 9.0705394745 33.907398224 0.9052000046 80.252006531 80.252159119 146.52493286 0.2504954934 0.2088014483 0.2338982373
 3050.6394043 1.0000000000 8.5313997269 8.5313997269 8.5000000000 33535.078125 -0.020788781 2.0302000046 0.2260999978 2.2326443195 7.7586059570 35.321399689 0.9699999690 80.005996704 80.006393433 145.39471436 0.2583873272 0.2120947093 0.2396907061
 3050.7917480 1.0000000000 8.5383996964 8.5383996964 8.5000000000 33961.750000 -0.011131040 1.9153001308 0.2187000066 2.2421193123 7.3158149719 34.745201111 1.0241999626 79.574996948 79.576377869 143.89730835 0.2723551989 0.2206724733 0.2506648004
