# LAS format log file from PETREL
# Project units are specified as depth units
#==================================================================
~Version information
VERS.   2.0:
WRAP.   NO:
#==================================================================
~Well
STRT .m      2859.8344727 :
STOP .m      3172.2546387 :
STEP .m     0.00000000 :
NULL .        -999.250000 :
COMP.           : COMPANY
WELL.  7/1-2 S   : WELL
FLD.            : FIELD
LOC.            : LOCATION
SRVC.           : SERVICE COMPANY
DATE.  2018-09-11 14:49:04   : Log Export Date {yyyy-MM-dd HH:mm:ss}
PROV.           : PROVINCE
UWI.   7/1-2 S   : UNIQUE WELL ID
API.            : API NUMBER
#==================================================================
~Curve
DEPT .m                   : DEPTH
Lithology_geolink ._      : Lithology_geolink
DCAL .in                  : DCAL
CALI .in                  : CALI
BS .in                    : BS
ROP .m/h                  : ROP
DRHO .g/cm3               : DRHO
THOR .ppm                 : THOR
NPHI .m3/m3               : NPHI
RHOB .g/cm3               : RHOB
PEF .b/e                  : PEF
GR .gAPI                  : GR
URAN .ppm                 : URAN
DTC .us/ft                : DTC
DT .us/ft                 : DT
DTS .us/ft                : DTS
RDEP .ohm.m               : RDEP
RSHA .ohm.m               : RSHA
RMED .ohm.m               : RMED
~Parameter
#==================================================================
~Ascii
# ...
 3126.3820801 2.0000000000 8.5016002655 8.5016002655 8.5000000000 31962.128906 -0.020288302 4.8143725395 0.2266753167 2.3092107773 7.1679768562 60.280357361 1.1720948219 82.788696289 82.788909912 152.51541138 0.5215825438 0.4571886063 0.4718841314
 3126.5344238 2.0000000000 8.5031995773 8.5031995773 8.5000000000 31986.513672 -0.013521761 5.0107798576 0.2285939157 2.3050003052 5.7208428383 57.812698364 1.2648268938 82.450103760 82.451187134 149.74478149 0.5413366556 0.4721519947 0.4893440008
 3126.6870117 2.0000000000 8.5186996460 8.5186996460 8.5000000000 32469.826172 0.0005774039 5.0298047066 0.2252054513 2.3176174164 6.4442315102 56.255088806 1.3600852489 81.979797363 81.980552673 146.68139648 0.5941153765 0.5164290071 0.5359253287
 3126.8393555 2.0000000000 8.5101995468 8.5101995468 8.5000000000 32677.107422 -0.019567629 5.0703420639 0.2043334991 2.3393845558 6.5603156090 54.591766357 1.4144070148 81.273193359 81.274322510 144.73471069 0.7005293369 0.6069548130 0.6294499636
 3126.9916992 2.0000000000 8.4958000183 8.4958000183 8.5000000000 32919.984375 -0.038270034 5.1343007088 0.1992081702 2.3655507565 6.5395340919 64.230728149 1.4754365683 80.797698975 80.798461914 143.62586975 0.8398765922 0.7234132886 0.7504060864
 3127.1440430 2.0000000000 8.5076999664 8.5076999664 8.5000000000 33031.828125 -0.022151839 5.3384084702 0.1916243136 2.3799436092 6.5321240425 65.753860474 1.4383381605 80.459800720 80.460884094 142.46084595 0.9194453359 0.7811153531 0.8148936033
 3127.2966309 2.0000000000 8.4989995956 8.4989995956 8.5000000000 33436.546875 -0.008322115 5.4934167862 0.1833133101 2.3830766678 6.2641301155 63.418659210 1.4156268835 80.294097900 80.294364929 141.95968628 0.9120123386 0.7558408976 0.7998244762
 3127.4489746 2.0000000000 8.4951000214 8.4951000214 8.5000000000 33637.234375 0.0055777240 5.8494243622 0.1796059310 2.3916101456 5.8107271194 64.368865967 1.3506776094 80.195190430 80.195350647 141.06343079 0.8997197151 0.7212554216 0.7796323895
 3127.6013184 2.0000000000 8.4697999954 8.4697999954 8.5000000000 33613.015625 -0.000989423 6.0892763138 0.1884857416 2.3995020390 6.9826178551 64.575073242 1.3574551344 80.211799622 80.211776733 140.14736938 0.9222637415 0.7109165192 0.7886853814
 3127.7536621 2.0000000000 8.5094995499 8.5094995499 8.5000000000 33599.941406 0.0018953526 6.2832422256 0.1851054579 2.3962621689 7.4442620277 65.233444214 1.5459736586 80.290397644 80.290267944 139.98106384 0.9622359276 0.7149934173 0.8123620152
 3127.9060059 2.0000000000 8.5030002594 8.5030002594 8.5000000000 33256.695313 -0.014945920 6.2246270180 0.1910808086 2.3895344734 7.0319261551 73.079818726 1.7447807789 80.190498352 80.190818787 140.56661987 1.0073554516 0.7277590632 0.8411078453
 3128.0585938 2.0000000000 8.5039997101 8.5039997101 8.5000000000 33060.152344 -0.028678045 6.1817879677 0.1921982467 2.3773813248 7.8112468719 71.973716736 1.7422558069 80.030601501 80.030860901 141.24121094 1.0474358797 0.7443734407 0.8677573800
 3128.2109375 2.0000000000 8.5029001236 8.5029001236 8.5000000000 32874.367188 -0.017018750 5.9241065979 0.1817168295 2.3785088062 7.6439704895 68.821960449 1.6333462000 79.939201355 79.939346313 141.66801453 1.0633745193 0.7525869012 0.8783830404
 3128.3632813 1.0000000000 8.5045003891 8.5045003891 8.5000000000 32761.230469 -0.015402564 5.6689615250 0.1898868531 2.3692481518 8.2758855820 60.107479095 1.4762462378 80.241798401 80.241310120 141.46234131 1.0680924654 0.7611862421 0.8850892782
 3128.5156250 1.0000000000 8.5178003311 8.5178003311 8.5000000000 32768.378906 -0.021281119 4.8397231102 0.1803307235 2.3521435261 7.8690094948 56.940818787 1.2796281576 81.085197449 81.082496643 142.18507385 1.1342875957 0.8224035501 0.9500913620
 3128.6682129 1.0000000000 8.4921998978 8.4921998978 8.5000000000 32773.222656 -0.014411057 4.7848029137 0.1947767735 2.3392524719 6.1301889420 54.351940155 1.3164217472 82.034599304 82.033081055 143.56349182 1.3520507813 1.0081021786 1.1553708315
 3128.8205566 1.0000000000 8.4847002029 8.4847002029 8.5000000000 32941.394531 0.0059673078 5.1768679619 0.2108741999 2.3426537514 5.7937355042 57.980171204 1.4049230814 82.485900879 82.485176086 144.62361145 1.7772181034 1.3768086433 1.5624470711
 3128.9729004 2.0000000000 8.4518995285 8.4518995285 8.5000000000 33146.855469 -0.010673238 5.3442883492 0.2164910287 2.3685944080 4.5931262970 64.400901794 1.4656256437 82.421302795 82.421409607 144.44947815 2.3711478710 1.9387989044 2.1637358665
 3129.1252441 2.0000000000 8.4567003250 8.4567003250 8.5000000000 33264.761719 -0.012294879 5.6539721489 0.2183939219 2.3936338425 3.9039063454 67.389640808 1.4832420349 82.082901001 82.083984375 144.31503296 2.9907140732 2.6135368347 2.8410286903
 3129.2778320 2.0000000000 8.4836997986 8.4836997986 8.5000000000 33538.695313 0.0137581732 5.5232148170 0.2366706729 2.3979108334 3.9344475269 63.221405029 1.4723173380 81.811897278 81.812332153 144.42382813 3.3258652687 3.1208891869 3.2874867916
 3129.4301758 2.0000000000 8.4940004349 8.4940004349 8.5000000000 33710.906250 0.0004214743 5.4428892136 0.2204261273 2.3916714191 4.8824782372 60.323638916 1.4454121590 81.487396240 81.487915039 144.51814270 3.2806735039 3.3276693821 3.4163942337
 3129.5825195 2.0000000000 8.4777002335 8.4777002335 8.5000000000 34208.660156 0.0018975962 5.4885935783 0.1966381520 2.3943970203 4.6237177849 62.266277313 1.3173999786 81.315902710 81.316177368 144.99693298 3.1434202194 3.4372248650 3.4951739311
 3129.7348633 2.0000000000 8.5153999329 8.5153999329 8.5000000000 34616.226563 0.0153783653 5.6558766365 0.1978979111 2.4013774395 4.6960830688 67.445190430 1.2396705151 81.123199463 81.123504639 145.05949402 3.0495502949 3.4820284843 3.5634906292
 3129.8872070 2.0000000000 8.5227003098 8.5227003098 8.5000000000 35270.734375 0.0134063996 5.6932873726 0.2272059172 2.4130814075 4.1498537064 71.429939270 1.2221884727 81.165901184 81.165763855 145.39193726 2.9371602535 3.4190027714 3.5410721302
 3130.0397949 2.0000000000 8.5151996613 8.5151996613 8.5000000000 35418.425781 0.0067107370 5.8753848076 0.2361857444 2.4271359444 4.1780519485 71.671035767 1.1238135099 80.864799500 80.865280151 143.87564087 2.8038134575 3.2996912003 3.4353694916
 3130.1921387 2.0000000000 8.5151996613 8.5151996613 8.5000000000 35569.078125 -0.002784776 6.1977219582 0.2165315747 2.4418604374 4.6761007309 67.261077881 1.0078442097 80.010803223 80.012168884 140.76159668 2.6349706650 3.1371605396 3.2378168106
 3130.3444824 1.0000000000 8.5122003555 8.5122003555 8.5000000000 35463.054688 -0.023966026 5.7195181847 0.1857493520 2.4537041187 4.6655182838 56.933666229 0.8785622120 78.798606873 78.800552368 136.49842834 2.3992779255 2.8904955387 2.9160158634
 3130.4968262 1.0000000000 8.4955997467 8.4955997467 8.5000000000 34413.628906 0.0001225600 5.0355548859 0.1661627144 2.4611070156 5.3962540627 43.113510132 0.7472358942 77.220298767 77.225349426 132.49353027 2.1382367611 2.6058125496 2.5410022736
 3130.6494141 1.0000000000 8.4967002869 8.4967002869 8.5000000000 32664.001953 -0.004791988 4.8544821739 0.1583124995 2.4491074085 5.4472217560 32.480495453 0.6131269336 75.667098999 75.669586182 129.04412842 1.9344258308 2.3886470795 2.2479684353
 3130.8017578 1.0000000000 8.4806003571 8.4806003571 8.5000000000 29977.609375 -0.006896635 4.6143293381 0.1569022536 2.4286277294 5.4290294647 31.358873367 0.6667326689 74.458297729 74.460235596 126.97232056 1.8279703856 2.2907567024 2.0905520916
 3130.9541016 1.0000000000 8.4707002640 8.4707002640 8.5000000000 27496.544922 0.0039825323 4.0772056580 0.1396277249 2.4253368378 4.8574175835 31.100812912 0.8026775718 74.440299988 74.440330505 126.37195587 1.8240060806 2.3122651577 2.0653400421
 3131.1064453 1.0000000000 8.4818000793 8.4818000793 8.5000000000 24814.478516 0.0091833603 4.1727743149 0.1378057599 2.4405903816 3.9324665070 35.604839325 0.7990589738 75.312904358 75.310112000 127.94604492 1.9132136106 2.4247391224 2.1527194977
 3131.2590332 2.0000000000 8.4675998688 8.4675998688 8.5000000000 22987.097656 0.0236767642 4.7555012703 0.1609628201 2.4550197124 3.5743701458 65.708999634 0.9592204690 76.792701721 76.790328979 130.43692017 2.0827283859 2.5883378983 2.3300158978
