# LAS format log file from PETREL
# Project units are specified as depth units
#==================================================================
~Version information
VERS.   2.0:
WRAP.   NO:
#==================================================================
~Well
STRT .m      2859.8344727 :
STOP .m      3172.2546387 :
STEP .m     0.00000000 :
NULL .        -999.250000 :
COMP.           : COMPANY
WELL.  7/1-2 S   : WELL
FLD.            : FIELD
LOC.            : LOCATION
SRVC.           : SERVICE COMPANY
DATE.  2018-09-11 14:49:04   : Log Export Date {yyyy-MM-dd HH:mm:ss}
PROV.           : PROVINCE
UWI.   7/1-2 S   : UNIQUE WELL ID
API.            : API NUMBER
#==================================================================
~Curve
DEPT .m                   : DEPTH
Lithology_geolink ._      : Lithology_geolink
DCAL .in                  : DCAL
CALI .in                  : CALI
BS .in                    : BS
ROP .m/h                  : ROP
DRHO .g/cm3               : DRHO
THOR .ppm                 : THOR
NPHI .m3/m3               : NPHI
RHOB .g/cm3               : RHOB
PEF .b/e                  : PEF
GR .gAPI                  : GR
URAN .ppm                 : URAN
DTC .us/ft                : DTC
DT .us/ft                 : DT
DTS .us/ft                : DTS
RDEP .ohm.m               : RDEP
RSHA .ohm.m               : RSHA
RMED .ohm.m               : RMED
~Parameter
#==================================================================
~Ascii
# ...
 3025.7980957 1.0000000000 8.6646003723 8.6646003723 8.5000000000 26557.017578 -0.003299680 2.3215718269 0.2531999946 2.1545212269 5.6168799400 33.829799652 0.4508538544 89.023498535 89.024009705 171.92491150 0.1467060745 0.1355143934 0.1425089538
 3025.9506836 1.0000000000 8.6689996719 8.6689996719 8.5000000000 26227.382813 0.0024907051 2.3262748718 0.2311999947 2.1535201073 5.2664628029 33.931900024 0.4372262955 88.970703125 88.970787048 172.16880798 0.1448030472 0.1312068850 0.1397044808
 3026.1030273 1.0000000000 8.6751003265 8.6751003265 8.5000000000 27021.220703 -0.004788301 2.2811186314 0.2435999960 2.1531345844 5.1211323738 32.195499420 0.4323948622 89.258796692 89.258331299 173.95742798 0.1415052861 0.1262080222 0.1358062476
 3026.2553711 1.0000000000 8.6609001160 8.6609001160 8.5000000000 27453.802734 -0.008993269 2.0732960701 0.2372999936 2.1557009220 4.9181256294 32.814399719 0.4541461468 89.732894897 89.732131958 176.32011414 0.1376062483 0.1214076877 0.1316067427
 3026.4077148 1.0000000000 8.6497001648 8.6497001648 8.5000000000 28069.519531 -0.003318240 1.9792922735 0.2615000010 2.1589846611 5.5591411591 33.170600891 0.5086397529 90.272697449 90.270973206 177.21543884 0.1350083202 0.1183099151 0.1289086491
 3026.5603027 1.0000000000 8.6462001801 8.6462001801 8.5000000000 28429.732422 -0.011287180 1.8901704550 0.2533999979 2.1521799564 5.9683461189 34.140499115 0.5889608860 90.693397522 90.692726135 176.47718811 0.1346006393 0.1176011264 0.1284008026
 3026.7126465 1.0000000000 8.6270999908 8.6270999908 8.5000000000 29208.455078 -0.015393429 1.7988127470 0.2425999939 2.1400644779 5.9714961052 31.015300751 0.7102301121 91.097099304 91.096450806 175.94905090 0.1350992024 0.1181990355 0.1288992018
 3026.8649902 1.0000000000 8.6204004288 8.6204004288 8.5000000000 29693.701172 -0.012704327 1.7470935583 0.2369000018 2.1335172653 5.9415483475 31.269399643 0.8052378297 91.181602478 91.181465149 175.77247620 0.1341016144 0.1178006381 0.1281012744
 3027.0173340 1.0000000000 8.5881996155 8.5881996155 8.5000000000 29811.408203 -0.017384959 1.6536359787 0.2502999902 2.1292796135 5.9798769951 30.558799744 0.8978743553 91.062103271 91.062484741 176.03913879 0.1316080093 0.1160057560 0.1258073598
 3027.1699219 1.0000000000 8.5480003357 8.5480003357 8.5000000000 29889.560547 -0.016900800 1.5296897888 0.2500999868 2.1275169849 6.8616847992 31.897300720 0.9157109261 90.569389343 90.570175171 176.34130859 0.1300025582 0.1148019210 0.1244022399
 3027.3222656 1.0000000000 8.5247001648 8.5247001648 8.5000000000 30291.634766 -0.019096473 1.4297827482 0.2599000037 2.1286520958 7.6390542984 32.740001678 0.8921339512 89.919799805 89.920837402 176.20132446 0.1307987124 0.1154988781 0.1254982352
 3027.4746094 1.0000000000 8.5100002289 8.5100002289 8.5000000000 30744.294922 -0.033976123 1.3551602364 0.2930000126 2.1262173653 8.0187921524 32.787799835 0.8641467690 89.324203491 89.325157166 175.60507202 0.1338950396 0.1180958375 0.1287947148
 3027.6269531 1.0000000000 8.5444002151 8.5444002151 8.5000000000 30972.009766 -0.031603843 1.3243404627 0.2653999925 2.1249356270 7.8780269623 32.131301880 0.8606955409 88.894699097 88.895385742 173.55868530 0.1389918327 0.1223931089 0.1341913491
 3027.7795410 1.0000000000 8.5321998596 8.5321998596 8.5000000000 31317.685547 -0.028904319 1.2972512245 0.2693000138 2.1313216686 9.2240428925 34.213699341 0.8563974500 88.553901672 88.554443359 171.89425659 0.1460886449 0.1286899298 0.1415881515
 3027.9318848 1.0000000000 8.5012998581 8.5012998581 8.5000000000 31387.035156 -0.029698718 1.2506217957 0.2676999867 2.1353759766 9.0214290619 34.397899628 0.8902147412 88.299896240 88.300300598 170.50642395 0.1531886160 0.1348900646 0.1489881426
 3028.0842285 1.0000000000 8.5274000168 8.5274000168 8.5000000000 31566.042969 -0.025506731 1.1699006557 0.2556000054 2.1414115429 8.9297466278 31.723300934 0.9540910721 88.008003235 88.008468628 170.31280518 0.1553964615 0.1368967891 0.1515958309
 3028.2365723 1.0000000000 8.5304002762 8.5304002762 8.5000000000 31699.767578 -0.029892948 1.1195602417 0.2700000107 2.1515142918 8.9382858276 31.483400345 0.9821115732 87.847290039 87.847549438 171.22293091 0.1518057734 0.1339048147 0.1485049576
 3028.3889160 1.0000000000 8.5325002670 8.5325002670 8.5000000000 32044.080078 -0.022025280 1.0796499252 0.2660999894 2.1611528397 9.5992784500 33.947299957 1.0115461349 87.814002991 87.814109802 172.44596863 0.1473143995 0.1300124824 0.1444131136
 3028.5415039 1.0000000000 8.4947004318 8.4947004318 8.5000000000 32310.300781 -0.040270675 1.0964897871 0.2709999979 2.1701519489 11.732180595 33.064800262 0.9965737462 87.974899292 87.974639893 173.37071228 0.1440052837 0.1270048171 0.1412051320
 3028.6938477 1.0000000000 8.4778003693 8.4778003693 8.5000000000 32792.867188 -0.076042630 1.1830468178 0.2612999976 2.1664345264 12.235596657 31.712499619 0.9460038543 88.273696899 88.273216248 174.15063477 0.1403059363 0.1237052903 0.1375059336
 3028.8461914 1.0000000000 8.5047998428 8.5047998428 8.5000000000 32969.910156 -0.044450801 1.2522218227 0.2502000034 2.1622817516 12.127874374 30.874099731 0.8867858648 88.680198669 88.679550171 174.80886841 0.1369054466 0.1207048073 0.1339057684
 3028.9985352 1.0000000000 8.5201997757 8.5201997757 8.5000000000 33235.101563 -0.049982082 1.3378794193 0.2335000038 2.1696481705 11.742935181 31.248399734 0.8076128364 89.193199158 89.191558838 176.22544861 0.1356041580 0.1199025661 0.1323051304
 3029.1511230 1.0000000000 8.5258998871 8.5258998871 8.5000000000 33332.687500 -0.061980769 1.3942692280 0.2407000065 2.1681177616 10.443184853 31.025100708 0.7527012825 89.868400574 89.867317200 177.03001404 0.1355001628 0.1202993616 0.1318008006
 3029.3034668 1.0000000000 8.5305004120 8.5305004120 8.5000000000 33433.410156 -0.023961058 1.4392845631 0.2542999983 2.1542601585 9.9002676010 30.556699753 0.7109455466 90.475906372 90.474929810 177.15940857 0.1341022551 0.1195012778 0.1300028861
 3029.4558105 1.0000000000 8.5506000519 8.5506000519 8.5000000000 33587.277344 -0.023400800 1.4238409996 0.2531000078 2.1467404366 9.4832677841 33.504901886 0.6977993250 91.007202148 91.006347656 176.84770203 0.1316040158 0.1175032035 0.1271046549
 3029.6081543 1.0000000000 8.5473003387 8.5473003387 8.5000000000 33757.273438 -0.038052961 1.3821285963 0.2457000017 2.1525595188 9.0207834244 31.468900681 0.7097566724 91.302597046 91.301651001 176.47151184 0.1291079968 0.1156060770 0.1245083213
 3029.7607422 1.0000000000 8.5380001068 8.5380001068 8.5000000000 33873.726563 -0.040196635 1.3556493521 0.2458000034 2.1538977623 8.7027082443 33.434600830 0.7306660414 91.567703247 91.567276001 176.13352966 0.1273028851 0.1143020838 0.1225032061
 3029.9130859 1.0000000000 8.5286998749 8.5286998749 8.5000000000 34010.414063 -0.011446154 1.3101800680 0.2538000047 2.1506080627 8.3194141388 32.807201385 0.7584480643 91.715400696 91.715164185 175.63220215 0.1276993603 0.1150987148 0.1226996779
 3030.0654297 1.0000000000 8.5240001678 8.5240001678 8.5000000000 34141.214844 -0.023480609 1.2698582411 0.2617000043 2.1528501511 7.7259516716 33.669700623 0.7872422934 91.904701233 91.904396057 175.22296143 0.1307950318 0.1184945554 0.1256951839
 3030.2177734 1.0000000000 8.5228996277 8.5228996277 8.5000000000 34305.429688 -0.028491987 1.2363436222 0.2637999952 2.1544806957 7.3642787933 31.868900299 0.8263461590 92.083000183 92.082717896 175.37295532 0.1332959980 0.1212955117 0.1283956766
 3030.3701172 1.0000000000 8.5325002670 8.5325002670 8.5000000000 34510.007813 -0.018532000 1.2155448198 0.2685999870 2.1464345455 7.0234918594 32.390701294 0.8549192548 92.166397095 92.166130066 175.57954407 0.1311070323 0.1196054369 0.1265060753
 3030.5227051 1.0000000000 8.5431003571 8.5431003571 8.5000000000 34784.761719 -0.019099038 1.2271757126 0.2728999853 2.1415641308 7.1465005875 33.686901093 0.8610095978 92.046501160 92.046691895 175.55384827 0.1255089641 0.1148076877 0.1215080097
 3030.6750488 1.0000000000 8.5260000229 8.5260000229 8.5000000000 35002.882813 -0.004423558 1.2344911098 0.2764999866 2.1492230892 7.1077623367 34.570701599 0.8586948514 91.640808105 91.641456604 175.81358337 0.1216062531 0.1117049679 0.1182052866
