# LAS format log file from PETREL
# Project units are specified as depth units
#==================================================================
~Version information
VERS.   2.0:
WRAP.   NO:
#==================================================================
~Well
STRT .m      334.06079102 :
STOP .m      2807.3603516 :
STEP .m     0.00000000 :
NULL .        -999.250000 :
COMP.           : COMPANY
WELL.  7/1-1   : WELL
FLD.            : FIELD
LOC.            : LOCATION
SRVC.           : SERVICE COMPANY
DATE.  2018-09-11 14:49:04   : Log Export Date {yyyy-MM-dd HH:mm:ss}
PROV.           : PROVINCE
UWI.   7/1-1   : UNIQUE WELL ID
API.            : API NUMBER
#==================================================================
~Curve
DEPT .m                   : DEPTH
Lithology_geolink ._      : Lithology_geolink
DCAL .in                  : DCAL
CALI .in                  : CALI
BS .in                    : BS
ROP .m/h                  : ROP
DRHO .g/cm3               : DRHO
NPHI .m3/m3               : NPHI
RHOB .g/cm3               : RHOB
GR .gAPI                  : GR
DTC .us/ft                : DTC
DT .us/ft                 : DT
DTE .us/ft                : DTE
RDEP .ohm.m               : RDEP
SP .mV                    : SP
RSHA .ohm.m               : RSHA
RMED .ohm.m               : RMED
~Parameter
#==================================================================
~Ascii
# ...
 1337.7672119  -999.250000 18.036199570 18.036199570 17.500000000 0.5496088266  -999.250000  -999.250000  -999.250000 51.486598969  -999.250000 177.61930847 177.62030029 1.0532000065 33.291400909 1.1016000509 1.1091392040
 1337.9195557  -999.250000 18.039499283 18.039499283 17.500000000 0.5492070317  -999.250000  -999.250000  -999.250000 51.133499146  -999.250000 177.62240601 177.62339783 1.0631999969 34.097801208 1.1031999588 1.1071102619
 1338.0720215  -999.250000 18.043600082 18.043600082 17.500000000 0.5486105680  -999.250000  -999.250000  -999.250000 51.019298553  -999.250000 177.62550354 177.62649536 1.0642000437 34.239299774 1.1016999483 1.0986306667
 1338.2243652  -999.250000 18.048799515 18.048799515 17.500000000 0.5482070446  -999.250000  -999.250000  -999.250000 51.171798706  -999.250000 177.62858582 177.62957764 1.0551999807 33.638000488 1.0966999531 1.0923781395
 1338.3768311  -999.250000 18.053899765 18.053899765 17.500000000 0.5477088094  -999.250000  -999.250000  -999.250000 51.324401855  -999.250000 177.63169861 177.63270569 1.0462000370 33.036800385 1.0916999578 1.0899124146
 1338.5291748  -999.250000 18.063499451 18.063499451 17.500000000 0.5473070145  -999.250000  -999.250000  -999.250000 51.518299103  -999.250000 177.63482666 177.63581848 1.0377000570 32.599700928 1.0867999792 1.0868859291
 1338.6816406  -999.250000 18.091899872 18.091899872 17.500000000 0.5468088388  -999.250000  -999.250000  -999.250000 51.886398315  -999.250000 177.63790894 177.63890076 1.0310000181 32.854900360 1.0827000141 1.0848163366
 1338.8339844  -999.250000 18.120399475 18.120399475 17.500000000 0.5463088155  -999.250000  -999.250000  -999.250000 52.254398346  -999.250000 177.64100647 177.64199829 1.0243999958 33.110099792 1.0786000490 1.0814102888
 1338.9864502  -999.250000 18.148799896 18.148799896 17.500000000 0.5458087921  -999.250000  -999.250000  -999.250000 52.622501373  -999.250000 177.64410400 177.64509583 1.0177999735 33.365299225 1.0744999647 1.0746257305
 1339.1387939  -999.250000 18.164899826 18.164899826 17.500000000 0.5453088284  -999.250000  -999.250000  -999.250000 51.235900879  -999.250000 177.64727783 177.64830017 1.0082000494 33.250999451 1.0701999664 1.0679535866
 1339.2912598  -999.250000 18.179800034 18.179800034 17.500000000 0.5449067354  -999.250000  -999.250000  -999.250000 49.677398682  -999.250000 177.65034485 177.65130615 0.9983000159 33.100498199 1.0657999516 1.0630747080
 1339.4436035  -999.250000 18.194700241 18.194700241 17.500000000 0.5444087982  -999.250000  -999.250000  -999.250000 48.118900299  -999.250000 177.65341187 177.65440369 0.9883999825 32.950000763 1.0614999533 1.0602045059
 1339.5959473  -999.250000 18.209400177 18.209400177 17.500000000 0.5439088345  -999.250000  -999.250000  -999.250000 47.234500885  -999.250000 177.65657043 177.65759277 0.9789000154 33.043300629 1.0573999882 1.0564422607
 1339.7484131  -999.250000 18.224100113 18.224100113 17.500000000 0.5434088111  -999.250000  -999.250000  -999.250000 46.745998383  -999.250000 177.65963745 177.66059875 0.9696999788 33.279800415 1.0534000397 1.0522130728
 1339.9007568  -999.250000 18.238800049 18.238800049 17.500000000 0.5430070162  -999.250000  -999.250000  -999.250000 46.257598877  -999.250000 177.66278076 177.66380310 0.9605000019 33.516399384 1.0493999720 1.0489294529
 1340.0532227  -999.250000 18.249599457 18.249599457 17.500000000 0.5425088406  -999.250000  -999.250000  -999.250000 46.432399750  -999.250000 177.66590881 177.66690063 0.9499999881 33.696701050 1.0448000431 1.0451450348
 1340.2055664  -999.250000 18.253400803 18.253400803 17.500000000 0.5420088172  -999.250000  -999.250000  -999.250000 47.843898773  -999.250000 177.66900635 177.66999817 0.9368000031 33.772201538 1.0389000177 1.0397230387
 1340.3580322  -999.250000 18.257200241 18.257200241 17.500000000 0.5415087938  -999.250000  -999.250000  -999.250000 49.255401611  -999.250000 177.67208862 177.67308044 0.9236999750 33.847698212 1.0331000090 1.0321581364
 1340.5103760  -999.250000 18.260700226 18.260700226 17.500000000 0.5410088301  -999.250000  -999.250000  -999.250000 50.661300659  -999.250000 177.67520142 177.67619324 0.9101999998 33.913700104 1.0271999836 1.0267820358
 1340.6628418  -999.250000 18.260099411 18.260099411 17.500000000 0.5406070352  -999.250000  -999.250000  -999.250000 51.990501404  -999.250000 177.67831421 177.67932129 0.8924999833 33.849800110 1.0197999477 1.0223731995
 1340.8151855  -999.250000 18.259599686 18.259599686 17.500000000 0.5401087999  -999.250000  -999.250000  -999.250000 53.319801331  -999.250000 177.68141174 177.68240356 0.8748999834 33.785900116 1.0125000477 1.0153281689
 1340.9676514  -999.250000 18.259000778 18.259000778 17.500000000 0.5396088362  -999.250000  -999.250000  -999.250000 54.648998260  -999.250000 177.68450928 177.68550110 0.8572000265 33.722000122 1.0051000118 1.0052227974
 1341.1199951  -999.250000 18.249300003 18.249300003 17.500000000 0.5476554632  -999.250000  -999.250000  -999.250000 54.211399078  -999.250000 177.68760681 177.68859863 0.8355000019 33.471900940 0.9934999943 0.9919833541
 1341.2724609  -999.250000 18.237300873 18.237300873 17.500000000 0.5558620095  -999.250000  -999.250000  -999.250000 53.296901703  -999.250000 177.69070435 177.69169617 0.8126000166 33.171501160 0.9807000160 0.9871959090
 1341.4248047  -999.250000 18.225200653 18.225200653 17.500000000 0.5553123355  -999.250000  -999.250000  -999.250000 52.382301331  -999.250000 177.69378662 177.69477844 0.7897999883 32.871200562 0.9678999782 0.9725534916
 1341.5771484  -999.250000 18.213300705 18.213300705 17.500000000 0.5546123385  -999.250000  -999.250000  -999.250000 51.388000488  -999.250000 177.69689941 177.69790649 0.7688000202 32.827400208 0.9541000128 0.9447038770
 1341.7296143  -999.250000 18.201700211 18.201700211 17.500000000 0.5539123416  -999.250000  -999.250000  -999.250000 50.315898895  -999.250000 177.70002747 177.70101929 0.7497000098 33.033500671 0.9391999841 0.9262352586
 1341.8819580  -999.250000 18.190000534 18.190000534 17.500000000 0.5532123446  -999.250000  -999.250000  -999.250000 49.243801117  -999.250000 177.70310974 177.70410156 0.7305999994 33.239601135 0.9243000150 0.9166961312
 1342.0344238  -999.250000 18.181200027 18.181200027 17.500000000 0.5525123477  -999.250000  -999.250000  -999.250000 48.545700073  -999.250000 177.70620728 177.70719910 0.7167000175 33.355499268 0.9143000245 0.9120607376
 1342.1867676  -999.250000 18.182100296 18.182100296 17.500000000 0.5518123507  -999.250000  -999.250000  -999.250000 49.130199432  -999.250000 177.70930481 177.71029663 0.7208999991 33.162101746 0.9210000038 0.9138179421
 1342.3392334  -999.250000 18.182899475 18.182899475 17.500000000 0.5510140657  -999.250000  -999.250000  -999.250000 49.714698792  -999.250000 177.71240234 177.71339417 0.7250999808 32.968700409 0.9276999831 0.9217614532
 1342.4915771  -999.250000 18.183799744 18.183799744 17.500000000 0.5503123403  -999.250000  -999.250000  -999.250000 50.299198151  -999.250000 177.71551514 177.71650696 0.7293000221 32.775299072 0.9344999790 0.9342089891
 1342.6440430  -999.250000 18.197599411 18.197599411 17.500000000 0.5496123433  -999.250000  -999.250000  -999.250000 51.766201019  -999.250000 177.71861267 177.71960449 0.7552000284 32.810199738 0.9441000223 0.9466889501
 1342.7963867  -999.250000 18.212200165 18.212200165 17.500000000 0.5489123464  -999.250000  -999.250000  -999.250000 53.284599304  -999.250000 177.72172546 177.72271729 0.7825000286 32.858299255 0.9538000226 0.9572948813
 1342.9488525  -999.250000 18.226699829 18.226699829 17.500000000 0.5482123494  -999.250000  -999.250000  -999.250000 54.803100586  -999.250000 177.72480774 177.72579956 0.8097000122 32.906501770 0.9635999799 0.9651222825
 1343.1011963  -999.250000 18.225200653 18.225200653 17.500000000 0.5475123525  -999.250000  -999.250000  -999.250000 56.050399780  -999.250000 177.72790527 177.72889709 0.8313000202 32.484199524 0.9689999819 0.9695423245
 1343.2536621  -999.250000 18.215700150 18.215700150 17.500000000 0.5467134714  -999.250000  -999.250000  -999.250000 57.160598755  -999.250000 177.73100281 177.73199463 0.8500999808 31.823900223 0.9721999764 0.9714163542
