# LAS format log file from PETREL
# Project units are specified as depth units
#==================================================================
~Version information
VERS.   2.0:
WRAP.   NO:
#==================================================================
~Well
STRT .m      2859.8344727 :
STOP .m      3172.2546387 :
STEP .m     0.00000000 :
NULL .        -999.250000 :
COMP.           : COMPANY
WELL.  7/1-2 S   : WELL
FLD.            : FIELD
LOC.            : LOCATION
SRVC.           : SERVICE COMPANY
DATE.  2018-09-11 14:49:04   : Log Export Date {yyyy-MM-dd HH:mm:ss}
PROV.           : PROVINCE
UWI.   7/1-2 S   : UNIQUE WELL ID
API.            : API NUMBER
#==================================================================
~Curve
DEPT .m                   : DEPTH
Lithology_geolink ._      : Lithology_geolink
DCAL .in                  : DCAL
CALI .in                  : CALI
BS .in                    : BS
ROP .m/h                  : ROP
DRHO .g/cm3               : DRHO
THOR .ppm                 : THOR
NPHI .m3/m3               : NPHI
RHOB .g/cm3               : RHOB
PEF .b/e                  : PEF
GR .gAPI                  : GR
URAN .ppm                 : URAN
DTC .us/ft                : DTC
DT .us/ft                 : DT
DTS .us/ft                : DTS
RDEP .ohm.m               : RDEP
RSHA .ohm.m               : RSHA
RMED .ohm.m               : RMED
~Parameter
#==================================================================
~Ascii
# ...
 3166.6157227 2.0000000000 8.3874998093 8.3874998093 8.5000000000 28181.417969 -0.018392960  -999.250000 0.1392214447 2.3578858376 6.7952432632 39.211750031  -999.250000  -999.250000  -999.250000  -999.250000 0.9644476771 0.9259210825 0.9093489647
 3166.7683105 2.0000000000 8.3874998093 8.3874998093 8.5000000000 27746.515625 -0.015704326  -999.250000  -999.250000 2.3297169209 7.1065979004 39.463653564  -999.250000  -999.250000  -999.250000  -999.250000 0.9257620573 0.9081285596 0.8819439411
 3166.9206543 2.0000000000 8.3725996017 8.3725996017 8.5000000000 28464.921875 -0.008711218  -999.250000  -999.250000 2.2940638065 6.4154100418 44.980045319  -999.250000  -999.250000  -999.250000  -999.250000 0.8332484365 0.8767502904 0.8482540250
 3167.0729980 2.0000000000 8.3702001572 8.3702001572 8.5000000000 29238.199219 -0.028667949  -999.250000  -999.250000 2.2641017437 5.1928606033 57.735900879  -999.250000  -999.250000  -999.250000  -999.250000 0.7084999681 0.6423761249 0.6217634678
 3167.2253418 2.0000000000 8.3900003433 8.3900003433 8.5000000000 29620.681641 -0.015521154  -999.250000  -999.250000 2.2605764866 5.9226255417 62.304000854  -999.250000  -999.250000  -999.250000  -999.250000 0.6884318590 0.6063572168 0.5907491446
 3167.3776855 2.0000000000 8.3943004608 8.3943004608 8.5000000000 30034.408203 0.0176934395  -999.250000  -999.250000 2.2856147289 7.1112875938 47.423599243  -999.250000  -999.250000  -999.250000  -999.250000 0.9773722887 1.3101404905 1.4979873896
 3167.5302734 2.0000000000 8.3836002350 8.3836002350 8.5000000000 29952.800781 -0.034116667  -999.250000  -999.250000 2.3129785061 7.6966662407 40.910301208  -999.250000  -999.250000  -999.250000  -999.250000 1.0750446320 1.5161728859 1.5355443954
 3167.6826172 2.0000000000 8.3839998245 8.3839998245 8.5000000000 30103.525391 -0.028409295  -999.250000  -999.250000 2.3340418339 7.0502390862 37.224201202  -999.250000  -999.250000  -999.250000  -999.250000 0.8149177432 0.7999501228 0.7325889468
 3167.8349609 2.0000000000 8.3791999817 8.3791999817 8.5000000000 30471.207031 -0.024606088  -999.250000  -999.250000 2.3645431995 6.5227451324 34.942798615  -999.250000  -999.250000  -999.250000  -999.250000 0.8037172556 0.7726419568 0.7112321854
 3167.9873047 2.0000000000 8.3909997940 8.3909997940 8.5000000000 31184.056641 -0.018818559  -999.250000  -999.250000 2.4021787643 6.7242503166 43.893600464  -999.250000  -999.250000  -999.250000  -999.250000 1.0050536394 1.1506862640 1.2184715271
 3168.1398926 2.0000000000 8.4055995941 8.4055995941 8.5000000000 31520.917969 -0.030281572  -999.250000  -999.250000 2.4151661396 6.6334466934 53.808700562  -999.250000  -999.250000  -999.250000  -999.250000 1.1064383984 1.2619234324 1.4348552227
 3168.2922363 2.0000000000 8.3965997696 8.3965997696 8.5000000000 31919.125000 -0.016022917  -999.250000  -999.250000 2.4052779675 6.6374931335 67.358200073  -999.250000  -999.250000  -999.250000  -999.250000 0.9360737205 0.8460677862 0.9084454775
 3168.4445801 2.0000000000 8.3893003464 8.3893003464 8.5000000000 31807.037109 -0.003420192  -999.250000  -999.250000 2.3935739994 6.0672154427 61.557800293  -999.250000  -999.250000  -999.250000  -999.250000 0.8814871907 0.7661272287 0.8042658567
 3168.5969238 2.0000000000 8.3987998962 8.3987998962 8.5000000000 31289.939453 0.0118510406  -999.250000  -999.250000 2.3827960491 5.7814145088 44.763500214  -999.250000  -999.250000  -999.250000  -999.250000 0.8732262254 0.8711624146 0.8488562703
 3168.7495117 2.0000000000 8.3837003708 8.3837003708 8.5000000000 30652.984375 0.0412528850  -999.250000  -999.250000 2.3858227730 5.5493707657 37.366798401  -999.250000  -999.250000  -999.250000  -999.250000 0.8848811984 0.7937248349 0.7675307989
 3168.9018555 2.0000000000 8.4151000977 8.4151000977 8.5000000000 29774.783203 0.0511841327  -999.250000  -999.250000 2.4091639519 5.2833261490 35.439800262  -999.250000  -999.250000  -999.250000  -999.250000  -999.250000  -999.250000  -999.250000
 3169.0541992 2.0000000000 8.4132995605 8.4132995605 8.5000000000 29907.357422 0.0229453519  -999.250000  -999.250000 2.4473490715 4.2148141861 42.123500824  -999.250000  -999.250000  -999.250000  -999.250000  -999.250000  -999.250000  -999.250000
 3169.2065430  -999.250000 8.4249000549 8.4249000549 8.5000000000 30113.531250 -0.009048718  -999.250000  -999.250000 2.4924728870 3.7575311661 71.517303467  -999.250000  -999.250000  -999.250000  -999.250000  -999.250000  -999.250000  -999.250000
 3169.3588867  -999.250000 8.4224004745 8.4224004745 8.5000000000 30477.101563 0.0014660800  -999.250000  -999.250000 2.5312526226 4.9502687454 80.384803772  -999.250000  -999.250000  -999.250000  -999.250000  -999.250000  -999.250000  -999.250000
 3169.5114746  -999.250000 8.3598003387 8.3598003387 8.5000000000 30872.216797 -0.011678846  -999.250000  -999.250000 2.5243694782 7.9419040680 73.101799011  -999.250000  -999.250000  -999.250000  -999.250000  -999.250000  -999.250000  -999.250000
 3169.6638184  -999.250000 8.3458995819 8.3458995819 8.5000000000 30801.857422 -0.021284614  -999.250000  -999.250000 2.4782567024 9.5482292175 63.425498962  -999.250000  -999.250000  -999.250000  -999.250000  -999.250000  -999.250000  -999.250000
 3169.8161621  -999.250000 8.2989997864 8.2989997864 8.5000000000 30719.798828 -0.006923077  -999.250000  -999.250000 2.4421362877 8.6080131531 52.269298553  -999.250000  -999.250000  -999.250000  -999.250000  -999.250000  -999.250000  -999.250000
 3169.9685059  -999.250000 8.2930002213 8.2930002213 8.5000000000 27497.646484 -0.013478881  -999.250000  -999.250000 2.4300570488 9.4004507065 46.639099121  -999.250000  -999.250000  -999.250000  -999.250000  -999.250000  -999.250000  -999.250000
 3170.1210938  -999.250000 8.2910995483 8.2910995483 8.5000000000 23520.199219 -0.032569390  -999.250000  -999.250000 2.4301753044 10.623840332  -999.250000  -999.250000  -999.250000  -999.250000  -999.250000  -999.250000  -999.250000  -999.250000
 3170.2734375  -999.250000 8.2840003967 8.2840003967 8.5000000000 23285.962891 -0.028207052  -999.250000  -999.250000 2.4353575706 10.171828270  -999.250000  -999.250000  -999.250000  -999.250000  -999.250000  -999.250000  -999.250000  -999.250000
 3170.4257813  -999.250000 8.2341003418 8.2341003418 8.5000000000 23214.058594 -0.025604166  -999.250000  -999.250000 2.4426398277 10.119981766  -999.250000  -999.250000  -999.250000  -999.250000  -999.250000  -999.250000  -999.250000  -999.250000
 3170.5781250  -999.250000 8.2080001831 8.2080001831 8.5000000000 24950.740234 -0.028092001  -999.250000  -999.250000 2.4415698051 10.158475876  -999.250000  -999.250000  -999.250000  -999.250000  -999.250000  -999.250000  -999.250000  -999.250000
 3170.7307129  -999.250000 8.1941995621 8.1941995621 8.5000000000 25551.292969 -0.053259615  -999.250000  -999.250000 2.4071385860 10.238371849  -999.250000  -999.250000  -999.250000  -999.250000  -999.250000  -999.250000  -999.250000  -999.250000
 3170.8830566  -999.250000 8.2166996002 8.2166996002 8.5000000000 27006.773438 -0.029538142  -999.250000  -999.250000 2.3534059525 10.330752373  -999.250000  -999.250000  -999.250000  -999.250000  -999.250000  -999.250000  -999.250000  -999.250000
 3171.0354004  -999.250000 8.2320995331 8.2320995331 8.5000000000 27548.652344 -0.039184455  -999.250000  -999.250000 2.3080301285 11.008313179  -999.250000  -999.250000  -999.250000  -999.250000  -999.250000  -999.250000  -999.250000  -999.250000
 3171.1877441  -999.250000 8.2265996933 8.2265996933 8.5000000000 29489.687500 -0.041596156  -999.250000  -999.250000 2.2855799198 11.637191772  -999.250000  -999.250000  -999.250000  -999.250000  -999.250000  -999.250000  -999.250000  -999.250000
 3171.3400879  -999.250000 8.2186002731 8.2186002731 8.5000000000 30269.923828 -0.041899040  -999.250000  -999.250000 2.2753214836 12.288512230  -999.250000  -999.250000  -999.250000  -999.250000  -999.250000  -999.250000  -999.250000  -999.250000
 3171.4926758  -999.250000 8.2172002792 8.2172002792 8.5000000000 30275.486328 -0.042099681  -999.250000  -999.250000 2.2833855152 13.148921967  -999.250000  -999.250000  -999.250000  -999.250000  -999.250000  -999.250000  -999.250000  -999.250000
