# LAS format log file from PETREL
# Project units are specified as depth units
#==================================================================
~Version information
VERS.   2.0:
WRAP.   NO:
#==================================================================
~Well
STRT .m      334.06079102 :
STOP .m      2807.3603516 :
STEP .m     0.00000000 :
NULL .        -999.250000 :
COMP.           : COMPANY
WELL.  7/1-1   : WELL
FLD.            : FIELD
LOC.            : LOCATION
SRVC.           : SERVICE COMPANY
DATE.  2018-09-11 14:49:04   : Log Export Date {yyyy-MM-dd HH:mm:ss}
PROV.           : PROVINCE
UWI.   7/1-1   : UNIQUE WELL ID
API.            : API NUMBER
#==================================================================
~Curve
DEPT .m                   : DEPTH
Lithology_geolink ._      : Lithology_geolink
DCAL .in                  : DCAL
CALI .in                  : CALI
BS .in                    : BS
ROP .m/h                  : ROP
DRHO .g/cm3               : DRHO
NPHI .m3/m3               : NPHI
RHOB .g/cm3               : RHOB
GR .gAPI                  : GR
DTC .us/ft                : DTC
DT .us/ft                 : DT
DTE .us/ft                : DTE
RDEP .ohm.m               : RDEP
SP .mV                    : SP
RSHA .ohm.m               : RSHA
RMED .ohm.m               : RMED
~Parameter
#==================================================================
~Ascii
# ...
 1828.3427734  -999.250000 13.911399841 13.911399841 12.250000954 0.4016120136  -999.250000  -999.250000  -999.250000 61.418052673 151.19113159 151.02044678 151.72599792 0.6674000025 27.624284744 0.6646953225 0.6654431820
 1828.4951172  -999.250000 13.971500397 13.971500397 12.250000954 0.4010148942  -999.250000  -999.250000  -999.250000 60.979652405 151.54103088 151.56109619 151.48330688 0.6887999773 27.520383835 0.6705952883 0.6707901359
 1828.6475830  -999.250000 14.005799294 14.005799294 12.250000954 0.4005120099  -999.250000  -999.250000  -999.250000 61.619785309 150.06408691 150.48605347 150.01620483 0.7034999728 27.410287857 0.6784936786 0.6784957647
 1828.7999268  -999.250000 14.039299965 14.039299965 12.250000954 0.4000124037  -999.250000  -999.250000  -999.250000 62.295856476 148.52622986 148.56285095 147.87730408 0.7179999948 27.299987793 0.6863936782 0.6888727546
 1828.9523926  -999.250000 14.072799683 14.072799683 12.250000954 0.3995120525  -999.250000  -999.250000  -999.250000 62.971958160 146.98843384 146.94155884 146.50180054 0.7324000001 27.189588547 0.6943936348 0.6956552267
 1829.1047363  -999.250000 14.082099915 14.082099915 12.250000954 0.3990119994  -999.250000  -999.250000  -999.250000 63.172840118 146.19743347 142.72514343 140.94580078 0.7473000288 27.261442184 0.7020937800 0.7049048543
 1829.2570801  -999.250000 14.080400467 14.080400467 12.250000954 0.3984149396  -999.250000  -999.250000  -999.250000 63.157424927 145.74671936 140.44392395 140.20719910 0.7623000145 27.415952682 0.7095879912 0.7138895392
 1829.4095459  -999.250000 14.078700066 14.078700066 12.250000954 0.3979119956  -999.250000  -999.250000  -999.250000 63.141910553 145.29556274 142.93215942 144.21600342 0.7773000002 27.570775986 0.7171939015 0.7194541097
 1829.5618896  -999.250000 14.067601204 14.067601204 12.250000954 0.3974123895  -999.250000  -999.250000  -999.250000 62.251426697 146.26574707 146.20622253 147.14500427 0.7889000177 27.726949692 0.7225913405 0.7232735157
 1829.7143555  -999.250000 14.042900085 14.042900085 12.250000954 0.3969120085  -999.250000  -999.250000  -999.250000 60.082340240 149.31146240 148.80758667 149.59089661 0.7957000136 27.885871887 0.7248981595 0.7244678736
 1829.8666992  -999.250000 14.018099785 14.018099785 12.250000954 0.4132830501  -999.250000  -999.250000  -999.250000 57.914676666 152.35571289 153.12736511 154.79550171 0.8025000095 28.044546127 0.7271962762 0.7249750495
 1830.0191650  -999.250000 13.997400284 13.997400284 12.250000954 0.4132120013  -999.250000  -999.250000  -999.250000 56.037101746 154.92553711 155.07310486 155.20390320 0.8093000054 28.174894333 0.7302975059 0.7302920818
 1830.1715088  -999.250000 14.005100250 14.005100250 12.250000954 0.4127123952  -999.250000  -999.250000  -999.250000 56.198471069 154.16770935 154.71542358 154.48500061 0.8162999749 28.107055664 0.7393927574 0.7348718047
 1830.3239746  -999.250000 14.012799263 14.012799263 12.250000954 0.4122120440  -999.250000  -999.250000  -999.250000 56.361469269 153.40710449 153.73245239 153.37789917 0.8233000040 28.038955688 0.7484927177 0.7487320304
 1830.4763184  -999.250000 14.020500183 14.020500183 12.250000954 0.4117124081  -999.250000  -999.250000  -999.250000 56.524471283 152.64660645 152.68965149 152.36500549 0.8302999735 27.970954895 0.7575927377 0.7580577135
 1830.6287842  -999.250000 14.115500450 14.115500450 12.250000954 0.4111144543  -999.250000  -999.250000  -999.250000 56.503120422 152.63061523 152.19233704 152.11099243 0.8263999820 27.756071091 0.7549021244 0.7596678734
 1830.7811279  -999.250000 14.226400375 14.226400375 12.250000954 0.4106124043  -999.250000  -999.250000  -999.250000 56.447845459 152.75160217 152.49938965 152.68260193 0.8203999996 27.514095306 0.7500039339 0.7571888566
 1830.9335938  -999.250000 14.337401390 14.337401390 12.250000954 0.4101120234  -999.250000  -999.250000  -999.250000 56.392444611 152.87271118 152.85859680 152.94129944 0.8144000173 27.272193909 0.7451039553 0.7475811243
 1831.0859375  -999.250000 14.403499603 14.403499603 12.250000954 0.4096123874  -999.250000  -999.250000  -999.250000 56.559265137 153.01719666 152.85176086 152.80958557 0.8108999729 27.243122101 0.7407035232 0.7360665798
 1831.2382813  -999.250000 14.435099602 14.435099602 12.250000954 0.4090149105  -999.250000  -999.250000  -999.250000 56.897560120 153.17953491 152.96118164 153.03269958 0.8094000220 27.378282547 0.7367063761 0.7294483781
 1831.3907471  -999.250000 14.466599464 14.466599464 12.250000954 0.4085119963  -999.250000  -999.250000  -999.250000 57.236427307 153.34216309 153.30398560 153.43179321 0.8077999949 27.513891220 0.7326032519 0.7284072042
 1831.5430908  -999.250000 14.477100372 14.477100372 12.250000954 0.4080123901  -999.250000  -999.250000  -999.250000 57.600917816 153.29087830 153.47752380 153.49909973 0.8101000190 27.655973434 0.7311024070 0.7304987907
 1831.6955566  -999.250000 14.434500694 14.434500694 12.250000954 0.4075120389  -999.250000  -999.250000  -999.250000 58.032051086 152.69885254 153.02870178 152.80708313 0.8220000267 27.815172195 0.7358961105 0.7365580201
 1831.8479004  -999.250000 14.391900063 14.391900063 12.250000954 0.4069148898  -999.250000  -999.250000  -999.250000 58.462509155 152.10684204 152.08052063 151.73779297 0.8339999914 27.974046707 0.7407921553 0.7417826056
 1832.0003662  -999.250000 14.349500656 14.349500656 12.250000954 0.4064120352  -999.250000  -999.250000  -999.250000 58.889556885 151.51747131 151.51559448 151.41090393 0.8458999991 28.132671356 0.7455961108 0.7457478642
 1832.1527100  -999.250000 14.385499954 14.385499954 12.250000954 0.4059123993  -999.250000  -999.250000  -999.250000 57.739624023 152.24893188 151.41632080 151.41888428 0.8457000256 28.046468735 0.7484976649 0.7496468425
 1832.3051758  -999.250000 14.421500206 14.421500206 12.250000954 0.4054120183  -999.250000  -999.250000  -999.250000 56.588523865 152.98141479 151.42433167 151.42689514 0.8453999758 27.960067749 0.7512977123 0.7536157370
 1832.4575195  -999.250000 14.457500458 14.457500458 12.250000954 0.4049124420  -999.250000  -999.250000  -999.250000 55.437324524 153.71391296 153.18621826 154.01609802 0.8452000022 27.873668671 0.7541976571 0.7550357580
 1832.6099854  -999.250000 14.407899857 14.407899857 12.250000954 0.4043144286  -999.250000  -999.250000  -999.250000 54.924213409 153.92193604 153.61959839 153.43280029 0.8312000036 27.920562744 0.7531008720 0.7550321221
 1832.7623291  -999.250000 14.325400352 14.325400352 12.250000954 0.4038124084  -999.250000  -999.250000  -999.250000 54.657512665 153.92741394 157.69032288 159.69859314 0.8118000031 28.018920898 0.7504021525 0.7524868250
 1832.9147949  -999.250000 14.242799759 14.242799759 12.250000954 0.4033119977  -999.250000  -999.250000  -999.250000 54.391113281 153.93269348 156.16517639 154.50459290 0.7924000025 28.117321014 0.7477021217 0.7485108376
 1833.0671387  -999.250000 14.122400284 14.122400284 12.250000954 0.4028124213  -999.250000  -999.250000  -999.250000 54.418476105 153.72177124 152.91351318 152.16389465 0.7768999934 28.077531815 0.7435033321 0.7444810271
 1833.2196045  -999.250000 13.954099655 13.954099655 12.250000954 0.4023120105  -999.250000  -999.250000  -999.250000 54.818481445 153.23648071 151.74920654 151.55432129 0.7663000226 27.862371445 0.7375048399 0.7374855876
 1833.3719482  -999.250000 13.785799980 13.785799980 12.250000954 0.4017144442  -999.250000  -999.250000  -999.250000 55.218879700 152.75108337 151.88575745 152.04191589 0.7556999922 27.647171021 0.7315048575 0.7298378944
 1833.5242920  -999.250000 13.645900726 13.645900726 12.250000954 0.4012123942  -999.250000  -999.250000  -999.250000 55.876445770 152.39358521 152.43234253 152.61651611 0.7465999722 27.474777222 0.7265079618 0.7265487313
 1833.6767578  -999.250000 13.655699730 13.655699730 12.250000954 0.4006144404  -999.250000  -999.250000  -999.250000 57.887485504 152.70535278 153.06588745 153.27760315 0.7454000115 27.526458740 0.7262002230 0.7242646813
 1833.8291016  -999.250000 13.665399551 13.665399551 12.250000954 0.4002099633  -999.250000  -999.250000  -999.250000 59.897579193 153.01770020 153.28350830 153.28630066 0.7443000078 27.578516006 0.7259004712 0.7234679461
