# LAS format log file from PETREL
# Project units are specified as depth units
#==================================================================
~Version information
VERS.   2.0:
WRAP.   NO:
#==================================================================
~Well
STRT .m      2859.8344727 :
STOP .m      3172.2546387 :
STEP .m     0.00000000 :
NULL .        -999.250000 :
COMP.           : COMPANY
WELL.  7/1-2 S   : WELL
FLD.            : FIELD
LOC.            : LOCATION
SRVC.           : SERVICE COMPANY
DATE.  2018-09-11 14:49:04   : Log Export Date {yyyy-MM-dd HH:mm:ss}
PROV.           : PROVINCE
UWI.   7/1-2 S   : UNIQUE WELL ID
API.            : API NUMBER
#==================================================================
~Curve
DEPT .m                   : DEPTH
Lithology_geolink ._      : Lithology_geolink
DCAL .in                  : DCAL
CALI .in                  : CALI
BS .in                    : BS
ROP .m/h                  : ROP
DRHO .g/cm3               : DRHO
THOR .ppm                 : THOR
NPHI .m3/m3               : NPHI
RHOB .g/cm3               : RHOB
PEF .b/e                  : PEF
GR .gAPI                  : GR
URAN .ppm                 : URAN
DTC .us/ft                : DTC
DT .us/ft                 : DT
DTS .us/ft                : DTS
RDEP .ohm.m               : RDEP
RSHA .ohm.m               : RSHA
RMED .ohm.m               : RMED
~Parameter
#==================================================================
~Ascii
# ...
 2960.4187012 1.0000000000 8.5095996857 8.5095996857 8.5000000000 43526.574219 -0.023700001 1.9273999929 0.2775000036 2.3236958981 5.3842000961 34.585399628 1.2518999577 83.086601257 83.086601257 143.39520264 1.0169469118 0.8510518074 0.9236939549
 2960.5712891 1.0000000000 8.5170001984 8.5170001984 8.5000000000 40399.761719 -0.049300000 1.9035999775 0.2373999953 2.3316383362 5.4128999710 32.782299042 1.1495000124 83.010498047 83.010498047 146.35969543 1.1538811922 0.9545347691 1.0549901724
 2960.7236328 1.0000000000 8.4704999924 8.4704999924 8.5000000000 36168.761719 -0.022100000 1.7993999720 0.2127999961 2.2400155067 5.2017002106 29.986799240 1.1341999769 84.075302124 84.075302124 149.99620056 1.1346312761 0.9186578989 1.0443174839
 2960.8759766 1.0000000000 8.4607000351 8.4607000351 8.5000000000 36681.300781 0.0027000001 1.7042000294 0.2360000014 2.1429834366 4.6385002136 27.152399063 1.1663999557 86.251998901 86.251998901 152.11810303 1.0536299944 0.8351339698 0.9759097695
 2961.0283203 1.0000000000 8.4799003601 8.4799003601 8.5000000000 36863.886719 -0.020800000 1.6273000240 0.2597000003 2.0944576263 4.5714998245 26.504199982 1.1852999926 89.023094177 89.023094177 154.85989380 0.9861081839 0.7689061165 0.9182923436
 2961.1806641 1.0000000000 8.4790000916 8.4790000916 8.5000000000 38189.074219 -0.052499998 1.6268999577 0.2922999859 2.0938935280 4.4053997993 28.160499573 1.2022999525 90.996902466 90.996902466 158.21499634 0.9186162949 0.7085933089 0.8583920002
 2961.3332520 1.0000000000 8.4637002945 8.4637002945 8.5000000000 38700.519531 -0.000100000 1.7424000502 0.3075000048 2.1004846096 4.5278000832 28.269899368 1.2151000500 91.770202637 91.770202637 158.50598145 0.8423221111 0.6477972865 0.7883121967
 2961.4855957 1.0000000000 8.4547996521 8.4547996521 8.5000000000 39999.476563 -0.003800000 1.8682999611 0.2851000130 2.0905098915 5.3262000084 29.497600555 1.1958999634 91.462501526 91.462501526 155.53030396 0.7746084929 0.5987784863 0.7250014544
 2961.6379395 1.0000000000 8.4486999512 8.4486999512 8.5000000000 40540.984375 -0.030500000 2.0309000015 0.2754000127 2.0828664303 5.7610998154 27.815299988 1.1130000353 90.266197205 90.266197205 152.93229675 0.7344642282 0.5750379562 0.6870607138
 2961.7902832 1.0000000000 8.4757003784 8.4757003784 8.5000000000 41776.632813 -0.013000000 2.0487000942 0.2772000134 2.0959923267 5.5570998192 27.110599518 1.0891000032 88.263793945 88.263793945 155.89900208 0.7425737977 0.5931417942 0.6947750449
 2961.9428711 1.0000000000 8.4565000534 8.4565000534 8.5000000000 42331.636719 -0.004000000 1.9562999010 0.2953000069 2.1029846668 5.3038997650 25.877500534 1.1003999710 85.600898743 85.600898743 154.83920288 0.8235700130 0.6759671569 0.7720759511
 2962.0952148 1.0000000000 8.4447002411 8.4447002411 8.5000000000 42297.839844 -0.024200000 1.7495000362 0.2822999954 2.1025240421 5.2364997864 26.295400620 1.1303000450 82.537094116 82.537094116 152.61891174 1.0122972727 0.8584073782 0.9537086487
 2962.2475586 1.0000000000 8.4631004333 8.4631004333 8.5000000000 42281.488281 -0.022000000 1.5551999807 0.2524999976 2.1098585129 5.8516998291 25.886299133 1.1577999592 79.791496277 79.791496277 151.73010254 1.3614400625 1.1964578629 1.2936547995
 2962.3999023 1.0000000000 8.4602003098 8.4602003098 8.5000000000 32609.845703 0.0043000001 1.4609999657 0.2243999988 2.1283042431 5.7399001122 24.143600464 1.1449999809 77.753501892 77.753501892 152.72489929 1.8911013603 1.7261013985 1.8196133375
 2962.5524902 1.0000000000 8.4364995956 8.4364995956 8.5000000000 27595.494141 -0.104999997 1.5056999922 0.2195000052 2.1059589386 5.8643999100 22.191400528 1.0623999834 76.602897644 76.602897644 148.99090576 2.3196148872 2.1851658821 2.2655868530
 2962.7048340 1.0000000000 8.4343004227 8.4343004227 8.5000000000 21519.853516 -0.051700000 1.6136000156 0.2069000006 2.0665230751 6.3183999062 21.112100601 0.9666000605 76.569503784 76.569503784 141.45359802 2.0868747234 1.9929097891 2.0678186417
 2962.8571777 1.0000000000 8.4567003250 8.4567003250 8.5000000000 22653.126953 -0.060500000 1.8006999493 0.2264000028 2.0374796391 6.9425997734 23.237199783 0.8514000177 77.646697998 77.646697998 137.40719604 1.4507205486 1.4011493921 1.4553824663
 2963.0095215 1.0000000000 8.4593000412 8.4593000412 8.5000000000 25310.189453 -0.063100003 1.8944000006 0.2536999881 2.0724864006 7.0490999222 25.834400177 0.7933999896 79.647499084 79.647499084 137.46400452 0.9840474129 0.9744833112 0.9964351058
 2963.1621094 1.0000000000 8.4463996887 8.4463996887 8.5000000000 26530.365234 -0.048000000 1.9028999805 0.2493000031 2.1306769848 6.9256000519 26.153099060 0.8119999766 80.991203308 80.991203308 134.68429565 0.7916072011 0.8028739691 0.8030087948
 2963.3144531 1.0000000000 8.4593000412 8.4593000412 8.5000000000 29618.550781 -0.032499999 1.8341000080 0.2372000068 2.1648693085 5.2368001938 27.736900330 0.8442000151 81.959197998 81.959197998 129.71919250 0.7985883355 0.8309544325 0.8092894554
 2963.4667969 1.0000000000 8.4755001068 8.4755001068 8.5000000000 27065.837891 0.0017000000 1.7375999689 0.2254000008 2.2135348320 4.5075998306 25.329200745 0.8788999915 84.090202332 84.090202332 126.39630127 1.0155518055 1.0969730616 1.0282485485
 2963.6191406 1.0000000000 8.5041999817 8.5041999817 8.5000000000 20075.066406 -0.024499999 1.5743000507 0.2229000032 2.3057293892 3.6440999508 24.389299393 0.9146999717 89.205703735 89.205703735 129.91360474 1.5290762186 1.7355756760 1.5417762995
 2963.7714844 1.0000000000 8.5398998260 8.5398998260 8.5000000000 19830.703125 -0.018100001 1.4397000074 0.1719000041 2.4035313129 3.2720999718 21.253000259 0.9460999966 96.309097290 96.309097290 132.74020386 2.1427326202 2.5124094486 2.1353969574
 2963.9240723 1.0000000000 8.5691995621 8.5691995621 8.5000000000 19103.972656 -0.014500000 1.3169000149 0.1225999966 2.4121179581 3.5824999809 20.033300400 1.0034999847 99.314300537 99.314300537 137.01469421 2.2189807892 2.4284386635 2.1862215996
 2964.0764160 1.0000000000 8.5687999725 8.5687999725 8.5000000000 20477.550781 -0.024200000 1.2502000332 0.1190000027 2.3213827610 5.1567001343 19.582599640 1.0649000406 98.871398926 98.871398926 141.13000488 1.6496140957 1.6203967333 1.6159155369
 2964.2287598 1.0000000000 8.5887002945 8.5887002945 8.5000000000 21539.056641 0.0270000007 1.2328000069 0.1580999941 2.2055175304 6.7197999954 20.694200516 1.1276999712 96.623100281 96.623100281 145.60130310 1.1327280998 1.0454208851 1.1062166691
 2964.3811035 1.0000000000 8.5909996033 8.5909996033 8.5000000000 24628.998047 -0.009300000 1.1917999983 0.2685000002 2.1134841442 5.8281002045 24.291999817 1.2328000069 96.445899963 96.445899963 150.16909790 0.9496849775 0.8360691071 0.9248795509
 2964.5336914 1.0000000000 8.6210002899 8.6210002899 8.5000000000 27174.357422 0.0135000004 1.1464999914 0.3052000105 2.0605359077 5.6375999451 22.761800766 1.2915999889 95.175498962 95.175498962 153.30250549 1.0020151138 0.8517737389 0.9729219675
 2964.6860352 1.0000000000 8.6052999496 8.6052999496 8.5000000000 30591.509766 0.0051000002 1.0971000195 0.2966000140 2.0407974720 6.5040001869 23.605899811 1.3178999424 91.391700745 91.391700745 157.01910400 1.2225462198 1.0125420094 1.1829630136
 2964.8383789 1.0000000000 8.6136999130 8.6136999130 8.5000000000 33590.703125 -0.007300000 1.0492999554 0.2730999887 2.0557582378 6.8031001091 21.935800552 1.2983000278 87.440002441 87.440002441 156.25190735 1.3646724224 1.1184304953 1.3164862394
 2964.9907227 1.0000000000 8.5860004425 8.5860004425 8.5000000000 35263.398438 -0.007600000 1.0644999743 0.2416999936 2.1008965969 6.1529002190 20.271299362 1.2745000124 84.526496887 84.526496887 153.13519287 1.2238527536 0.9950965047 1.1739581823
 2965.1433105 1.0000000000 8.5719995499 8.5719995499 8.5000000000 36827.242188 -0.043299999 1.0973999500 0.2382999957 2.1568717957 6.7348999977 22.906200409 1.2240999937 82.720596313 82.720596313 148.44030762 0.9424509406 0.7600765824 0.8988408446
 2965.2956543 1.0000000000 8.5906000137 8.5906000137 8.5000000000 38565.992188 -0.017300000 1.2998000383 0.2506999969 2.2047512531 6.9179000854 24.350500107 1.1518000364 82.130500793 82.130500793 145.93110657 0.7057791352 0.5657113791 0.6697669625
