# LAS format log file from PETREL
# Project units are specified as depth units
#==================================================================
~Version information
VERS.   2.0:
WRAP.   NO:
#==================================================================
~Well
STRT .m      334.06079102 :
STOP .m      2807.3603516 :
STEP .m     0.00000000 :
NULL .        -999.250000 :
COMP.           : COMPANY
WELL.  7/1-1   : WELL
FLD.            : FIELD
LOC.            : LOCATION
SRVC.           : SERVICE COMPANY
DATE.  2018-09-11 14:49:04   : Log Export Date {yyyy-MM-dd HH:mm:ss}
PROV.           : PROVINCE
UWI.   7/1-1   : UNIQUE WELL ID
API.            : API NUMBER
#==================================================================
~Curve
DEPT .m                   : DEPTH
Lithology_geolink ._      : Lithology_geolink
DCAL .in                  : DCAL
CALI .in                  : CALI
BS .in                    : BS
ROP .m/h                  : ROP
DRHO .g/cm3               : DRHO
NPHI .m3/m3               : NPHI
RHOB .g/cm3               : RHOB
GR .gAPI                  : GR
DTC .us/ft                : DTC
DT .us/ft                 : DT
DTE .us/ft                : DTE
RDEP .ohm.m               : RDEP
SP .mV                    : SP
RSHA .ohm.m               : RSHA
RMED .ohm.m               : RMED
~Parameter
#==================================================================
~Ascii
# ...
 689.30517578  -999.250000 18.065599442 18.065599442 17.500000000 0.4281046093  -999.250000  -999.250000  -999.250000 66.919731140 162.13043213 163.24380493 163.08659363 1.0103000402 29.697977066 1.0707803965 1.0659837723
 689.45758057  -999.250000 18.040000916 18.040000916 17.500000000 0.4277037084  -999.250000  -999.250000  -999.250000 66.091331482 161.30523682 161.66606140 160.99638367 1.0812000036 30.001678467 1.1196804047 1.1195992231
 689.60998535  -999.250000 18.046499252 18.046499252 17.500000000 0.4272046089  -999.250000  -999.250000  -999.250000 65.397377014 163.66065979 162.75146484 163.57780457 1.1457999945 30.099960327 1.1492881775 1.1766054630
 689.76239014  -999.250000 18.065399170 18.065399170 17.500000000 0.4094648957  -999.250000  -999.250000  -999.250000 64.755355835 167.24314880 167.48339844 169.32119751 1.2079000473 30.118892670 1.1714910269 1.2035962343
 689.91479492  -999.250000 18.084299088 18.084299088 17.500000000 0.4088046253  -999.250000  -999.250000  -999.250000 64.113258362 170.82618713 171.56076050 172.61459351 1.2700999975 30.137792587 1.1937910318 1.2062079906
 690.06713867  -999.250000 18.093599319 18.093599319 17.500000000 0.4083048105  -999.250000  -999.250000  -999.250000 64.151069641 172.49676514 173.21891785 173.50379944 1.3025000095 30.519792557 1.2054905891 1.2064155340
 690.21954346  -999.250000 18.090700150 18.090700150 17.500000000 0.4523722827  -999.250000  -999.250000  -999.250000 65.050674438 171.74421692 173.26329041 173.14990234 1.2972999811 31.362424850 1.2039012909 1.2063242197
 690.37194824  -999.250000 18.087799072 18.087799072 17.500000000 0.4940166771  -999.250000  -999.250000  -999.250000 65.950973511 170.98982239 171.27041626 170.38438416 1.2920999527 32.205425262 1.2024011612 1.2039252520
 690.52435303  -999.250000 18.081499100 18.081499100 17.500000000 0.4939045906  -999.250000  -999.250000  -999.250000 66.342338562 170.45832825 170.34701538 170.32940674 1.2831000090 32.876232147 1.2003008127 1.2001135349
 690.67675781  -999.250000 18.057899475 18.057899475 17.500000000 0.4934046268  -999.250000  -999.250000  -999.250000 64.061317444 171.09776306 170.97041321 171.27259827 1.2549999952 32.641593933 1.1957018375 1.1939067841
 690.82916260  -999.250000 18.034200668 18.034200668 17.500000000 0.4929046333  -999.250000  -999.250000  -999.250000 61.779113770 171.73774719 172.01066589 172.35859680 1.2267999649 32.406597137 1.1911017895 1.1899689436
 690.98156738  -999.250000 18.010499954 18.010499954 17.500000000 0.4924046099  -999.250000  -999.250000  -999.250000 59.497016907 172.37763977 172.44015503 172.47860718 1.1986000538 32.171596527 1.1865017414 1.1865495443
 691.13397217  -999.250000 18.014099121 18.014099121 17.500000000 0.4920037091  -999.250000  -999.250000  -999.250000 58.070972443 173.78533936 172.47547913 172.47401428 1.1723999977 32.712482452 1.1803025007 1.1798630953
 691.28637695  -999.250000 18.021400452 18.021400452 17.500000000 0.4915046096  -999.250000  -999.250000  -999.250000 56.762924194 175.29869080 173.88366699 174.54820251 1.1463999748 33.360240936 1.1739026308 1.1728144884
 691.43878174  -999.250000 18.028799057 18.028799057 17.500000000 0.4994263351  -999.250000  -999.250000  -999.250000 55.454822540 176.81208801 176.47131348 177.37789917 1.1204999685 34.008140564 1.1676025391 1.1675057411
 691.59118652  -999.250000 18.045600891 18.045600891 17.500000000 0.7490797043  -999.250000  -999.250000  -999.250000 54.504383087 178.12257385 177.71546936 177.87460327 1.0900000334 34.118255615 1.1579039097 1.1539708376
 691.74359131  -999.250000 18.068799973 18.068799973 17.500000000 0.7509045601  -999.250000  -999.250000  -999.250000 53.793987274 179.29692078 178.61445618 178.96279907 1.0563000441 33.867397308 1.1460047960 1.1387815475
 691.89599609  -999.250000 18.091999054 18.091999054 17.500000000 0.7504045963  -999.250000  -999.250000  -999.250000 53.083686829 180.47122192 180.03872681 180.54501343 1.0226999521 33.616298676 1.1341047287 1.1343680620
 692.04833984  -999.250000 18.103399277 18.103399277 17.500000000 0.7500038743  -999.250000  -999.250000  -999.250000 52.725185394 181.70370483 181.89547729 182.53210449 0.9936000109 33.339420319 1.1213102341 1.1174776554
 692.20074463  -999.250000 18.089799881 18.089799881 17.500000000 0.7495048046  -999.250000  -999.250000  -999.250000 53.122081757 183.06262207 183.53298950 184.00482178 0.9743999839 33.006568909 1.1065118313 1.1050825119
 692.35314941  -999.250000 18.076099396 18.076099396 17.500000000 0.7490048409  -999.250000  -999.250000  -999.250000 53.519584656 184.42152405 184.73988342 185.08639526 0.9550999999 32.673568726 1.0918117762 1.0929416418
 692.50555420  -999.250000 18.063499451 18.063499451 17.500000000 0.7485046387  -999.250000  -999.250000  -999.250000 53.885955811 185.77397156 185.76390076 186.08328247 0.9362000227 32.315143585 1.0771058798 1.0763746500
 692.65795898  -999.250000 18.079399109 18.079399109 17.500000000 0.7480046153  -999.250000  -999.250000  -999.250000 53.432083130 186.94093323 186.89041138 187.27090454 0.9248999953 31.292409897 1.0647050142 1.0580232143
 692.81036377  -999.250000 18.095300674 18.095300674 17.500000000 0.7476037145  -999.250000  -999.250000  -999.250000 52.977783203 188.10783386 188.07781982 188.45820618 0.9136999846 30.269409180 1.0524048805 1.0480582714
 692.96276855  -999.250000 18.111299515 18.111299515 17.500000000 0.7471046448  -999.250000  -999.250000  -999.250000 52.523483276 189.27474976 189.26504517 189.64540100 0.9024000168 29.246410370 1.0400049686 1.0390640497
 693.11517334  -999.250000 18.129199982 18.129199982 17.500000000 0.7466045618  -999.250000  -999.250000  -999.250000 52.438098907 189.07969666 190.11235046 190.33248901 0.8995000124 28.755996704 1.0302039385 1.0277484655
 693.26757813  -999.250000 18.147699356 18.147699356 17.500000000 0.7461045980  -999.250000  -999.250000  -999.250000 52.472198486 188.44436646 189.56907654 189.20919800 0.8992000222 28.437627792 1.0212035179 1.0161844492
 693.41998291  -999.250000 18.166200638 18.166200638 17.500000000 0.7456045747  -999.250000  -999.250000  -999.250000 52.506198883 187.80885315 188.24543762 187.79110718 0.8988999724 28.119428635 1.0122035742 1.0093737841
 693.57238770  -999.250000 18.173900604 18.173900604 17.500000000 0.7452036738  -999.250000  -999.250000  -999.250000 52.994201660 187.43125916 186.76277161 186.27799988 0.9021999836 27.939373016 1.0054026842 1.0056573153
 693.72479248  -999.250000 18.169599533 18.169599533 17.500000000 0.7447046041  -999.250000  -999.250000  -999.250000 53.984001160 187.33872986 185.77351379 185.53599548 0.9095000029 27.912111282 1.0010018349 0.9997727871
 693.87719727  -999.250000 18.165300369 18.165300369 17.500000000 0.7442045808  -999.250000  -999.250000  -999.250000 54.973701477 187.24633789 186.46266174 186.89869690 0.9168999791 27.884811401 0.9966017604 0.9944398999
 694.02960205  -999.250000 18.162900925 18.162900925 17.500000000 0.7437046170  -999.250000  -999.250000  -999.250000 55.586898804 187.28507996 187.27801514 187.45649719 0.9247999787 27.916986465 0.9941009879 0.9929999709
 694.18194580  -999.250000 18.168600082 18.168600082 17.500000000 0.7433038950  -999.250000  -999.250000  -999.250000 54.638301849 187.86763000 187.99508667 188.24899292 0.9350000024 28.195577621 0.9998953342 0.9938155413
 694.33435059  -999.250000 18.174299240 18.174299240 17.500000000 0.7428048253  -999.250000  -999.250000  -999.250000 53.689701080 188.45062256 188.78738403 189.04119873 0.9451000094 28.474376678 1.0056953430 1.0041903257
 694.48675537  -999.250000 18.180000305 18.180000305 17.500000000 0.7423045635  -999.250000  -999.250000  -999.250000 52.741001129 189.03410339 189.07946777 189.09750366 0.9552999735 28.753177643 1.0114953518 1.0114145279
 694.63916016  -999.250000 18.198299408 18.198299408 17.500000000 0.7418045998  -999.250000  -999.250000  -999.250000 53.296199799 188.60809326 188.90150452 188.80911255 0.9641000032 28.964416504 1.0169978142 1.0211631060
 694.79156494  -999.250000 18.217899323 18.217899323 17.500000000 0.7413046360  -999.250000  -999.250000  -999.250000 53.993999481 188.08639526 188.21743774 187.93850708 0.9728999734 29.169017792 1.0225977898 1.0271708965
