# LAS format log file from PETREL
# Project units are specified as depth units
#==================================================================
~Version information
VERS.   2.0:
WRAP.   NO:
#==================================================================
~Well
STRT .m      334.06079102 :
STOP .m      2807.3603516 :
STEP .m     0.00000000 :
NULL .        -999.250000 :
COMP.           : COMPANY
WELL.  7/1-1   : WELL
FLD.            : FIELD
LOC.            : LOCATION
SRVC.           : SERVICE COMPANY
DATE.  2018-09-11 14:49:04   : Log Export Date {yyyy-MM-dd HH:mm:ss}
PROV.           : PROVINCE
UWI.   7/1-1   : UNIQUE WELL ID
API.            : API NUMBER
#==================================================================
~Curve
DEPT .m                   : DEPTH
Lithology_geolink ._      : Lithology_geolink
DCAL .in                  : DCAL
CALI .in                  : CALI
BS .in                    : BS
ROP .m/h                  : ROP
DRHO .g/cm3               : DRHO
NPHI .m3/m3               : NPHI
RHOB .g/cm3               : RHOB
GR .gAPI                  : GR
DTC .us/ft                : DTC
DT .us/ft                 : DT
DTE .us/ft                : DTE
RDEP .ohm.m               : RDEP
SP .mV                    : SP
RSHA .ohm.m               : RSHA
RMED .ohm.m               : RMED
~Parameter
#==================================================================
~Ascii
# ...
 525.77996826  -999.250000 18.002799988 18.002799988 17.500000000 0.4135334492  -999.250000  -999.250000  -999.250000 48.803672791 165.43920898 165.55302429 165.36145020 1.4119999409 24.622964859 1.4482002258 1.4480359554
 525.93237305  -999.250000 18.031299591 18.031299591 17.500000000 0.3864924610  -999.250000  -999.250000  -999.250000 47.865673065 165.15440369 165.22528076 165.16127014 1.4059000015 24.460664749 1.4477002621 1.4482358694
 526.08477783  -999.250000 18.043899536 18.043899536 17.500000000 0.3857043386  -999.250000  -999.250000  -999.250000 47.508842468 164.97947693 164.45126343 164.11700439 1.4039000273 24.395526886 1.4459006786 1.4443582296
 526.23718262  -999.250000 18.043899536 18.043899536 17.500000000 0.3851043284  -999.250000  -999.250000  -999.250000 47.615600586 164.89219666 163.99847412 163.94279480 1.4052000046 24.407899857 1.4428999424 1.4364514351
 526.38958740  -999.250000 18.043899536 18.043899536 17.500000000 0.3845040798  -999.250000  -999.250000  -999.250000 47.722499847 164.80500793 164.41920471 164.64379883 1.4065999985 24.420299530 1.4400000572 1.4354349375
 526.54199219  -999.250000 18.044700623 18.044700623 17.500000000 0.3839040995  -999.250000  -999.250000  -999.250000 47.630100250 164.72637939 164.80697632 164.88389587 1.4077999592 24.409599304 1.4388999939 1.4395622015
 526.69439697  -999.250000 18.047500610 18.047500610 17.500000000 0.3833040893  -999.250000  -999.250000  -999.250000 47.013900757 164.67050171 164.26092529 163.96760559 1.4088000059 24.338100433 1.4427000284 1.4412360191
 526.84680176  -999.250000 18.050300598 18.050300598 17.500000000 0.3999856114  -999.250000  -999.250000  -999.250000 46.397701263 164.61450195 164.36955261 164.55868530 1.4098000526 24.266500473 1.4464999437 1.4449720383
 526.99914551  -999.250000 18.053100586 18.053100586 17.500000000 0.3995043635  -999.250000  -999.250000  -999.250000 45.781749725 164.55851746 164.55821228 164.55799866 1.4107999802 24.195028305 1.4501985312 1.4501659870
 527.15155029  -999.250000 18.045099258 18.045099258 17.500000000 0.3989043236  -999.250000  -999.250000  -999.250000 46.602970123 164.73840332 164.55752563 164.55729675 1.4203000069 24.028266907 1.4453018904 1.4456155300
 527.30395508  -999.250000 18.037099838 18.037099838 17.500000000 0.3593869209  -999.250000  -999.250000  -999.250000 47.432266235 164.91961670 164.55676270 164.55650330 1.4298000336 23.861066818 1.4404019117 1.4368553162
 527.45635986  -999.250000 18.029100418 18.029100418 17.500000000 0.2764997780  -999.250000  -999.250000  -999.250000 48.261669159 165.10084534 164.97419739 165.17085266 1.4393999577 23.693866730 1.4354020357 1.4341679811
 527.60876465  -999.250000 18.028799057 18.028799057 17.500000000 0.2925788760  -999.250000  -999.250000  -999.250000 48.558879852 164.86808777 165.29423523 165.35221863 1.4451999664 23.651617050 1.4376990795 1.4360350370
 527.76116943  -999.250000 18.031600952 18.031600952 17.500000000 0.2920050323  -999.250000  -999.250000  -999.250000 48.642665863 164.46934509 164.67445374 164.35530090 1.4494999647 23.659595490 1.4428979158 1.4423369169
 527.91357422  -999.250000 18.034400940 18.034400940 17.500000000 0.2915036082  -999.250000  -999.250000  -999.250000 48.726364136 164.07055664 164.21891785 164.15487671 1.4536999464 23.667596817 1.4480979443 1.4488418102
 528.06597900  -999.250000 18.040800095 18.040800095 17.500000000 0.2908050418  -999.250000  -999.250000  -999.250000 48.868343353 163.75352478 163.31404114 162.91818237 1.4560999870 23.824636459 1.4507988691 1.4508359432
 528.21838379  -999.250000 18.051900864 18.051900864 17.500000000 0.3075781763  -999.250000  -999.250000  -999.250000 49.086513519 163.54357910 162.53819275 162.35951233 1.4558999538 24.176858902 1.4503002167 1.4510358572
 528.37078857  -999.250000 18.062999725 18.062999725 17.500000000 0.3070050478  -999.250000  -999.250000  -999.250000 49.304798126 163.33351135 162.90068054 163.15589905 1.4557000399 24.529300690 1.4499000311 1.4512358904
 528.52319336  -999.250000 18.067899704 18.067899704 17.500000000 0.3064040840  -999.250000  -999.250000  -999.250000 49.252998352 163.24139404 163.15536499 163.15510559 1.4549000263 24.839099884 1.4491000175 1.4487174749
 528.67559814  -999.250000 18.038200378 18.038200378 17.500000000 0.3057047725  -999.250000  -999.250000  -999.250000 47.697799683 163.80610657 163.96777344 164.35040283 1.4508999586 24.912500381 1.4466999769 1.4449163675
 528.82800293  -999.250000 18.008600235 18.008600235 17.500000000 0.2045930624  -999.250000  -999.250000  -999.250000 46.142601013 164.37069702 164.48544312 164.54898071 1.4470000267 24.985900879 1.4443999529 1.4438359737
 528.98040771  -999.250000 17.978900909 17.978900909 17.500000000 0.1656621248  -999.250000  -999.250000  -999.250000 44.587398529 164.93530273 164.93305969 165.11380005 1.4429999590 25.059299469 1.4420000315 1.4419959784
 529.13275146  -999.250000 18.011800766 18.011800766 17.500000000 0.1649036109  -999.250000  -999.250000  -999.250000 44.580204010 165.86683655 165.77316284 166.08361816 1.4357000589 25.181449890 1.4357025623 1.4385174513
 529.28515625  -999.250000 18.053800583 18.053800583 17.500000000 0.1641057730  -999.250000  -999.250000  -999.250000 44.801212311 166.85290527 166.76579285 167.08680725 1.4279999733 25.310749054 1.4290027618 1.4325426817
 529.43756104  -999.250000 18.095800400 18.095800400 17.500000000 0.1637028903  -999.250000  -999.250000  -999.250000 45.022411346 167.83900452 167.86651611 168.23344421 1.4201999903 25.440048218 1.4222027063 1.4230281115
 529.58996582  -999.250000 18.115299225 18.115299225 17.500000000 0.1630050540  -999.250000  -999.250000  -999.250000 45.213222504 168.03022766 168.30117798 168.33285522 1.4151999950 25.271766663 1.4183015823 1.4129397869
 529.74237061  -999.250000 18.119100571 18.119100571 17.500000000 0.1624043286  -999.250000  -999.250000  -999.250000 45.382831573 167.67004395 167.73027039 167.44653320 1.4121999741 24.897150040 1.4165006876 1.4095281363
 529.89477539  -999.250000 18.122900009 18.122900009 17.500000000 0.1618043035  -999.250000  -999.250000  -999.250000 45.552433014 167.30963135 167.23490906 167.13542175 1.4091999531 24.522350311 1.4146007299 1.4121184349
 530.04718018  -999.250000 18.124900818 18.124900818 17.500000000 0.1612043232  -999.250000  -999.250000  -999.250000 45.694541931 166.96873474 166.99998474 166.93627930 1.4098000526 24.363262177 1.4134005308 1.4135359526
 530.19958496  -999.250000 18.122999191 18.122999191 17.500000000 0.1606043279  -999.250000  -999.250000  -999.250000 45.775566101 166.67092896 166.18991089 165.83810425 1.4182000160 24.684770584 1.4135998487 1.4136679173
 530.35198975  -999.250000 18.121099472 18.121099472 17.500000000 0.2342651188  -999.250000  -999.250000  -999.250000 45.856498718 166.37309265 165.76979065 165.73759460 1.4265999794 25.006500244 1.4138000011 1.4138358831
 530.50439453  -999.250000 18.118999481 18.118999481 17.500000000 0.2807846665  -999.250000  -999.250000  -999.250000 45.935699463 166.10180664 166.09684753 166.26620483 1.4349000454 25.318899155 1.4141000509 1.4140359163
 530.65679932  -999.250000 18.110000610 18.110000610 17.500000000 0.2805040777  -999.250000  -999.250000  -999.250000 45.953899384 166.72270203 166.96096802 167.28849792 1.4379999638 25.317399979 1.4168000221 1.4169543982
 530.80920410  -999.250000 18.100999832 18.100999832 17.500000000 0.2893394232  -999.250000  -999.250000  -999.250000 45.972198486 167.34350586 167.79133606 168.02809143 1.4409999847 25.315900803 1.4194999933 1.4208835363
 530.96160889  -999.250000 18.092100143 18.092100143 17.500000000 0.2966502905  -999.250000  -999.250000  -999.250000 45.990398407 167.96429443 168.09541321 168.12709045 1.4441000223 25.314399719 1.4221999645 1.4224400520
 531.11401367  -999.250000 18.085399628 18.085399628 17.500000000 0.2961040735  -999.250000  -999.250000  -999.250000 45.895698547 167.73190308 168.12661743 168.12640381 1.4428000450 25.726400375 1.4147000313 1.4227359295
 531.26635742  -999.250000 18.079399109 18.079399109 17.500000000 0.2955043316  -999.250000  -999.250000  -999.250000 45.763000488 167.21241760 167.73474121 167.55009460 1.4400000572 26.277479172 1.4038044214 1.4157999754
