# LAS format log file from PETREL
# Project units are specified as depth units
#==================================================================
~Version information
VERS.   2.0:
WRAP.   NO:
#==================================================================
~Well
STRT .m      334.06079102 :
STOP .m      2807.3603516 :
STEP .m     0.00000000 :
NULL .        -999.250000 :
COMP.           : COMPANY
WELL.  7/1-1   : WELL
FLD.            : FIELD
LOC.            : LOCATION
SRVC.           : SERVICE COMPANY
DATE.  2018-09-11 14:49:04   : Log Export Date {yyyy-MM-dd HH:mm:ss}
PROV.           : PROVINCE
UWI.   7/1-1   : UNIQUE WELL ID
API.            : API NUMBER
#==================================================================
~Curve
DEPT .m                   : DEPTH
Lithology_geolink ._      : Lithology_geolink
DCAL .in                  : DCAL
CALI .in                  : CALI
BS .in                    : BS
ROP .m/h                  : ROP
DRHO .g/cm3               : DRHO
NPHI .m3/m3               : NPHI
RHOB .g/cm3               : RHOB
GR .gAPI                  : GR
DTC .us/ft                : DTC
DT .us/ft                 : DT
DTE .us/ft                : DTE
RDEP .ohm.m               : RDEP
SP .mV                    : SP
RSHA .ohm.m               : RSHA
RMED .ohm.m               : RMED
~Parameter
#==================================================================
~Ascii
# ...
 1501.2924805  -999.250000 18.182899475 18.182899475 17.500000000 0.6544038653  -999.250000  -999.250000  -999.250000 54.207000732  -999.250000 180.94810486 180.94909668 0.6437205076 39.357299805 0.7555999756 0.7524891496
 1501.4448242  -999.250000 18.172000885 18.172000885 17.500000000 0.6542038918  -999.250000  -999.250000  -999.250000 55.677898407  -999.250000 180.95114136 180.95210266 0.6565043330 39.558498383 0.7627000213 0.7617530227
 1501.5971680  -999.250000 18.166700363 18.166700363 17.500000000 0.6540039778  -999.250000  -999.250000  -999.250000 55.580398560  -999.250000 180.95428467 180.95530701 0.6619011164 39.358299255 0.7778999805 0.7835743427
 1501.7496338  -999.250000 18.164699554 18.164699554 17.500000000 0.6538038850  -999.250000  -999.250000  -999.250000 54.592300415  -999.250000 180.95741272 180.95840454 0.6633009911 38.930000305 0.7975999713 0.8089576364
 1501.9019775  -999.250000 18.162599564 18.162599564 17.500000000 0.6536039710  -999.250000  -999.250000  -999.250000 53.604099274  -999.250000 180.96052551 180.96151733 0.6645997763 38.501800537 0.8173999786 0.8264807463
 1502.0544434  -999.250000 18.159700394 18.159700394 17.500000000 0.6534038782  -999.250000  -999.250000  -999.250000 53.090000153  -999.250000 180.96360779 180.96459961 0.6642972827 38.284698486 0.8246999979 0.8290287256
 1502.2067871  -999.250000 18.155500412 18.155500412 17.500000000 0.6532039642  -999.250000  -999.250000  -999.250000 53.430000305  -999.250000 180.96670532 180.96769714 0.6608971953 38.448200226 0.8094000220 0.8198782206
 1502.3592529  -999.250000 18.151300430 18.151300430 17.500000000 0.6530038118  -999.250000  -999.250000  -999.250000 53.770000458  -999.250000 180.96980286 180.97079468 0.6573969126 38.611698151 0.7940999866 0.7994822264
 1502.5115967  -999.250000 18.147600174 18.147600174 17.500000000 0.6528040171  -999.250000  -999.250000  -999.250000 54.139301300  -999.250000 180.97291565 180.97390747 0.6534916162 38.704601288 0.7789999843 0.7773628235
 1502.6640625  -999.250000 18.150600433 18.150600433 17.500000000 0.6526038647  -999.250000  -999.250000  -999.250000 54.864898682  -999.250000 180.97601318 180.97700500 0.6429916024 37.942001343 0.7662000060 0.7611515522
 1502.8164063  -999.250000 18.153600693 18.153600693 17.500000000 0.6524040103  -999.250000  -999.250000  -999.250000 55.590400696  -999.250000 180.97911072 180.98010254 0.6324916482 37.179298401 0.7533000112 0.7475948930
 1502.9688721  -999.250000 18.156600952 18.156600952 17.500000000 0.6522039175  -999.250000  -999.250000  -999.250000 56.316001892  -999.250000 180.98222351 180.98321533 0.6220990419 36.416599274 0.7404999733 0.7390856147
 1503.1212158  -999.250000 18.157899857 18.157899857 17.500000000 0.6520038843  -999.250000  -999.250000  -999.250000 56.017501831  -999.250000 180.98530579 180.98629761 0.6215016246 36.719100952 0.7358999848 0.7337705493
 1503.2736816  -999.250000 18.158899307 18.158899307 17.500000000 0.6518037915  -999.250000  -999.250000  -999.250000 55.455299377  -999.250000 180.98840332 180.98939514 0.6235032082 37.295700073 0.7333999872 0.7306353450
 1503.4260254  -999.250000 18.159799576 18.159799576 17.500000000 0.6516038775  -999.250000  -999.250000  -999.250000 54.893100739  -999.250000 180.99150085 180.99249268 0.6255012155 37.872299194 0.7308999896 0.7292202711
 1503.5784912  -999.250000 18.159999847 18.159999847 17.500000000 0.6514039040  -999.250000  -999.250000  -999.250000 54.156799316  -999.250000 180.99461365 180.99560547 0.6270018816 38.169898987 0.7301999927 0.7325055599
 1503.7308350  -999.250000 18.159400940 18.159400940 17.500000000 0.6512038708  -999.250000  -999.250000  -999.250000 53.256198883  -999.250000 180.99771118 180.99870300 0.6282009482 38.204101563 0.7311000228 0.7369189858
 1503.8831787  -999.250000 18.158800125 18.158800125 17.500000000 0.6510040164  -999.250000  -999.250000  -999.250000 52.355598450  -999.250000 181.00080872 181.00180054 0.6294021010 38.238399506 0.7319999933 0.7354820371
 1504.0356445  -999.250000 18.158199310 18.158199310 17.500000000 0.6508039236  -999.250000  -999.250000  -999.250000 51.703399658  -999.250000 181.00392151 181.00491333 0.6320056915 38.369800568 0.7329999804 0.7320927978
 1504.1879883  -999.250000 18.157600403 18.157600403 17.500000000 0.6506040096  -999.250000  -999.250000  -999.250000 51.866100311  -999.250000 181.00700378 181.00799561 0.6391056776 38.820499420 0.7340000272 0.7334781885
 1504.3404541  -999.250000 18.156999588 18.156999588 17.500000000 0.6504038572  -999.250000  -999.250000  -999.250000 52.028900146  -999.250000 181.01010132 181.01109314 0.6462056637 39.271099091 0.7350000143 0.7357555628
 1504.4927979  -999.250000 18.156400681 18.156400681 17.500000000 0.6502040029  -999.250000  -999.250000  -999.250000 52.191600800  -999.250000 181.01321411 181.01420593 0.6532999277 39.721698761 0.7360000014 0.7359602451
 1504.6452637  -999.250000 18.155799866 18.155799866 17.500000000 0.6500038505  -999.250000  -999.250000  -999.250000 51.035301208  -999.250000 181.01631165 181.01730347 0.6531995535 39.016998291 0.7376999855 0.7379072309
 1504.7976074  -999.250000 18.155199051 18.155199051 17.500000000 0.6498039961  -999.250000  -999.250000  -999.250000 49.813598633  -999.250000 181.01940918 181.02040100 0.6526995897 38.255001068 0.7396000028 0.7415500283
 1504.9500732  -999.250000 18.154600143 18.154600143 17.500000000 0.6496039033  -999.250000  -999.250000  -999.250000 48.591899872  -999.250000 181.02250671 181.02349854 0.6521937251 37.492900848 0.7414000034 0.7424601316
 1505.1024170  -999.250000 18.153999329 18.153999329 17.500000000 0.6494039893  -999.250000  -999.250000  -999.250000 47.914398193  -999.250000 181.02561951 181.02661133 0.6482954025 37.745201111 0.7389000058 0.7395820618
 1505.2548828  -999.250000 18.153400421 18.153400421 17.500000000 0.6492038965  -999.250000  -999.250000  -999.250000 47.502498627  -999.250000 181.02871704 181.02969360 0.6425908804 38.492599487 0.7343000174 0.7349665761
 1505.4072266  -999.250000 18.152799606 18.152799606 17.500000000 0.6490038633  -999.250000  -999.250000  -999.250000 47.090599060  -999.250000 181.03182983 181.03282166 0.6368961334 39.240100861 0.7297000289 0.7306810021
 1505.5596924  -999.250000 18.151399612 18.151399612 17.500000000 0.6488038301  -999.250000  -999.250000  -999.250000 47.005401611  -999.250000 181.03492737 181.03590393 0.6320943832 39.661399841 0.7247999907 0.7236855626
 1505.7120361  -999.250000 18.148799896 18.148799896 17.500000000 0.6486039162  -999.250000  -999.250000  -999.250000 47.428699493  -999.250000 181.03800964 181.03900146 0.6285971403 39.574798584 0.7195000052 0.7176692486
 1505.8643799  -999.250000 18.146200180 18.146200180 17.500000000 0.6484040022  -999.250000  -999.250000  -999.250000 47.852001190  -999.250000 181.04110718 181.04209900 0.6249971390 39.488201141 0.7141000032 0.7133820653
 1506.0168457  -999.250000 18.143499374 18.143499374 17.500000000 0.6482038498  -999.250000  -999.250000  -999.250000 48.152301788  -999.250000 181.04420471 181.04519653 0.6213969588 39.409801483 0.7098000050 0.7087692618
 1506.1691895  -999.250000 18.139299393 18.139299393 17.500000000 0.6480039954  -999.250000  -999.250000  -999.250000 47.459899902  -999.250000 181.04731750 181.04830933 0.6175969839 39.398399353 0.7146999836 0.7093743682
 1506.3216553  -999.250000 18.135099411 18.135099411 17.500000000 0.6478039026  -999.250000  -999.250000  -999.250000 46.767501831  -999.250000 181.05041504 181.05140686 0.6137968898 39.386901855 0.7195000052 0.7178772092
 1506.4739990  -999.250000 18.130899429 18.130899429 17.500000000 0.6476039886  -999.250000  -999.250000  -999.250000 46.075000763  -999.250000 181.05352783 181.05451965 0.6098986268 39.375400543 0.7243000269 0.7245256305
 1506.6264648  -999.250000 18.132799149 18.132799149 17.500000000 0.6474038959  -999.250000  -999.250000  -999.250000 46.702400208  -999.250000 181.05662537 181.05760193 0.6081988811 39.127998352 0.7214000225 0.7202901244
 1506.7788086  -999.250000 18.135900497 18.135900497 17.500000000 0.6472039223  -999.250000  -999.250000  -999.250000 47.601299286  -999.250000 181.05970764 181.06069946 0.6067990065 38.831901550 0.7170000076 0.7130474448
