# LAS format log file from PETREL
# Project units are specified as depth units
#==================================================================
~Version information
VERS.   2.0:
WRAP.   NO:
#==================================================================
~Well
STRT .m      2859.8344727 :
STOP .m      3172.2546387 :
STEP .m     0.00000000 :
NULL .        -999.250000 :
COMP.           : COMPANY
WELL.  7/1-2 S   : WELL
FLD.            : FIELD
LOC.            : LOCATION
SRVC.           : SERVICE COMPANY
DATE.  2018-09-11 14:49:04   : Log Export Date {yyyy-MM-dd HH:mm:ss}
PROV.           : PROVINCE
UWI.   7/1-2 S   : UNIQUE WELL ID
API.            : API NUMBER
#==================================================================
~Curve
DEPT .m                   : DEPTH
Lithology_geolink ._      : Lithology_geolink
DCAL .in                  : DCAL
CALI .in                  : CALI
BS .in                    : BS
ROP .m/h                  : ROP
DRHO .g/cm3               : DRHO
THOR .ppm                 : THOR
NPHI .m3/m3               : NPHI
RHOB .g/cm3               : RHOB
PEF .b/e                  : PEF
GR .gAPI                  : GR
URAN .ppm                 : URAN
DTC .us/ft                : DTC
DT .us/ft                 : DT
DTS .us/ft                : DTS
RDEP .ohm.m               : RDEP
RSHA .ohm.m               : RSHA
RMED .ohm.m               : RMED
~Parameter
#==================================================================
~Ascii
# ...
 3000.6520996 1.0000000000 8.4933004379 8.4933004379 8.5000000000 23426.064453 -0.007405449 1.9107211828 0.1964687556 2.1446962357 7.6590557098 34.370895386 1.0541340113 83.277397156 83.276023865 146.53770447 0.2595099509 0.2576205134 0.2585099339
 3000.8046875 1.0000000000 8.5186996460 8.5186996460 8.5000000000 23801.375000 -0.022076480 2.0554082394 0.2637921572 2.1197962761 8.7846975327 35.267169952 0.9795287848 84.771011353 84.768623352 152.36985779 0.2159696072 0.2114737630 0.2144703865
 3000.9570313 1.0000000000 8.5293998718 8.5293998718 8.5000000000 23996.650391 -0.017008174 2.1435365677 0.2784765959 2.1226799488 8.1574096680 32.988262177 0.8844307661 86.152397156 86.150184631 155.86669922 0.1952331662 0.1898346096 0.1934336424
 3001.1093750 1.0000000000 8.5452995300 8.5452995300 8.5000000000 24333.181641 -0.008613462 2.1408717632 0.2786996663 2.1303894520 6.8146538734 32.797302246 0.8353679776 86.676200867 86.675361633 155.29124451 0.1903078556 0.1844086647 0.1879088283
 3001.2617188 1.0000000000 8.5459995270 8.5459995270 8.5000000000 24520.505859 -0.010796474 2.0731821060 0.2646225989 2.1386270523 6.1094288826 35.096805573 0.8264737129 86.395401001 86.395851135 154.02502441 0.1999844611 0.1928863823 0.1966859102
 3001.4140625 1.0000000000 8.5109996796 8.5109996796 8.5000000000 24848.281250 -0.013591040 2.0069296360 0.2633041739 2.1512520313 6.8764343262 32.330390930 0.8674910069 86.098808289 86.099754333 151.30262756 0.2199359983 0.2092475146 0.2152404785
 3001.5666504 1.0000000000 8.5230998993 8.5230998993 8.5000000000 25044.443359 -0.028076764 1.9587299824 0.2565109134 2.1550681591 7.0055966377 29.625728607 0.9487013221 85.961700439 85.961921692 150.35890198 0.2341772467 0.2181857377 0.2282791734
 3001.7189941 1.0000000000 8.5141000748 8.5141000748 8.5000000000 25153.105469 -0.017816506 2.0140430927 0.2452180982 2.1514816284 5.3241991997 29.027454376 0.9602071047 85.850303650 85.850479126 150.06066895 0.2333014458 0.2118102461 0.2265028954
 3001.8713379 1.0000000000 8.5139999390 8.5139999390 8.5000000000 25222.076172 -0.028283173 2.3522608280 0.2590777278 2.1540248394 5.4183444977 29.202817917 0.9336814284 85.809501648 85.809570313 150.65194702 0.2267105728 0.2012169808 0.2195112258
 3002.0236816 1.0000000000 8.5403003693 8.5403003693 8.5000000000 25232.578125 -0.011952480 2.7777538300 0.2511256039 2.1675546169 7.9399056435 26.637836456 0.8685884476 85.844398499 85.844284058 151.58071899 0.2263012826 0.1977111995 0.2186028808
 3002.1762695 1.0000000000 8.5479001999 8.5479001999 8.5000000000 25244.443359 -0.015394391 2.9359967709 0.2734640837 2.1754112244 8.8370733261 28.647260666 0.8302640915 85.932899475 85.932754517 152.22686768 0.2325899005 0.2018932700 0.2245903909
 3002.3286133 1.0000000000 8.5325002670 8.5325002670 8.5000000000 25250.708984 -0.023387179 3.0397531986 0.2795902193 2.1599080563 7.3765463829 30.525890350 0.7784910202 85.449798584 85.450569153 152.69184875 0.2412860543 0.2093879730 0.2328866869
 3002.4809570 1.0000000000 8.5403995514 8.5403995514 8.5000000000 25244.142578 -0.017709134 3.1065146923 0.2717126608 2.1358096600 5.9653611183 26.774026871 0.7396320701 85.344902039 85.345069885 152.51638794 0.2493870258 0.2175868601 0.2408871800
 3002.6333008 1.0000000000 8.5350999832 8.5350999832 8.5000000000 25223.898438 -0.022285279 2.9220840931 0.2837612927 2.1308691502 6.0010781288 25.673713684 0.7443363070 85.142196655 85.142845154 151.91781616 0.2570753396 0.2255744040 0.2485753596
 3002.7858887 1.0000000000 8.5243997574 8.5243997574 8.5000000000 25235.666016 0.0052557690 2.4810431004 0.2757129967 2.1421754360 5.8770995140 24.935977936 0.7828474045 85.154403687 85.154380798 151.28192139 0.2622916698 0.2310911715 0.2538914979
 3002.9382324 1.0000000000 8.4911003113 8.4911003113 8.5000000000 25264.605469 -0.047814742 2.3559956551 0.2782958150 2.1466600895 5.9656572342 23.611722946 0.7868090272 85.065299988 85.065444946 151.66777039 0.2588056028 0.2282046527 0.2506052852
 3003.0905762 1.0000000000 8.4769001007 8.4769001007 8.5000000000 25373.109375 -0.036218751 2.2797224522 0.2745060921 2.1407914162 5.8993067741 23.404827118 0.7931795120 84.794403076 84.794837952 154.54219055 0.2433248460 0.2143222839 0.2358237207
 3003.2429199 1.0000000000 8.4695997238 8.4695997238 8.5000000000 25507.265625 0.0024379806 2.1764314175 0.2459458411 2.1323714256 6.1447062492 25.579509735 0.8197385073 84.705101013 84.705245972 156.08813477 0.2273256481 0.1999230832 0.2203248441
 3003.3952637 1.0000000000 8.4692001343 8.4692001343 8.5000000000 26028.113281 -0.018931199 2.1854577065 0.2644404769 2.1437096596 6.0489091873 27.964853287 0.8693051338 84.734901428 84.734809875 154.44985962 0.2235121578 0.1963115185 0.2167115211
 3003.5478516 1.0000000000 8.4729995728 8.4729995728 8.5000000000 26056.734375 -0.024591025 2.0460467339 0.2863648832 2.1705479622 5.7810297012 28.574335098 1.0029352903 85.050498962 85.049995422 151.70880127 0.2340830117 0.2051857412 0.2268836498
 3003.7001953 1.0000000000 8.4800996780 8.4800996780 8.5000000000 26172.794922 -0.038877081 1.8836108446 0.2620390952 2.1862797737 5.0136313438 27.731353760 1.0889532566 84.856002808 84.856315613 149.50671387 0.2516718209 0.2196767628 0.2437729090
 3003.8525391 1.0000000000 8.4757995605 8.4757995605 8.5000000000 26174.625000 -0.018233174 1.7296653986 0.2585056126 2.1918740273 6.1240158081 25.693569183 1.1514269114 84.462799072 84.463432312 151.25947571 0.2615841329 0.2265889496 0.2530851066
 3004.0048828 1.0000000000 8.4643001556 8.4643001556 8.5000000000 26180.750000 -0.015608320 1.6109615564 0.2493294477 2.1922357082 8.1765165329 27.262153625 1.2102295160 84.072303772 84.073554993 153.35707092 0.2547220886 0.2188249528 0.2463217527
 3004.1574707 1.0000000000 8.4615001678 8.4615001678 8.5000000000 26182.416016 -0.017596794 1.4845839739 0.2506977618 2.1842789650 7.4702444077 29.990228653 1.2302665710 84.420898438 84.420341492 155.72412109 0.2382264435 0.2033248395 0.2301259637
 3004.3098145 1.0000000000 8.4767999649 8.4767999649 8.5000000000 26031.234375 -0.019496955 1.4054917097 0.2628804445 2.1603040695 6.3707628250 31.488203049 1.2253301144 85.105903625 85.104804993 156.59101868 0.2244221121 0.1914190799 0.2167214751
 3004.4621582 1.0000000000 8.4924001694 8.4924001694 8.5000000000 25996.375000 -0.027786698 1.3593820333 0.2658951879 2.1304883957 6.0443210602 29.553709030 1.2423359156 85.854698181 85.853500366 157.37335205 0.2193081677 0.1879056096 0.2117080241
 3004.6145020 1.0000000000 8.4947996140 8.4947996140 8.5000000000 25629.359375 -0.017632639 1.3007987738 0.2619127929 2.1216413975 6.2498388290 29.488698959 1.3169120550 85.946998596 85.946701050 156.85746765 0.2215926349 0.1910897642 0.2139926404
 3004.7670898 1.0000000000 8.4820995331 8.4820995331 8.5000000000 25534.843750 -0.016202245 1.2460609674 0.2514168322 2.1499104500 6.2743620872 30.264453888 1.4108647108 85.624099731 85.624618530 155.21484375 0.2282892615 0.1977892518 0.2205894142
 3004.9194336 1.0000000000 8.5001001358 8.5001001358 8.5000000000 25021.003906 -0.026882853 1.2265275717 0.2555932701 2.1851880550 6.6914305687 32.556121826 1.4853826761 85.319702148 85.320190430 153.04127502 0.2360875010 0.2045891136 0.2280879766
 3005.0717773 1.0000000000 8.4883003235 8.4883003235 8.5000000000 24876.884766 -0.026700320 1.2547057867 0.2721733749 2.1992721558 6.3711156845 34.447372437 1.5245711803 85.129302979 85.129608154 152.10070801 0.2396942377 0.2072956860 0.2315943986
 3005.2241211 1.0000000000 8.4991998672 8.4991998672 8.5000000000 25137.390625 -0.029295834 1.3384622335 0.2391530424 2.1918942928 5.6655316353 34.464176178 1.5323005915 84.839210510 84.839675903 153.15850830 0.2341089696 0.2029070556 0.2263084948
 3005.3764648 1.0000000000 8.4946002960 8.4946002960 8.5000000000 25347.042969 -0.009563359 1.5383807421 0.2629235387 2.1604239941 5.6768598557 32.958534241 1.4416204691 84.655502319 84.656089783 154.83312988 0.2221384048 0.1943275183 0.2149364799
 3005.5290527 1.0000000000 8.5076999664 8.5076999664 8.5000000000 25448.722656 -0.005606250 1.9534057379 0.2921532094 2.1190798283 5.8219671249 29.989259720 1.2117058039 84.435798645 84.436149597 156.83799744 0.2113173008 0.1878104210 0.2046165168
