# LAS format log file from PETREL
# Project units are specified as depth units
#==================================================================
~Version information
VERS.   2.0:
WRAP.   NO:
#==================================================================
~Well
STRT .m      2859.8344727 :
STOP .m      3172.2546387 :
STEP .m     0.00000000 :
NULL .        -999.250000 :
COMP.           : COMPANY
WELL.  7/1-2 S   : WELL
FLD.            : FIELD
LOC.            : LOCATION
SRVC.           : SERVICE COMPANY
DATE.  2018-09-11 14:49:04   : Log Export Date {yyyy-MM-dd HH:mm:ss}
PROV.           : PROVINCE
UWI.   7/1-2 S   : UNIQUE WELL ID
API.            : API NUMBER
#==================================================================
~Curve
DEPT .m                   : DEPTH
Lithology_geolink ._      : Lithology_geolink
DCAL .in                  : DCAL
CALI .in                  : CALI
BS .in                    : BS
ROP .m/h                  : ROP
DRHO .g/cm3               : DRHO
THOR .ppm                 : THOR
NPHI .m3/m3               : NPHI
RHOB .g/cm3               : RHOB
PEF .b/e                  : PEF
GR .gAPI                  : GR
URAN .ppm                 : URAN
DTC .us/ft                : DTC
DT .us/ft                 : DT
DTS .us/ft                : DTS
RDEP .ohm.m               : RDEP
RSHA .ohm.m               : RSHA
RMED .ohm.m               : RMED
~Parameter
#==================================================================
~Ascii
# ...
 2879.9514160 7.0000000000 8.7061996460 8.7061996460 12.250000954 32995.687500  -999.250000 5.2875642776  -999.250000  -999.250000  -999.250000 253.16799927 6.7852950096 56.024600983  -999.250000  -999.250000 1.2132883072 1.1253663301 1.1187633276
 2880.1037598 7.0000000000 8.7299003601 8.7299003601 12.250000954 32769.972656  -999.250000 5.7689237595  -999.250000  -999.250000  -999.250000 258.95950317 6.7318844795 56.184700012  -999.250000  -999.250000 1.2226849794 1.1385788918 1.1378693581
 2880.2561035 7.0000000000 8.7242002487 8.7242002487 12.250000954 32653.998047  -999.250000 5.8298139572  -999.250000  -999.250000  -999.250000 266.49649048 6.5366244316 56.242500305  -999.250000  -999.250000 1.2273849249 1.1362075806 1.1376008987
 2880.4086914 7.0000000000 8.7332000732 8.7332000732 12.250000954 32855.968750  -999.250000 5.6729559898  -999.250000  -999.250000  -999.250000 265.59298706 6.4263625145 55.978401184  -999.250000  -999.250000 1.2434742451 1.1675497293 1.1777356863
 2880.5610352 7.0000000000 8.7325000763 8.7325000763 12.250000954 32984.250000  -999.250000 5.0489001274  -999.250000  -999.250000  -999.250000 247.34519958 6.1225967407 55.708000183  -999.250000  -999.250000 1.2416031361 1.1761862040 1.1666179895
 2880.7133789 7.0000000000 8.7306995392 8.7306995392 12.250000954 33023.128906  -999.250000 4.6534290314  -999.250000  -999.250000  -999.250000 239.57249451 5.6439933777 55.772396088  -999.250000  -999.250000 1.2000666857 1.0946308374 1.0955140591
 2880.8657227 7.0000000000 8.7152004242 8.7152004242 12.250000954 32881.656250  -999.250000 4.7355732918  -999.250000  -999.250000  -999.250000 243.93780518 5.4579358101 56.005199432  -999.250000  -999.250000 1.1914275885 1.0842329264 1.0867278576
 2881.0183105 7.0000000000 8.7107000351 8.7107000351 12.250000954 32526.691406  -999.250000 5.0943465233  -999.250000  -999.250000  -999.250000 235.60780334 5.2061476707 55.948898315  -999.250000  -999.250000 1.1732292175 1.0579421520 1.0568479300
 2881.1706543 7.0000000000 8.7391996384 8.7391996384 12.250000954 32398.275391  -999.250000 5.3598361015  -999.250000  -999.250000  -999.250000 235.31590271 5.0992078781 55.982898712  -999.250000  -999.250000 1.1730003357 1.0622929335 1.0558015108
 2881.3229980 7.0000000000 8.7313995361 8.7313995361 12.250000954 32052.103516  -999.250000 5.8207435608  -999.250000  -999.250000  -999.250000 234.97149658 5.0054168701 55.694400787  -999.250000  -999.250000 1.2004559040 1.1121200323 1.1067181826
 2881.4753418 7.0000000000 8.7208003998 8.7208003998 12.250000954 31956.064453  -999.250000 5.6901550293  -999.250000  -999.250000  -999.250000 244.25070190 5.4310488701 55.613800049  -999.250000  -999.250000 1.2776522636 1.2178608179 1.2357858419
 2881.6279297 7.0000000000 8.7021999359 8.7021999359 12.250000954 31916.316406  -999.250000 5.3033323288  -999.250000  -999.250000  -999.250000 248.48320007 5.7989063263 55.610298157  -999.250000  -999.250000 1.2874846458 1.2520456314 1.2723419666
 2881.7802734 7.0000000000 8.7180004120 8.7180004120 12.250000954 31790.160156  -999.250000 4.6043000221  -999.250000  -999.250000  -999.250000 255.19990540 6.3019185066 55.524200439  -999.250000  -999.250000 1.2204076052 1.1364855766 1.1395132542
 2881.9326172 7.0000000000 8.7208995819 8.7208995819 12.250000954 31730.687500  -999.250000 3.8290078640  -999.250000  -999.250000  -999.250000 244.15910339 6.7571120262 55.587001801  -999.250000  -999.250000 1.1959390640 1.0968632698 1.0941724777
 2882.0849609 7.0000000000 8.7273998260 8.7273998260 12.250000954 31523.984375  -999.250000 3.9169173241  -999.250000  -999.250000  -999.250000 241.11669922 6.6941971779 55.420299530  -999.250000  -999.250000 1.1692427397 1.0700429678 1.0630497932
 2882.2375488 7.0000000000 8.7271995544 8.7271995544 12.250000954 31646.128906  -999.250000 4.4552588463  -999.250000  -999.250000  -999.250000 237.01280212 6.3650879860 55.687198639  -999.250000  -999.250000 1.1649068594 1.0686023235 1.0647971630
 2882.3898926 7.0000000000 8.7252998352 8.7252998352 12.250000954 32116.193359  -999.250000 4.9385085106  -999.250000  -999.250000  -999.250000 223.41540527 6.0951933861 55.695201874  -999.250000  -999.250000 1.1545166969 1.0557205677 1.0543167591
 2882.5422363 7.0000000000 8.7305002213 8.7305002213 12.250000954 32179.722656  -999.250000 4.9751391411  -999.250000  -999.250000  -999.250000 226.80310059 6.0803961754 55.729400635  -999.250000  -999.250000 1.1490088701 1.0453166962 1.0453144312
 2882.6945801 7.0000000000 8.7077999115 8.7077999115 12.250000954 32445.486328  -999.250000 4.9929127693  -999.250000  -999.250000  -999.250000 226.96380615 6.1027765274 55.859294891  -999.250000  -999.250000 1.1570869684 1.0672646761 1.0617735386
 2882.8469238 7.0000000000 8.7138996124 8.7138996124 12.250000954 32548.070313  -999.250000 4.4699144363  -999.250000  -999.250000  -999.250000 228.45829773 6.4255719185 56.113300323  -999.250000  -999.250000 1.1622833014 1.0771683455 1.0710701942
 2882.9995117 7.0000000000 8.7150001526 8.7150001526 12.250000954 32931.066406  -999.250000 4.2881736755  -999.250000  -999.250000  -999.250000 236.12249756 6.5878219604 56.352100372  -999.250000  -999.250000 1.1718846560 1.0911775827 1.0890711546
 2883.1518555 7.0000000000 8.7215995789 8.7215995789 12.250000954 33029.949219  -999.250000 4.2378811836  -999.250000  -999.250000  -999.250000 239.64729309 6.6619391441 55.882701874  -999.250000  -999.250000 1.1757937670 1.0991871357 1.1010807753
 2883.3041992 7.0000000000 8.6711997986 8.6711997986 12.250000954 33184.355469  -999.250000 4.2849378586  -999.250000  -999.250000  -999.250000 253.44009399 6.7142505646 58.569198608  -999.250000  -999.250000 1.1658159494 1.0885171890 1.0852254629
 2883.4565430 7.0000000000 8.6948003769 8.6948003769 12.250000954 33219.382813  -999.250000 5.0039806366  -999.250000  -999.250000  -999.250000 248.50280762 6.4780769348 61.382595062  -999.250000  -999.250000 1.1532403231 1.0696604252 1.0572896004
 2883.6091309 7.0000000000 8.7131004333 8.7131004333 12.250000954 33371.441406  -999.250000 5.5407767296  -999.250000  -999.250000  -999.250000 254.08850098 6.2435007095 67.752197266  -999.250000  -999.250000 1.1346298456 1.0363533497 1.0283464193
 2883.7614746 7.0000000000 8.7192001343 8.7192001343 12.250000954 33409.589844  -999.250000 5.3741579056  -999.250000  -999.250000  -999.250000 253.51300049 6.1475968361 64.856796265  -999.250000  -999.250000 1.1317046881 1.0298104286 1.0226092339
 2883.9138184 7.0000000000 8.7269001007 8.7269001007 12.250000954 33615.171875  -999.250000 5.4290170670  -999.250000  -999.250000  -999.250000 249.45550537 5.8501791954 64.943702698  -999.250000  -999.250000 1.1412845850 1.0384860039 1.0398721695
 2884.0661621 7.0000000000 8.7304000854 8.7304000854 12.250000954 33672.031250  -999.250000 5.7120685577  -999.250000  -999.250000  -999.250000 244.37330627 5.4442095757 67.898002625  -999.250000  -999.250000 1.1479892731 1.0478849411 1.0539773703
 2884.2187500 7.0000000000 8.7256002426 8.7256002426 12.250000954 33514.589844  -999.250000 6.0043716431  -999.250000  -999.250000  -999.250000 242.05610657 5.0276699066 65.191902161  -999.250000  -999.250000 1.1536908150 1.0565860271 1.0618873835
 2884.3710938 7.0000000000 8.7299995422 8.7299995422 12.250000954 33466.894531  -999.250000 6.4325051308  -999.250000  -999.250000  -999.250000 246.58009338 4.6634855270 65.144897461  -999.250000  -999.250000 1.1531009674 1.0423228741 1.0403345823
 2884.5234375 7.0000000000 8.7263002396 8.7263002396 12.250000954 33423.875000  -999.250000 6.9809236526  -999.250000  -999.250000  -999.250000 244.31739807 4.3291687965 71.290100098  -999.250000  -999.250000 1.1596894264 1.0320163965 1.0258232355
 2884.6757813 7.0000000000 8.7293996811 8.7293996811 12.250000954 33444.839844  -999.250000 7.2113437653  -999.250000  -999.250000  -999.250000 251.25079346 4.2174053192 71.246200562  -999.250000  -999.250000 1.2008339167 1.1046832800 1.1032756567
 2884.8281250 7.0000000000 8.7334995270 8.7334995270 12.250000954 33472.988281  -999.250000 6.7571487427  -999.250000  -999.250000  -999.250000 245.81610107 4.7054309845 77.550300598  -999.250000  -999.250000 1.2287107706 1.1321122646 1.1432719231
