# LAS format log file from PETREL
# Project units are specified as depth units
#==================================================================
~Version information
VERS.   2.0:
WRAP.   NO:
#==================================================================
~Well
STRT .m      334.06079102 :
STOP .m      2807.3603516 :
STEP .m     0.00000000 :
NULL .        -999.250000 :
COMP.           : COMPANY
WELL.  7/1-1   : WELL
FLD.            : FIELD
LOC.            : LOCATION
SRVC.           : SERVICE COMPANY
DATE.  2018-09-11 14:49:04   : Log Export Date {yyyy-MM-dd HH:mm:ss}
PROV.           : PROVINCE
UWI.   7/1-1   : UNIQUE WELL ID
API.            : API NUMBER
#==================================================================
~Curve
DEPT .m                   : DEPTH
Lithology_geolink ._      : Lithology_geolink
DCAL .in                  : DCAL
CALI .in                  : CALI
BS .in                    : BS
ROP .m/h                  : ROP
DRHO .g/cm3               : DRHO
NPHI .m3/m3               : NPHI
RHOB .g/cm3               : RHOB
GR .gAPI                  : GR
DTC .us/ft                : DTC
DT .us/ft                 : DT
DTE .us/ft                : DTE
RDEP .ohm.m               : RDEP
SP .mV                    : SP
RSHA .ohm.m               : RSHA
RMED .ohm.m               : RMED
~Parameter
#==================================================================
~Ascii
# ...
 1010.7167969  -999.250000 18.219600677 18.219600677 17.500000000 0.4017039835  -999.250000  -999.250000  -999.250000 50.478599548  -999.250000 170.96188354 170.96290588 0.8600000739 35.970100403 0.9682977796 0.9724621177
 1010.8692017  -999.250000 18.217199326 18.217199326 17.500000000 0.4015026391  -999.250000  -999.250000  -999.250000 51.448001862  -999.250000 170.96501160 170.96600342 0.8601000309 36.195999146 0.9737977982 0.9779417515
 1011.0216064  -999.250000 18.215000153 18.215000153 17.500000000 0.4013026953  -999.250000  -999.250000  -999.250000 52.058200836  -999.250000 170.96810913 170.96910095 0.8602000475 36.240600586 0.9779983163 0.9776251912
 1011.1740112  -999.250000 18.214199066 18.214199066 17.500000000 0.4011026621  -999.250000  -999.250000  -999.250000 50.493198395  -999.250000 170.97120667 170.97219849 0.8603000641 35.187400818 0.9746013880 0.9726582170
 1011.3264160  -999.250000 18.213300705 18.213300705 17.500000000 0.4009026587  -999.250000  -999.250000  -999.250000 48.928100586  -999.250000 170.97430420 170.97529602 0.8605000377 34.134201050 0.9713013172 0.9692369103
 1011.4788208  -999.250000 18.212499619 18.212499619 17.500000000 0.4006039798  -999.250000  -999.250000  -999.250000 47.362998962  -999.250000 170.97740173 170.97839355 0.8605985641 33.081100464 0.9679013491 0.9677524567
 1011.6312256  -999.250000 18.215400696 18.215400696 17.500000000 0.4004026651  -999.250000  -999.250000  -999.250000 47.831199646  -999.250000 170.98051453 170.98150635 0.8569983244 33.494800568 0.9709987640 0.9672640562
 1011.7836304  -999.250000 18.218999863 18.218999863 17.500000000 0.4002026916  -999.250000  -999.250000  -999.250000 48.627899170  -999.250000 170.98361206 170.98460388 0.8527982831 34.145599365 0.9751983285 0.9712097049
 1011.9360352  -999.250000 18.222499847 18.222499847 17.500000000 0.4000026584  -999.250000  -999.250000  -999.250000 49.424598694  -999.250000 170.98670959 170.98770142 0.8485025167 34.796398163 0.9793983102 0.9786750674
 1012.0884399  -999.250000 18.223100662 18.223100662 17.500000000 0.3998026550  -999.250000  -999.250000  -999.250000 49.893299103  -999.250000 170.98980713 170.99079895 0.8516067266 34.699199677 0.9794999361 0.9829320312
 1012.2408447  -999.250000 18.221500397 18.221500397 17.500000000 0.3995038867  -999.250000  -999.250000  -999.250000 50.124500275  -999.250000 170.99290466 170.99389648 0.8600066900 34.060600281 0.9764999747 0.9781238437
 1012.3931885  -999.250000 18.219999313 18.219999313 17.500000000 0.3993026614  -999.250000  -999.250000  -999.250000 50.355701447  -999.250000 170.99600220 170.99699402 0.8683030009 33.422100067 0.9735999703 0.9713543057
 1012.5455933  -999.250000 18.215400696 18.215400696 17.500000000 0.3991026878  -999.250000  -999.250000  -999.250000 50.536300659  -999.250000 170.99909973 171.00009155 0.8757020235 33.090499878 0.9757999778 0.9736136198
 1012.6979980  -999.250000 18.203699112 18.203699112 17.500000000 0.3989026546  -999.250000  -999.250000  -999.250000 50.598400116  -999.250000 171.00221252 171.00320435 0.8808020353 33.478000641 0.9901999831 0.9854544401
 1012.8504028  -999.250000 18.192100525 18.192100525 17.500000000 0.3987026513  -999.250000  -999.250000  -999.250000 50.660499573  -999.250000 171.00531006 171.00630188 0.8858020306 33.865600586 1.0046999454 1.0039641857
 1013.0028076  -999.250000 18.180799484 18.180799484 17.500000000 0.3985026479  -999.250000  -999.250000  -999.250000 50.704700470  -999.250000 171.00840759 171.00939941 0.8907998204 34.242401123 1.0187000036 1.0197427273
 1013.1552124  -999.250000 18.189199448 18.189199448 17.500000000 0.3983026445  -999.250000  -999.250000  -999.250000 49.792098999  -999.250000 171.01150513 171.01249695 0.8902997971 34.048698425 1.0103000402 1.0217893124
 1013.3075562  -999.250000 18.197700500 18.197700500 17.500000000 0.4152658284  -999.250000  -999.250000  -999.250000 48.879867554  -999.250000 171.01460266 171.01559448 0.8898000121 33.855075836 1.0020033121 1.0105797052
 1013.4599609  -999.250000 18.206199646 18.206199646 17.500000000 0.4152040780  -999.250000  -999.250000  -999.250000 47.967166901  -999.250000 171.01771545 171.01870728 0.8892999887 33.661376953 0.9936033487 0.9948646426
 1013.6123657  -999.250000 18.198600769 18.198600769 17.500000000 0.4150027037  -999.250000  -999.250000  -999.250000 47.830154419  -999.250000 171.02079773 171.02178955 0.8804000020 33.777652740 0.9867027402 0.9856926203
 1013.7647705  -999.250000 18.185199738 18.185199738 17.500000000 0.4148027301  -999.250000  -999.250000  -999.250000 47.969444275  -999.250000 171.02391052 171.02490234 0.8684999943 34.004409790 0.9804025292 0.9808114171
 1013.9171143  -999.250000 18.171899796 18.171899796 17.500000000 0.4146028161  -999.250000  -999.250000  -999.250000 48.108688354  -999.250000 171.02700806 171.02799988 0.8565999866 34.231117249 0.9741050601 0.9745804071
 1014.0695190  -999.250000 18.169500351 18.169500351 17.500000000 0.4143041968  -999.250000  -999.250000  -999.250000 48.179141998  -999.250000 171.03010559 171.03109741 0.8514000177 34.040653229 0.9703030586 0.9670710564
 1014.2219238  -999.250000 18.180200577 18.180200577 17.500000000 0.4135109186  -999.250000  -999.250000  -999.250000 48.167507172  -999.250000 171.03320313 171.03419495 0.8540999889 33.353347778 0.9694007039 0.9620869160
 1014.3743286  -999.250000 18.190799713 18.190799713 17.500000000 0.3967314661  -999.250000  -999.250000  -999.250000 48.155803680  -999.250000 171.03630066 171.03729248 0.8568000197 32.665374756 0.9686002731 0.9646357298
 1014.5267334  -999.250000 18.196699142 18.196699142 17.500000000 0.3963027000  -999.250000  -999.250000  -999.250000 48.245464325  -999.250000 171.03941345 171.04040527 0.8598999977 32.220478058 0.9690998197 0.9691168666
 1014.6791382  -999.250000 18.180299759 18.180299759 17.500000000 0.3961027265  -999.250000  -999.250000  -999.250000 48.809974670  -999.250000 171.04249573 171.04348755 0.8643000126 32.913921356 0.9758972526 0.9709433317
 1014.8315430  -999.250000 18.163799286 18.163799286 17.500000000 0.3959027231  -999.250000  -999.250000  -999.250000 49.374675751  -999.250000 171.04560852 171.04660034 0.8687000275 33.607723236 0.9827972651 0.9788751602
 1014.9839478  -999.250000 18.147300720 18.147300720 17.500000000 0.4531102479  -999.250000  -999.250000  -999.250000 49.939376831  -999.250000 171.04870605 171.04969788 0.8730999827 34.301620483 0.9895972610 0.9896996617
 1015.1363525  -999.250000 18.137500763 18.137500763 17.500000000 0.4820119441  -999.250000  -999.250000  -999.250000 48.768367767  -999.250000 171.05180359 171.05279541 0.8808000088 34.551502228 0.9939982295 0.9971073866
 1015.2887573  -999.250000 18.128400803 18.128400803 17.500000000 0.4822027087  -999.250000  -999.250000  -999.250000 47.393051147  -999.250000 171.05490112 171.05589294 0.8888000250 34.749118805 0.9981983304 1.0016489029
 1015.4411621  -999.250000 18.119400024 18.119400024 17.500000000 0.4819041193  -999.250000  -999.250000  -999.250000 46.017650604  -999.250000 171.05801392 171.05900574 0.8968999982 34.946720123 1.0023983717 1.0035792589
 1015.5935669  -999.250000 18.123100281 18.123100281 17.500000000 0.4817027152  -999.250000  -999.250000  -999.250000 46.036193848  -999.250000 171.06111145 171.06210327 0.9039000273 35.331447601 1.0052988529 1.0040358305
 1015.7459717  -999.250000 18.134899139 18.134899139 17.500000000 0.4815027118  -999.250000  -999.250000  -999.250000 46.931041718  -999.250000 171.06419373 171.06518555 0.9103999734 35.833797455 1.0073992014 1.0042358637
 1015.8983765  -999.250000 18.146699905 18.146699905 17.500000000 0.4813027084  -999.250000  -999.250000  -999.250000 47.826141357  -999.250000 171.06730652 171.06829834 0.9168999791 36.336196899 1.0094991922 1.0084432364
 1016.0507202  -999.250000 18.137699127 18.137699127 17.500000000 0.4811027646  -999.250000  -999.250000  -999.250000 48.608272552  -999.250000 171.07040405 171.07139587 0.9204000235 36.398849487 1.0134967566 1.0118939877
 1016.2031250  -999.250000 18.087200165 18.087200165 17.500000000 0.4809028208  -999.250000  -999.250000  -999.250000 49.165653229  -999.250000 171.07357788 171.07460022 0.9179000258 35.582157135 1.0209940672 1.0187808275
