# LAS format log file from PETREL
# Project units are specified as depth units
#==================================================================
~Version information
VERS.   2.0:
WRAP.   NO:
#==================================================================
~Well
STRT .m      2859.8344727 :
STOP .m      3172.2546387 :
STEP .m     0.00000000 :
NULL .        -999.250000 :
COMP.           : COMPANY
WELL.  7/1-2 S   : WELL
FLD.            : FIELD
LOC.            : LOCATION
SRVC.           : SERVICE COMPANY
DATE.  2018-09-11 14:49:04   : Log Export Date {yyyy-MM-dd HH:mm:ss}
PROV.           : PROVINCE
UWI.   7/1-2 S   : UNIQUE WELL ID
API.            : API NUMBER
#==================================================================
~Curve
DEPT .m                   : DEPTH
Lithology_geolink ._      : Lithology_geolink
DCAL .in                  : DCAL
CALI .in                  : CALI
BS .in                    : BS
ROP .m/h                  : ROP
DRHO .g/cm3               : DRHO
THOR .ppm                 : THOR
NPHI .m3/m3               : NPHI
RHOB .g/cm3               : RHOB
PEF .b/e                  : PEF
GR .gAPI                  : GR
URAN .ppm                 : URAN
DTC .us/ft                : DTC
DT .us/ft                 : DT
DTS .us/ft                : DTS
RDEP .ohm.m               : RDEP
RSHA .ohm.m               : RSHA
RMED .ohm.m               : RMED
~Parameter
#==================================================================
~Ascii
 2859.8344727 7.0000000000 8.7343997955 8.7343997955 12.250000954 31971.054688  -999.250000 5.3226118088  -999.250000  -999.250000  -999.250000 267.26248169 6.4929938316 56.161701202  -999.250000  -999.250000 1.2556046247 1.2288246155 1.2244149446
 2859.9870605 7.0000000000 8.7276000977 8.7276000977 12.250000954 31951.181641  -999.250000 4.8137936592  -999.250000  -999.250000  -999.250000 257.19375610 6.7160358429 56.415000916  -999.250000  -999.250000 1.2407240868 1.1597112417 1.1426316500
 2860.1394043 7.0000000000 8.7416000366 8.7416000366 12.250000954 31938.332031  -999.250000 4.6593823433  -999.250000  -999.250000  -999.250000 252.23333740 6.9183135033 55.992198944  -999.250000  -999.250000 1.2288191319 1.1202632189 1.1196367741
 2860.2917480 7.0000000000 8.7395000458 8.7395000458 12.250000954 31918.042969  -999.250000 4.7376847267  -999.250000  -999.250000  -999.250000 263.43450928 7.1172842979 55.706001282  -999.250000  -999.250000 1.2463717461 1.2038656473 1.2077585459
 2860.4440918 7.0000000000 8.7389001846 8.7389001846 12.250000954 31905.871094  -999.250000 5.1141066551  -999.250000  -999.250000  -999.250000 272.16540527 7.3807511330 55.995498657  -999.250000  -999.250000 1.2378275394 1.2183538675 1.2316237688
 2860.5966797 7.0000000000 8.7445001602 8.7445001602 12.250000954 31885.125000  -999.250000 5.2603211403  -999.250000  -999.250000  -999.250000 270.58499146 7.7662110329 56.293800354  -999.250000  -999.250000 1.1416543722 1.0102341175 1.0152474642
 2860.7490234 7.0000000000 8.7281999588 8.7281999588 12.250000954 32014.035156  -999.250000 5.4879612923  -999.250000  -999.250000  -999.250000 267.50723267 7.8528647423 56.531299591  -999.250000  -999.250000 1.1128460169 0.9475001097 0.9366256595
 2860.9013672 7.0000000000 8.7419004440 8.7419004440 12.250000954 32247.041016  -999.250000 5.7601819038  -999.250000  -999.250000  -999.250000 276.30667114 7.6703796387 56.062301636  -999.250000  -999.250000 1.1510386467 1.0708018541 1.0690872669
 2861.0537109 7.0000000000 8.7362003326 8.7362003326 12.250000954 32353.509766  -999.250000 6.1144886017  -999.250000  -999.250000  -999.250000 277.20236206 7.3712582588 55.953701019  -999.250000  -999.250000 1.1726309061 1.0918331146 1.1023937464
 2861.2062988 7.0000000000 8.7160997391 8.7160997391 12.250000954 32559.480469  -999.250000 6.8180356026  -999.250000  -999.250000  -999.250000 274.42044067 6.5608634949 55.881801605  -999.250000  -999.250000 1.1999562979 1.1082737446 1.1216692924
 2861.3586426 7.0000000000 8.7079000473 8.7079000473 12.250000954 32634.304688  -999.250000 7.3539409637  -999.250000  -999.250000  -999.250000 276.26495361 5.9509577751 55.654396057  -999.250000  -999.250000 1.2054911852 1.1153886318 1.1230977774
 2861.5109863 7.0000000000 8.7412996292 8.7412996292 12.250000954 32789.000000  -999.250000 7.5448098183  -999.250000  -999.250000  -999.250000 276.26809692 5.6791181564 55.089599609  -999.250000  -999.250000 1.2142859697 1.1212905645 1.1120177507
 2861.6633301 7.0000000000 8.7362003326 8.7362003326 12.250000954 32849.281250  -999.250000 7.4506597519  -999.250000  -999.250000  -999.250000 267.09094238 5.5790238380 54.843101501  -999.250000  -999.250000 1.2268798351 1.1402696371 1.1362609863
 2861.8156738 7.0000000000 8.7260999680 8.7260999680 12.250000954 32983.148438  -999.250000 7.1174526215  -999.250000  -999.250000  -999.250000 265.88113403 5.6698617935 54.841499329  -999.250000  -999.250000 1.2468359470 1.1756863594 1.1811560392
 2861.9682617 7.0000000000 8.7238998413 8.7238998413 12.250000954 32991.468750  -999.250000 6.7487506866  -999.250000  -999.250000  -999.250000 264.68960571 5.8687553406 54.880001068  -999.250000  -999.250000 1.2570836544 1.1888790131 1.1964756250
 2862.1206055 7.0000000000 8.7286996841 8.7286996841 12.250000954 33010.652344  -999.250000 6.4295983315  -999.250000  -999.250000  -999.250000 264.74441528 6.0413155556 54.623001099  -999.250000  -999.250000 1.2388293743 1.1394792795 1.1342998743
 2862.2729492 7.0000000000 8.7168998718 8.7168998718 12.250000954 33137.980469  -999.250000 6.4716854095  -999.250000  -999.250000  -999.250000 265.08514404 6.0510897636 54.583000183  -999.250000  -999.250000 1.2354054451 1.1187331676 1.1133334637
 2862.4252930 7.0000000000 8.7042999268 8.7042999268 12.250000954 33220.875000  -999.250000 7.0807986259  -999.250000  -999.250000  -999.250000 263.89782715 5.8227386475 54.687797546  -999.250000  -999.250000 1.2563327551 1.1573758125 1.1541687250
 2862.5778809 7.0000000000 8.7082004547 8.7082004547 12.250000954 33171.289063  -999.250000 7.9162840843  -999.250000  -999.250000  -999.250000 266.91174316 5.5031375885 54.635299683  -999.250000  -999.250000 1.2809605598 1.1893488169 1.2043195963
 2862.7302246 7.0000000000 8.7265996933 8.7265996933 12.250000954 33136.484375  -999.250000 8.5120878220  -999.250000  -999.250000  -999.250000 276.17684937 5.1671514511 54.833698273  -999.250000  -999.250000 1.2734121084 1.1649391651 1.1830343008
 2862.8825684 7.0000000000 8.7358999252 8.7358999252 12.250000954 32993.136719  -999.250000 9.1156501770  -999.250000  -999.250000  -999.250000 263.16360474 4.6413431168 54.808795929  -999.250000  -999.250000 1.2397539616 1.1301558018 1.1367741823
 2863.0349121 7.0000000000 8.7094001770 8.7094001770 12.250000954 32886.917969  -999.250000 8.9705228806  -999.250000  -999.250000  -999.250000 253.38592529 4.3649625778 55.594398499  -999.250000  -999.250000 1.2330214977 1.1350840330 1.1346067190
 2863.1875000 7.0000000000 8.7087001801 8.7087001801 12.250000954 32926.675781  -999.250000 8.2691402435  -999.250000  -999.250000  -999.250000 236.78479004 4.1759934425 55.981899261  -999.250000  -999.250000 1.2147293091 1.1071448326 1.1020522118
 2863.3398438 7.0000000000 8.7281999588 8.7281999588 12.250000954 32958.402344  -999.250000 7.8721284866  -999.250000  -999.250000  -999.250000 232.30574036 4.1905474663 56.193298340  -999.250000  -999.250000 1.2282781601 1.1422436237 1.1428344250
 2863.4921875 7.0000000000 8.7231998444 8.7231998444 12.250000954 32878.039063  -999.250000 6.7977676392  -999.250000  -999.250000  -999.250000 228.16433716 4.3097863197 55.991203308  -999.250000  -999.250000 1.2497655153 1.1681585312 1.1667617559
 2863.6445313 7.0000000000 8.7258996964 8.7258996964 12.250000954 32810.207031  -999.250000 6.1186881065  -999.250000  -999.250000  -999.250000 228.21720886 4.4398021698 56.124603271  -999.250000  -999.250000 1.2679708004 1.2004482746 1.2004460096
 2863.7968750 7.0000000000 8.7448997498 8.7448997498 12.250000954 32923.632813  -999.250000 5.7650451660  -999.250000  -999.250000  -999.250000 233.35252380 4.5173645020 56.248600006  -999.250000  -999.250000 1.2874376774 1.2399733067 1.2418671846
 2863.9494629 6.0000000000 8.7340002060 8.7340002060 12.250000954 33025.878906  -999.250000 5.4332895279  -999.250000  -999.250000  -999.250000 234.66102600 4.5913934708 56.341999054  -999.250000  -999.250000 1.2987818718 1.2628633976 1.2727506161
 2864.1018066 6.0000000000 8.7172002792 8.7172002792 12.250000954 33049.816406  -999.250000 4.8288717270  -999.250000  -999.250000  -999.250000 210.84613037 4.4145283699 56.391899109  -999.250000  -999.250000 1.2588641644 1.1961071491 1.1852405071
 2864.2541504 6.0000000000 8.7265996933 8.7265996933 12.250000954 33072.531250  -999.250000 4.3027505875  -999.250000  -999.250000  -999.250000 196.50286865 4.3981885910 56.070400238  -999.250000  -999.250000 1.2166675329 1.1177256107 1.1237983704
 2864.4064941 6.0000000000 8.7325000763 8.7325000763 12.250000954 32967.566406  -999.250000 4.2034063339  -999.250000  -999.250000  -999.250000 186.65493774 4.4485769272 56.055400848  -999.250000  -999.250000 1.1932748556 1.0954710245 1.0933972597
 2864.5590820 6.0000000000 8.7369003296 8.7369003296 12.250000954 32897.554688  -999.250000 4.3153238297  -999.250000  -999.250000  -999.250000 191.48310852 4.7013049126 55.829799652  -999.250000  -999.250000 1.1834157705 1.0726366043 1.0688391924
 2864.7114258 6.0000000000 8.7224998474 8.7224998474 12.250000954 32851.101563  -999.250000 4.7387218475  -999.250000  -999.250000  -999.250000 200.23097229 5.1065926552 55.784198761  -999.250000  -999.250000 1.2031682730 1.0998562574 1.0970547199
