# LAS format log file from PETREL
# Project units are specified as depth units
#==================================================================
~Version information
VERS.   2.0:
WRAP.   NO:
#==================================================================
~Well
STRT .m      334.06079102 :
STOP .m      2807.3603516 :
STEP .m     0.00000000 :
NULL .        -999.250000 :
COMP.           : COMPANY
WELL.  7/1-1   : WELL
FLD.            : FIELD
LOC.            : LOCATION
SRVC.           : SERVICE COMPANY
DATE.  2018-09-11 14:49:04   : Log Export Date {yyyy-MM-dd HH:mm:ss}
PROV.           : PROVINCE
UWI.   7/1-1   : UNIQUE WELL ID
API.            : API NUMBER
#==================================================================
~Curve
DEPT .m                   : DEPTH
Lithology_geolink ._      : Lithology_geolink
DCAL .in                  : DCAL
CALI .in                  : CALI
BS .in                    : BS
ROP .m/h                  : ROP
DRHO .g/cm3               : DRHO
NPHI .m3/m3               : NPHI
RHOB .g/cm3               : RHOB
GR .gAPI                  : GR
DTC .us/ft                : DTC
DT .us/ft                 : DT
DTE .us/ft                : DTE
RDEP .ohm.m               : RDEP
SP .mV                    : SP
RSHA .ohm.m               : RSHA
RMED .ohm.m               : RMED
~Parameter
#==================================================================
~Ascii
# ...
 1174.2419434  -999.250000 17.894399643 17.894399643 17.500000000 0.5320079923  -999.250000  -999.250000  -999.250000 52.450096130  -999.250000 174.29060364 174.29159546 0.8636000156 36.911777496 0.9491971731 0.9542820454
 1174.3944092  -999.250000 17.816999435 17.816999435 17.500000000 0.5314091444  -999.250000  -999.250000  -999.250000 52.454799652  -999.250000 174.29370117 174.29469299 0.8651999831 35.817100525 0.9527999759 0.9564516544
 1174.5467529  -999.250000 17.731599808 17.731599808 17.500000000 0.5559012890  -999.250000  -999.250000  -999.250000 52.622264862  -999.250000 174.29681396 174.29780579 0.8671000004 35.183506012 0.9540989995 0.9535025954
 1174.6992188  -999.250000 17.627799988 17.627799988 17.500000000 0.6676781178  -999.250000  -999.250000  -999.250000 53.157798767  -999.250000 174.29991150 174.30090332 0.8697000146 35.586399078 0.9501000047 0.9463896751
 1174.8515625  -999.250000 17.524000168 17.524000168 17.500000000 0.6688095927  -999.250000  -999.250000  -999.250000 53.692771912  -999.250000 174.30299377 174.30398560 0.8723999858 35.989376068 0.9461032152 0.9416927695
 1175.0040283  -999.250000 17.425800323 17.425800323 17.500000000 0.6682091951  -999.250000  -999.250000  -999.250000 54.201301575  -999.250000 174.30610657 174.30709839 0.8751000166 36.369800568 0.9423000216 0.9422646761
 1175.1563721  -999.250000 17.534599304 17.534599304 17.500000000 0.6677076221  -999.250000  -999.250000  -999.250000 53.694007874  -999.250000 174.30920410 174.31019592 0.8801000118 35.888385773 0.9457972050 0.9456509948
 1175.3087158  -999.250000 17.643299103 17.643299103 17.500000000 0.6671096683  -999.250000  -999.250000  -999.250000 53.186309814  -999.250000 174.31230164 174.31329346 0.8852000237 35.406585693 0.9491972327 0.9478513002
 1175.4611816  -999.250000 17.752099991 17.752099991 17.500000000 0.6666076183  -999.250000  -999.250000  -999.250000 52.678607941  -999.250000 174.31541443 174.31640625 0.8902000189 34.924785614 0.9525972605 0.9519026279
 1175.6135254  -999.250000 17.816600800 17.816600800 17.500000000 0.6660096645  -999.250000  -999.250000  -999.250000 52.129737854  -999.250000 174.31851196 174.31950378 0.8955000043 35.059093475 0.9565967917 0.9591717720
 1175.7659912  -999.250000 17.865999222 17.865999222 17.500000000 0.6654091477  -999.250000  -999.250000  -999.250000 51.566299438  -999.250000 174.32160950 174.32260132 0.9006999731 35.404499054 0.9609000087 0.9654706120
 1175.9183350  -999.250000 17.915399551 17.915399551 17.500000000 0.6648095846  -999.250000  -999.250000  -999.250000 51.003749847  -999.250000 174.32469177 174.32568359 0.9060000181 35.749526978 0.9651965499 0.9678115249
 1176.0708008  -999.250000 17.949199677 17.949199677 17.500000000 0.6643076539  -999.250000  -999.250000  -999.250000 50.549900055  -999.250000 174.32780457 174.32879639 0.9110000134 36.369800568 0.9681000113 0.9660607576
 1176.2231445  -999.250000 17.964899063 17.964899063 17.500000000 0.6637095809  -999.250000  -999.250000  -999.250000 50.223064423  -999.250000 174.33090210 174.33189392 0.9156000018 37.305747986 0.9693989754 0.9644884467
 1176.3756104  -999.250000 17.980600357 17.980600357 17.500000000 0.6632076502  -999.250000  -999.250000  -999.250000 49.895801544  -999.250000 174.33401489 174.33500671 0.9203000069 38.243099213 0.9707000256 0.9673268199
 1176.5279541  -999.250000 18.000099182 18.000099182 17.500000000 0.6626095772  -999.250000  -999.250000  -999.250000 50.190963745  -999.250000 174.33711243 174.33810425 0.9248999953 38.991901398 0.9722987413 0.9727410674
 1176.6804199  -999.250000 18.036100388 18.036100388 17.500000000 0.6620091200  -999.250000  -999.250000  -999.250000 53.252700806  -999.250000 174.34020996 174.34120178 0.9294000268 38.909900665 0.9747999907 0.9798340201
 1176.8327637  -999.250000 18.072099686 18.072099686 17.500000000 0.6614096165  -999.250000  -999.250000  -999.250000 56.311645508  -999.250000 174.34330750 174.34429932 0.9338999987 38.827365875 0.9772979617 0.9850859046
 1176.9852295  -999.250000 18.108100891 18.108100891 17.500000000 0.6609076262  -999.250000  -999.250000  -999.250000 59.375598907  -999.250000 174.34638977 174.34738159 0.9383999705 38.744701385 0.9797999859 0.9808896780
 1177.1375732  -999.250000 18.107500076 18.107500076 17.500000000 0.6603096128  -999.250000  -999.250000  -999.250000 59.656776428  -999.250000 174.34950256 174.35049438 0.9391000271 38.653373718 0.9756033421 0.9738137126
 1177.2899170  -999.250000 18.103099823 18.103099823 17.500000000 0.6598079801  -999.250000  -999.250000  -999.250000 59.639514923  -999.250000 174.35260010 174.35359192 0.9393000007 38.560974121 0.9707039595 0.9710205197
 1177.4423828  -999.250000 18.098600388 18.098600388 17.500000000 0.6592091322  -999.250000  -999.250000  -999.250000 59.622016907  -999.250000 174.35577393 174.35679626 0.9394999743 38.468570709 0.9658039212 0.9664856195
 1177.5947266  -999.250000 18.112699509 18.112699509 17.500000000 0.6587079763  -999.250000  -999.250000  -999.250000 59.040065765  -999.250000 174.35884094 174.35980225 0.9377999902 37.467899323 0.9639015794 0.9627333283
 1177.7471924  -999.250000 18.137899399 18.137899399 17.500000000 0.6580107212  -999.250000  -999.250000  -999.250000 58.114101410  -999.250000 174.36190796 174.36289978 0.9348000288 35.913501740 0.9638000131 0.9622398615
 1177.8995361  -999.250000 18.163200378 18.163200378 17.500000000 0.6575080156  -999.250000  -999.250000  -999.250000 57.189239502  -999.250000 174.36508179 174.36610413 0.9318000078 34.361145020 0.9636001587 0.9623320699
 1178.0520020  -999.250000 18.183099747 18.183099747 17.500000000 0.6569091678  -999.250000  -999.250000  -999.250000 56.714298248  -999.250000 174.36813354 174.36907959 0.9294999838 33.529499054 0.9660999775 0.9656987190
 1178.2043457  -999.250000 18.192499161 18.192499161 17.500000000 0.6564080119  -999.250000  -999.250000  -999.250000 57.111183167  -999.250000 174.37126160 174.37229919 0.9283999801 34.094947815 0.9733941555 0.9725999832
 1178.3568115  -999.250000 18.201900482 18.201900482 17.500000000 0.6558091044  -999.250000  -999.250000  -999.250000 57.508800507  -999.250000 174.37440491 174.37539673 0.9272999763 34.661399841 0.9807999730 0.9804699421
 1178.5091553  -999.250000 18.211500168 18.211500168 17.500000000 0.6553080082  -999.250000  -999.250000  -999.250000 57.860416412  -999.250000 174.37744141 174.37840271 0.9258000255 35.248432159 0.9875946045 0.9883000255
 1178.6616211  -999.250000 18.224899292 18.224899292 17.500000000 0.6546106935  -999.250000  -999.250000  -999.250000 57.507198334  -999.250000 174.38058472 174.38160706 0.9196000099 36.171699524 0.9858999848 0.9927033186
 1178.8139648  -999.250000 18.238300323 18.238300323 17.500000000 0.6541079879  -999.250000  -999.250000  -999.250000 57.153984070  -999.250000 174.38363647 174.38459778 0.9133999944 37.093761444 0.9841014147 0.9907462001
 1178.9664307  -999.250000 18.251699448 18.251699448 17.500000000 0.6535091400  -999.250000  -999.250000  -999.250000 56.800201416  -999.250000 174.38677979 174.38780212 0.9071999788 38.017200470 0.9824000001 0.9836175442
 1179.1187744  -999.250000 18.247299194 18.247299194 17.500000000 0.7205095291  -999.250000  -999.250000  -999.250000 56.402118683  -999.250000 174.38989258 174.39088440 0.9046000242 37.938365936 0.9738069177 0.9749861956
 1179.2711182  -999.250000 18.237800598 18.237800598 17.500000000 0.8417432904  -999.250000  -999.250000  -999.250000 55.991127014  -999.250000 174.39300537 174.39399719 0.9028999805 37.576290131 0.9633083940 0.9632307291
 1179.4235840  -999.250000 18.228300095 18.228300095 17.500000000 0.8945143819  -999.250000  -999.250000  -999.250000 55.580127716  -999.250000 174.39610291 174.39709473 0.9013000131 37.214088440 0.9528083801 0.9515907764
 1179.5759277  -999.250000 18.223600388 18.223600388 17.500000000 0.8947095275  -999.250000  -999.250000  -999.250000 55.077804565  -999.250000 174.39921570 174.40020752 0.9000999928 37.151451111 0.9473044276 0.9461295009
 1179.7283936  -999.250000 18.223600388 18.223600388 17.500000000 0.9114412069  -999.250000  -999.250000  -999.250000 54.483100891  -999.250000 174.40231323 174.40330505 0.8992999792 37.390399933 0.9467999935 0.9451320171
