# LAS format log file from PETREL
# Project units are specified as depth units
#==================================================================
~Version information
VERS.   2.0:
WRAP.   NO:
#==================================================================
~Well
STRT .m      334.06079102 :
STOP .m      2807.3603516 :
STEP .m     0.00000000 :
NULL .        -999.250000 :
COMP.           : COMPANY
WELL.  7/1-1   : WELL
FLD.            : FIELD
LOC.            : LOCATION
SRVC.           : SERVICE COMPANY
DATE.  2018-09-11 14:49:04   : Log Export Date {yyyy-MM-dd HH:mm:ss}
PROV.           : PROVINCE
UWI.   7/1-1   : UNIQUE WELL ID
API.            : API NUMBER
#==================================================================
~Curve
DEPT .m                   : DEPTH
Lithology_geolink ._      : Lithology_geolink
DCAL .in                  : DCAL
CALI .in                  : CALI
BS .in                    : BS
ROP .m/h                  : ROP
DRHO .g/cm3               : DRHO
NPHI .m3/m3               : NPHI
RHOB .g/cm3               : RHOB
GR .gAPI                  : GR
DTC .us/ft                : DTC
DT .us/ft                 : DT
DTE .us/ft                : DTE
RDEP .ohm.m               : RDEP
SP .mV                    : SP
RSHA .ohm.m               : RSHA
RMED .ohm.m               : RMED
~Parameter
#==================================================================
~Ascii
# ...
 1664.8175049  -999.250000 13.288398743 13.288398743 12.250000954 0.6652246714  -999.250000  -999.250000  -999.250000 57.524505615 151.55480957 150.76464844 150.61987305 0.6938999891 30.592866898 0.6864998341 0.6863678694
 1664.9698486  -999.250000 13.373000145 13.373000145 12.250000954 0.6641255021  -999.250000  -999.250000  -999.250000 58.515514374 151.28303528 151.08970642 151.31039429 0.6945999861 30.883234024 0.6867995262 0.6864678264
 1665.1223145  -999.250000 13.312600136 13.312600136 12.250000954 0.6630246639  -999.250000  -999.250000  -999.250000 58.425872803 151.68338013 152.02510071 152.36045837 0.6977999806 30.927265167 0.6881988645 0.6871107817
 1665.2746582  -999.250000 13.216600418 13.216600418 12.250000954 0.6620224118  -999.250000  -999.250000  -999.250000 58.069473267 152.24879456 152.81880188 153.03352356 0.7014999986 30.910526276 0.6897974610 0.6892309785
 1665.4271240  -999.250000 13.120499611 13.120499611 12.250000954 0.6609246731  -999.250000  -999.250000  -999.250000 57.712287903 152.81526184 153.13603210 153.18368530 0.7052000165 30.893613815 0.6914986372 0.6916609406
 1665.5794678  -999.250000 13.097499847 13.097499847 12.250000954 0.6598246694  -999.250000  -999.250000  -999.250000 57.240154266 152.92294312 152.77313232 152.58036804 0.7091000080 30.937129974 0.6931972504 0.6938252449
 1665.7319336  -999.250000 13.141300201 13.141300201 12.250000954 0.6587246656  -999.250000  -999.250000  -999.250000 56.661365509 152.61134338 151.97007751 151.68371582 0.7131000161 31.036119461 0.6950984597 0.6959258318
 1665.8842773  -999.250000 13.185199738 13.185199738 12.250000954 0.8276230693  -999.250000  -999.250000  -999.250000 56.082866669 152.29943848 151.30860901 151.13244629 0.7171000242 31.135120392 0.6969984770 0.6974822879
 1666.0367432  -999.250000 13.196000099 13.196000099 12.250000954 0.8304246664  -999.250000  -999.250000  -999.250000 55.330802917 152.05209351 152.56129456 153.23301697 0.7218999863 31.199548721 0.6988984346 0.6986468434
 1666.1890869  -999.250000 13.103099823 13.103099823 12.250000954 0.8293246627  -999.250000  -999.250000  -999.250000 54.033840179 152.00814819 153.60658264 153.78155518 0.7293000221 31.155235291 0.7011981606 0.6992715001
 1666.3415527  -999.250000 13.010199547 13.010199547 12.250000954 0.8283224106  -999.250000  -999.250000  -999.250000 52.736335754 151.96423340 153.35980225 153.16139221 0.7365999818 31.110937119 0.7033982277 0.7015725970
 1666.4938965  -999.250000 12.917201042 12.917201042 12.250000954 0.8272246718  -999.250000  -999.250000  -999.250000 51.438842773 151.92033386 151.99394226 151.44487000 0.7439000010 31.066535950 0.7056981325 0.7053147554
 1666.6463623  -999.250000 12.923500061 12.923500061 12.250000954 0.8261246681  -999.250000  -999.250000  -999.250000 50.583984375 143.22207642 140.94439697 136.02255249 0.7452999949 30.914722443 0.7104961872 0.7093836665
 1666.7987061  -999.250000 12.933898926 12.933898926 12.250000954 0.8250246644  -999.250000  -999.250000  -999.250000 49.747673035 134.16217041 127.72085571 123.82517242 0.7465000153 30.758325577 0.7152961493 0.7140933871
 1666.9511719  -999.250000 12.944199562 12.944199562 12.250000954 0.8324296474  -999.250000  -999.250000  -999.250000 48.911373138 125.10195923 122.71060944 122.19269562 0.7476000190 30.602025986 0.7201960683 0.7201130986
 1667.1035156  -999.250000 12.962599754 12.962599754 12.250000954 0.8400294781  -999.250000  -999.250000  -999.250000 48.389019012 127.12866211 122.54323578 122.70858765 0.7434999943 30.501380920 0.7212991118 0.7274937630
 1667.2558594  -999.250000 12.984900475 12.984900475 12.250000954 0.8391246796  -999.250000  -999.250000  -999.250000 48.015098572 134.38087463 127.14503479 129.22705078 0.7368999720 30.427019119 0.7205012441 0.7292540669
 1667.4083252  -999.250000 13.007100105 13.007100105 12.250000954 0.8380246758  -999.250000  -999.250000  -999.250000 47.640800476 141.64878845 140.43647766 145.69960022 0.7303000093 30.352560043 0.7197006345 0.7250314951
 1667.5606689  -999.250000 13.026100159 13.026100159 12.250000954 0.8455272913  -999.250000  -999.250000  -999.250000 48.231948853 146.14349365 146.44398499 146.78717041 0.7218999863 30.314661026 0.7153070569 0.7132233381
 1667.7131348  -999.250000 13.040200233 13.040200233 12.250000954 0.8531296253  -999.250000  -999.250000  -999.250000 50.279861450 146.47933960 146.87088013 146.90940857 0.7106999755 30.331686020 0.7055078745 0.6996058822
 1667.8654785  -999.250000 13.054300308 13.054300308 12.250000954 0.8522246480  -999.250000  -999.250000  -999.250000 52.328460693 146.80813599 146.99151611 147.03010559 0.6995000243 30.348686218 0.6956079006 0.6909206510
 1668.0179443  -999.250000 13.066300392 13.066300392 12.250000954 0.8511247039  -999.250000  -999.250000  -999.250000 54.074905396 147.05870056 147.11218262 147.15071106 0.6888999939 30.374979019 0.6865072846 0.6860163212
 1668.1702881  -999.250000 13.062599182 13.062599182 12.250000954 0.8500247002  -999.250000  -999.250000  -999.250000 53.564411163 146.72438049 146.98635864 146.90899658 0.6836000085 30.469923019 0.6832026243 0.6826639175
 1668.3227539  -999.250000 13.058798790 13.058798790 12.250000954 0.8489246964  -999.250000  -999.250000  -999.250000 53.052211761 146.38967896 146.57429504 146.41709900 0.6783000231 30.564924240 0.6798027158 0.6803421378
 1668.4750977  -999.250000 13.055000305 13.055000305 12.250000954 0.8478246927  -999.250000  -999.250000  -999.250000 52.540012360 146.05487061 146.08239746 145.92509460 0.6729999781 30.659923553 0.6765026450 0.6763744354
 1668.6275635  -999.250000 13.124401093 13.124401093 12.250000954 0.8467246890  -999.250000  -999.250000  -999.250000 51.931789398 145.88983154 145.75143433 145.67019653 0.6721000075 30.651006699 0.6760004163 0.6739173532
 1668.7799072  -999.250000 13.207900047 13.207900047 12.250000954 0.8457224369  -999.250000  -999.250000  -999.250000 51.305004120 145.75801086 145.16658020 144.92999268 0.6719999909 30.621723175 0.6760999560 0.6735678911
 1668.9323730  -999.250000 13.291400909 13.291400909 12.250000954 0.8446246982  -999.250000  -999.250000  -999.250000 50.678104401 145.62611389 145.33137512 145.51982117 0.6719999909 30.592523575 0.6761999130 0.6753652692
 1669.0847168  -999.250000 13.318699837 13.318699837 12.250000954 0.8435246944  -999.250000  -999.250000  -999.250000 50.123542786 146.01579285 145.77194214 145.89021301 0.6707999706 30.658145905 0.6759002209 0.6772180200
 1669.2370605  -999.250000 13.301100731 13.301100731 12.250000954 1.6232053041  -999.250000  -999.250000  -999.250000 49.626998901 146.82080078 146.36518860 146.58798218 0.6686999798 30.799373627 0.6753009558 0.6772252917
 1669.3895264  -999.250000 13.283499718 13.283499718 12.250000954 1.6399270296  -999.250000  -999.250000  -999.250000 49.129695892 147.62756348 147.40478516 147.78813171 0.6665999889 30.940887451 0.6747004986 0.6758462191
 1669.5418701  -999.250000 13.248500824 13.248500824 12.250000954 1.6388247013  -999.250000  -999.250000  -999.250000 49.321990967 148.55630493 148.49298096 148.82333374 0.6654000282 31.056215286 0.6741009355 0.6736711860
 1669.6943359  -999.250000 13.167400360 13.167400360 12.250000954 1.6376268864  -999.250000  -999.250000  -999.250000 51.327194214 149.81079102 149.51339722 149.83691406 0.6662999988 31.103061676 0.6736004353 0.6715421081
 1669.8466797  -999.250000 13.086299896 13.086299896 12.250000954 1.6365246773  -999.250000  -999.250000  -999.250000 53.332088470 151.06378174 150.53880310 150.86785889 0.6672000289 31.149724960 0.6731007695 0.6706284881
 1669.9991455  -999.250000 13.005200386 13.005200386 12.250000954 1.6353269815  -999.250000  -999.250000  -999.250000 55.340293884 152.31878662 152.30627441 152.98150635 0.6680999994 31.196361542 0.6726003885 0.6726047397
 1670.1514893  -999.250000 13.046299934 13.046299934 12.250000954 0.9217759371  -999.250000  -999.250000  -999.250000 55.749870300 152.45028687 153.37017822 153.55224609 0.6811000109 31.166124344 0.6791946888 0.6777399778
 1670.3039551  -999.250000 13.088100433 13.088100433 12.250000954 0.6323613524  -999.250000  -999.250000  -999.250000 56.149780273 152.57499695 153.93879700 154.12023926 0.6942999959 31.135425568 0.6857947111 0.6835699677
