# LAS format log file from PETREL
# Project units are specified as depth units
#==================================================================
~Version information
VERS.   2.0:
WRAP.   NO:
#==================================================================
~Well
STRT .m      334.06079102 :
STOP .m      2807.3603516 :
STEP .m     0.00000000 :
NULL .        -999.250000 :
COMP.           : COMPANY
WELL.  7/1-1   : WELL
FLD.            : FIELD
LOC.            : LOCATION
SRVC.           : SERVICE COMPANY
DATE.  2018-09-11 14:49:04   : Log Export Date {yyyy-MM-dd HH:mm:ss}
PROV.           : PROVINCE
UWI.   7/1-1   : UNIQUE WELL ID
API.            : API NUMBER
#==================================================================
~Curve
DEPT .m                   : DEPTH
Lithology_geolink ._      : Lithology_geolink
DCAL .in                  : DCAL
CALI .in                  : CALI
BS .in                    : BS
ROP .m/h                  : ROP
DRHO .g/cm3               : DRHO
NPHI .m3/m3               : NPHI
RHOB .g/cm3               : RHOB
GR .gAPI                  : GR
DTC .us/ft                : DTC
DT .us/ft                 : DT
DTE .us/ft                : DTE
RDEP .ohm.m               : RDEP
SP .mV                    : SP
RSHA .ohm.m               : RSHA
RMED .ohm.m               : RMED
~Parameter
#==================================================================
~Ascii
# ...
 2476.8046875 10.000000000 12.701199532 12.701199532 12.250000954 4.0395855904 -0.000941000 0.1442690045 2.4623999596 9.5490703583 71.418617249 71.506324768 71.608886719 0.9244999886 10.918928146 1.1148098707 1.1198229790
 2476.9570313 10.000000000 12.732299805 12.732299805 12.250000954 4.0395541191 -0.003422000 0.1445100009 2.4565999508 9.3180704117 71.719017029 71.746383667 71.810676575 0.9083999991 11.525427818 1.1085101366 1.1092076302
 2477.1093750 10.000000000 12.755100250 12.755100250 12.250000954 4.0379538536 -0.003669000 0.1418759972 2.4525001049 9.4271249771 71.683059692 71.715324402 71.670425415 0.8974000216 11.404789925 1.1038150787 1.1020749807
 2477.2619629 10.000000000 12.774800301 12.774800301 12.250000954 4.0363516808 -0.003042000 0.1381189972 2.4491000175 9.6697998047 71.514999390 71.475585938 71.384002686 0.8883000016 10.998551369 1.0996066332 1.0990409851
 2477.4143066 10.000000000 12.794500351 12.794500351 12.250000954 4.0663552284 -0.002416000 0.1343619972 2.4456999302 9.9120121002 71.347167969 71.176284790 71.078788757 0.8791999817 10.592051506 1.0955065489 1.0956864357
 2477.5666504 10.000000000 12.775699615 12.775699615 12.250000954 4.0506820679 -0.001342000 0.1325950027 2.4456000328 9.9300718307 71.549270630 71.560127258 71.786262512 0.8772000074 10.453821182 1.0907077789 1.0910784006
 2477.7189941 10.000000000 12.707599640 12.707599640 12.250000954 3.9544317722 0.0003060000 0.1333760023 2.4495999813 9.6600341797 72.226318359 72.163566589 72.340118408 0.8842999935 10.659439087 1.0852175951 1.0839413404
 2477.8715820 10.000000000 12.639499664 12.639499664 12.250000954 3.4619956017 0.0019530000 0.1341580003 2.4535999298 9.3891000748 72.905197144 72.802383423 73.019500732 0.8914999962 10.866369247 1.0797088146 1.0780384541
 2478.0239258 10.000000000 12.580599785 12.580599785 12.250000954 3.4442536831 0.0033549999 0.1347140074 2.4567000866 9.2354001999 73.406898499 73.608955383 73.887001038 0.8945000172 11.042119026 1.0746082067 1.0751410723
 2478.1762695 10.000000000 12.571000099 12.571000099 12.250000954 3.4427506924 0.0034429999 0.1340669990 2.4549002647 9.7057466507 72.966903687 73.255821228 72.959587097 0.8751999736 11.052383423 1.0721040964 1.0744999647
 2478.3286133 10.000000000 12.561499596 12.561499596 12.250000954 3.4411537647 0.0035310001 0.1334200054 2.4530999660 10.176844597 72.526306152 72.301849365 71.993850708 0.8557999730 11.062367439 1.0696079731 1.0738221407
 2478.4812012 10.000000000 12.552000046 12.552000046 12.250000954 3.4392607212 0.0036190001 0.1327739954 2.4512999058 10.648699760 72.084999084 72.024604797 72.039802551 0.8364999890 11.072484016 1.0671041012 1.0673846006
 2478.6335449 10.000000000 12.563099861 12.563099861 12.250000954 3.4379436970 0.0033480001 0.1368310004 2.4449999332 10.407400131 72.962898254 72.843704224 73.222900391 0.8522999883 10.820604324 1.0569163561 1.0523371696
 2478.7858887 10.000000000 12.577199936 12.577199936 12.250000954 3.4363539219 0.0030270000 0.1415510029 2.4381000996 10.066346169 74.024497986 74.025512695 74.402206421 0.8729000092 10.531463623 1.0455182791 1.0358134508
 2478.9382324 10.000000000 12.591199875 12.591199875 12.250000954 3.4347538948 0.0027060001 0.1462710053 2.4310998917 9.7248477936 75.087890625 75.210510254 75.588996887 0.8935999870 10.242263794 1.0341182947 1.0294120312
 2479.0905762 10.000000000 12.609199524 12.609199524 12.250000954 3.4475524426 0.0033900000 0.1408160031 2.4409000874 9.7765159607 74.357177734 75.040443420 74.782096863 0.9190999866 10.322241783 1.0478558540 1.0356466770
 2479.2431641 10.000000000 12.630000114 12.630000114 12.250000954 3.4725859165 0.0047559999 0.1284590065 2.4619998932 10.096199989 72.403198242 73.329208374 72.646102905 0.9477999806 10.653569221 1.0786505938 1.0641089678
 2479.3955078 10.000000000 12.650699615 12.650699615 12.250000954 2.7786550522 0.0061209998 0.1161030009 2.4830999374 10.415288925 70.453529358 70.565109253 69.588401794 0.9765999913 10.985168457 1.1094506979 1.1037465334
 2479.5478516 10.000000000 12.678799629 12.678799629 12.250000954 1.4947711229 0.0077140001 0.1082289964 2.4946000576 10.523926735 69.102363586 68.716613770 68.309745789 0.9947000146 11.190971375 1.1346595287 1.1446932554
 2479.7001953 10.000000000 12.722900391 12.722900391 12.250000954 1.4504168034 0.0097989999 0.1101069972 2.4848999977 10.173163414 69.060760498 68.133613586 68.051910400 0.9897000194 11.123119354 1.1473593712 1.1747115850
 2479.8527832 10.000000000 12.767100334 12.767100334 12.250000954 1.4498192072 0.0118850004 0.1119849980 2.4751999378 9.8211002350 69.021102905 68.213676453 68.290000916 0.9847999811 11.054609299 1.1600795984 1.1837192774
 2480.0051270 10.000000000 12.809900284 12.809900284 12.250000954 1.4492201805 0.0140840001 0.1140469983 2.4656999111 9.4711999893 69.037300110 69.014472961 69.356201172 0.9796000123 10.996093750 1.1713818312 1.1711537838
 2480.1574707 10.000000000 12.815200806 12.815200806 12.250000954 1.4487167597 0.0195000004 0.1213070005 2.4609999657 9.1639919281 70.629348755 70.392890930 70.879455566 0.9699000120 11.216345787 1.1436445713 1.1455298662
 2480.3098145 10.000000000 12.820500374 12.820500374 12.250000954 1.4481201172 0.0249160007 0.1285669953 2.4563000202 8.8563928604 72.223945618 72.083847046 72.647964478 0.9600999951 11.436693192 1.1158889532 1.1169124842
 2480.4624023 10.000000000 12.825900078 12.825900078 12.250000954 1.4591345787 0.0303320009 0.1358270049 2.4516000748 8.5481996536 73.821197510 73.793334961 74.331001282 0.9502999783 11.657846451 1.0880446434 1.0872474909
 2480.6147461 10.000000000 12.802399635 12.802399635 12.250000954 1.4655883312 0.0315750018 0.1356080025 2.4593999386 8.4024000168 73.833099365 74.105278015 73.998802185 0.9837999940 11.555464745 1.0873010159 1.0734550953
 2480.7670898 10.000000000 12.769499779 12.769499779 12.250000954 1.4653167725 0.0314510018 0.1329399943 2.4711999893 8.3097486496 73.327507019 73.415939331 73.142372131 1.0314999819 11.346735001 1.0954868793 1.0773342848
 2480.9194336 10.000000000 12.736599922 12.736599922 12.250000954 1.4540903568 0.0313259996 0.1302729994 2.4830000401 8.2169485092 72.821006775 72.801528931 72.642204285 1.0792000294 11.137834549 1.1036869287 1.0944033861
 2481.0720215 10.000000000 12.702599525 12.702599525 12.250000954 1.3842012882 0.0299670007 0.1258080006 2.4930999279 8.2705001831 72.213600159 72.356979370 72.223800659 1.1545000076 11.212499619 1.1284602880 1.1283794641
 2481.2243652 10.000000000 12.667401314 12.667401314 12.250000954 1.2234467268 0.0272279996 0.1193360016 2.5011999607 8.4876003265 71.495002747 71.791046143 71.587402344 1.2606999874 11.604599953 1.1719303131 1.1695345640
 2481.3767090 10.000000000 12.632100105 12.632100105 12.250000954 1.2177168131 0.0244900007 0.1128640026 2.5092999935 8.7044525146 70.777549744 70.956634521 70.660591125 1.3668999672 11.995972633 1.2153304815 1.2113249302
 2481.5290527 10.000000000 12.604299545 12.604299545 12.250000954 1.2172168493 0.0233600009 0.1057540029 2.5193998814 8.8710327148 70.001945496 70.019363403 69.719108582 1.4828000069 12.398055077 1.2631233931 1.2628971338
 2481.6813965 10.000000000 12.607600212 12.607600212 12.250000954 1.2166200876 0.0290159993 0.0959500000 2.5383000374 8.8246746063 68.985534668 68.658012390 68.160705566 1.6399999857 12.842188835 1.3286896944 1.3252658844
 2481.8339844 9.0000000000 12.610799789 12.610799789 12.250000954 1.2099211216 0.0346719995 0.0861459970 2.5571999550 8.7777996063 67.967002869 67.416389465 67.067298889 1.7970999479 13.287199974 1.3945945501 1.3906025887
 2481.9863281 9.0000000000 12.614100456 12.614100456 12.250000954 1.1970400810 0.0403279997 0.0763420016 2.5759999752 8.7311744690 66.951828003 66.884651184 66.798927307 1.9542000294 13.730789185 1.4602947235 1.4621896744
 2482.1386719 9.0000000000 12.643500328 12.643500328 12.250000954 1.1960201263 0.0329650007 0.0671090037 2.5783998966 9.1731901169 65.622825623 66.133827209 65.821861267 2.0813000202 14.470014572 1.5433667898 1.5440353155
 2482.2910156 9.0000000000 12.675499916 12.675499916 12.250000954 1.1955168247 0.0243250001 0.0579320006 2.5790998936 9.6639127731 64.262779236 65.096374512 64.756607056 2.2053999901 15.238568306 1.6281640530 1.6295268536
