# LAS format log file from PETREL
# Project units are specified as depth units
#==================================================================
~Version information
VERS.   2.0:
WRAP.   NO:
#==================================================================
~Well
STRT .m      2859.8344727 :
STOP .m      3172.2546387 :
STEP .m     0.00000000 :
NULL .        -999.250000 :
COMP.           : COMPANY
WELL.  7/1-2 S   : WELL
FLD.            : FIELD
LOC.            : LOCATION
SRVC.           : SERVICE COMPANY
DATE.  2018-09-11 14:49:04   : Log Export Date {yyyy-MM-dd HH:mm:ss}
PROV.           : PROVINCE
UWI.   7/1-2 S   : UNIQUE WELL ID
API.            : API NUMBER
#==================================================================
~Curve
DEPT .m                   : DEPTH
Lithology_geolink ._      : Lithology_geolink
DCAL .in                  : DCAL
CALI .in                  : CALI
BS .in                    : BS
ROP .m/h                  : ROP
DRHO .g/cm3               : DRHO
THOR .ppm                 : THOR
NPHI .m3/m3               : NPHI
RHOB .g/cm3               : RHOB
PEF .b/e                  : PEF
GR .gAPI                  : GR
URAN .ppm                 : URAN
DTC .us/ft                : DTC
DT .us/ft                 : DT
DTS .us/ft                : DTS
RDEP .ohm.m               : RDEP
RSHA .ohm.m               : RSHA
RMED .ohm.m               : RMED
~Parameter
#==================================================================
~Ascii
# ...
 2940.3020020 4.0000000000 8.4667997360 8.4667997360 8.5000000000 37814.242188 0.0092000002 4.2358999252 0.2239000052 2.5215232372 4.4840002060 81.948898315 4.2890000343 86.749801636 86.748664856 153.03776550 4.8550815582 4.4499855042 4.4584636688
 2940.4543457 4.0000000000 8.4864997864 8.4864997864 8.5000000000 36508.808594 0.0104999999 4.2543001175 0.2199999988 2.5095779896 4.4465999603 79.740097046 4.2231998444 87.999099731 87.997100830 155.49995422 4.5154452324 4.1758399010 4.2072033882
 2940.6066895 4.0000000000 8.5103998184 8.5103998184 8.5000000000 35366.214844 0.0149999997 4.2288999557 0.2178999931 2.4727587700 4.4672999382 87.222000122 4.2386999130 89.850196838 89.847229004 159.10183716 3.9806575775 3.6728067398 3.7553248405
 2940.7590332 5.0000000000 8.5121002197 8.5121002197 8.5000000000 35098.257813 0.0102000004 4.8256998062 0.2239000052 2.4438538551 4.4681000710 98.115196228 4.5061001778 92.303802490 92.295951843 163.56599426 3.5287477970 3.2330093384 3.3626580238
 2940.9116211 5.0000000000 8.5081996918 8.5081996918 8.5000000000 35358.972656 0.0203000009 5.3555002213 0.2479999959 2.4444613457 4.5576000214 106.22049713 4.5759000778 95.010200500 95.005867004 167.89509583 3.2474491596 2.9423642159 3.1170921326
 2941.0639648 5.0000000000 8.5100002289 8.5100002289 8.5000000000 35673.671875 0.0264999997 5.6398000717 0.2590000033 2.4553630352 4.4973001480 111.14309692 4.4801998138 97.084197998 97.080871582 170.61659241 3.0300483704 2.7065775394 2.9217131138
 2941.2163086 5.0000000000 8.4997997284 8.4997997284 8.5000000000 36852.695313 0.0126000000 6.0415000916 0.2612000108 2.4536027908 4.3355998993 109.10559845 4.2909002304 97.631500244 97.630622864 170.38130188 2.8060591221 2.4679825306 2.7123355865
 2941.3686523 5.0000000000 8.5152997971 8.5152997971 8.5000000000 37583.921875 0.0041999999 6.3270998001 0.2325000018 2.4442222118 4.2358999252 106.53900146 4.1606001854 96.946899414 96.949089050 167.97560120 2.6189994812 2.2690374851 2.5338716507
 2941.5212402 5.0000000000 8.4962997437 8.4962997437 8.5000000000 38948.832031 -0.002800000 6.4538002014 0.2248000056 2.4436538219 4.4207000732 103.16580200 4.0792999268 95.408599854 95.411064148 164.78399658 2.5192589760 2.1538839340 2.4376535416
 2941.6735840 5.0000000000 8.4888000488 8.4888000488 8.5000000000 40111.617188 0.0012000001 6.6427001953 0.2428999990 2.4531102180 4.9114999771 103.72029877 3.9768002033 93.653106689 93.655921936 161.87719727 2.4962368011 2.1120667458 2.4148364067
 2941.8259277 5.0000000000 8.4930000305 8.4930000305 8.5000000000 40603.421875 0.0130000003 6.7638001442 0.2355999947 2.4644129276 5.7493000031 101.74210358 3.9094998837 92.131103516 92.133544922 159.43009949 2.5055849552 2.1054105759 2.4232864380
 2941.9782715 5.0000000000 8.5130996704 8.5130996704 8.5000000000 41336.953125 0.0208999999 6.7263998985 0.2255000025 2.4673798084 5.2878999710 102.31780243 3.8745996952 90.888900757 90.892875671 157.34280396 2.5145711899 2.1061973572 2.4314737320
 2942.1308594 5.0000000000 8.5242004395 8.5242004395 8.5000000000 41810.648438 0.0214000009 6.6199998856 0.2053000033 2.4499590397 4.3871998787 97.245796204 3.7809998989 90.041099548 90.042457581 155.09249878 2.4937334061 2.0878295898 2.4107334614
 2942.2832031 5.0000000000 8.5136003494 8.5136003494 8.5000000000 42565.468750 0.0091000004 6.4465999603 0.2025000006 2.4373846054 3.9609000683 93.997802734 3.7216999531 89.406097412 89.407112122 152.95170593 2.4201180935 2.0283954144 2.3386156559
 2942.4355469 5.0000000000 8.5057001114 8.5057001114 8.5000000000 43019.847656 0.0044999998 6.2681999207 0.2192000002 2.4366302490 3.7211000919 90.435798645 3.6364998817 88.877098083 88.877944946 151.09269714 2.3177640438 1.9454330206 2.2376618385
 2942.5878906 5.0000000000 8.4960002899 8.4960002899 8.5000000000 43793.984375 0.0083999997 6.0939002037 0.2163999975 2.4403464794 3.6912000179 90.186096191 3.6124999523 88.580108643 88.580581665 149.50579834 2.2327361107 1.8759113550 2.1522369385
 2942.7402344 4.0000000000 8.4921998978 8.4921998978 8.5000000000 43728.476563 -0.008400000 5.9829998016 0.2108000070 2.4354882240 3.7155001163 86.292098999 3.6210000515 88.287803650 88.288742065 148.68640137 2.1880431175 1.8404135704 2.1045525074
 2942.8928223 4.0000000000 8.4818000793 8.4818000793 8.5000000000 43609.089844 -0.004200000 6.0117998123 0.2078000009 2.4326565266 3.8908998966 81.991996765 3.5992000103 88.130203247 88.130455017 148.80310059 2.1981835365 1.8527799845 2.1084933281
 2943.0451660 4.0000000000 8.4886999130 8.4886999130 8.5000000000 42948.968750 -0.000200000 6.0964999199 0.2063000053 2.4513938427 3.9542999268 82.558700562 3.5745999813 88.037597656 88.037742615 149.67129517 2.2990381718 1.9450519085 2.1989548206
 2943.1975098 4.0000000000 8.5118999481 8.5118999481 8.5000000000 41658.125000 0.0289999992 5.9762001038 0.2152000070 2.4893472195 4.6213998795 82.687202454 3.6702001095 87.616600037 87.617271423 150.69799805 2.5336236954 2.1555624008 2.4172496796
 2943.3498535 4.0000000000 8.5075998306 8.5075998306 8.5000000000 41583.839844 0.0641999990 5.7406997681 0.2126999944 2.5262539387 7.1662998199 84.417900085 3.8089001179 87.166702271 87.168144226 150.40879822 2.8968350887 2.4835481644 2.7596020699
 2943.5024414 4.0000000000 8.4953002930 8.4953002930 8.5000000000 41427.804688 0.0597999990 5.5163002014 0.2172999978 2.5437383652 8.8840999603 83.726799011 3.9055998325 86.607803345 86.608695984 149.30819702 3.3700423241 2.9229965210 3.2111768723
 2943.6547852 16.000000000 8.5187997818 8.5187997818 8.5000000000 41315.007813 0.0328000002 5.3109998703 0.2193000019 2.5373468399 7.5662999153 81.575202942 4.0329999924 86.009399414 86.010360718 147.71180725 4.0362319946 3.5624744892 3.8575634956
 2943.8071289 16.000000000 8.4991998672 8.4991998672 8.5000000000 41060.000000 0.0372000001 5.2142000198 0.2057999969 2.4973130226 4.5938000679 84.627700806 4.1089000702 85.347396851 85.348457336 146.38639832 4.8068647385 4.3447461128 4.6223740578
 2943.9594727 5.0000000000 8.4869003296 8.4869003296 8.5000000000 40613.183594 0.0157999992 5.2122998238 0.2108999938 2.4533607960 3.7658998966 89.572196960 4.1135997772 84.831199646 84.832855225 146.03790283 4.9923086166 4.6113481522 4.8378124237
 2944.1120605 5.0000000000 8.5047998428 8.5047998428 8.5000000000 39525.015625 0.0001000000 5.1522998810 0.2163999975 2.4327051640 3.8055000305 88.900497437 4.1630001068 84.638603210 84.638908386 146.30340576 4.2380118370 3.9633414745 4.1386232376
 2944.2644043 5.0000000000 8.4956998825 8.4956998825 8.5000000000 39311.261719 0.0066999998 5.2266998291 0.2025000006 2.4246616364 3.7409999371 89.743896484 4.1062002182 84.346900940 84.347366333 146.73089600 3.2384026051 3.0546569824 3.1858274937
 2944.4167480 5.0000000000 8.4870996475 8.4870996475 8.5000000000 38748.906250 0.0074000000 5.3076000214 0.1844999939 2.4206902981 3.7753999233 92.353897095 3.9577999115 83.885803223 83.886543274 145.68060303 2.5329298973 2.4111306667 2.5081853867
 2944.5690918 4.0000000000 8.5130996704 8.5130996704 8.5000000000 38730.363281 0.0132999998 5.2891001701 0.1955000013 2.4197597504 3.7790999413 89.881698608 3.7277998924 83.319702148 83.320610046 144.16600037 2.1391303539 2.0514755249 2.1275093555
 2944.7214355 4.0000000000 8.5166997910 8.5166997910 8.5000000000 38677.253906 0.0107000005 5.1486001015 0.2067999989 2.4178295135 3.8810999393 82.406196594 3.5754001141 82.604896545 82.607185364 142.79350281 1.9178084135 1.8516396284 1.9107937813
 2944.8740234 4.0000000000 8.4982004166 8.4982004166 8.5000000000 32123.308594 -0.001900000 5.0803999901 0.2047999948 2.4129538536 3.9512999058 79.291603088 3.4365000725 82.416496277 82.416801453 142.71969604 1.7463740110 1.6966477633 1.7385753393
 2945.0263672 2.0000000000 8.5040998459 8.5040998459 8.5000000000 27218.250000 0.0063000000 4.7880001068 0.1975000054 2.4045484066 4.1641001701 78.465103149 3.1682000160 82.501495361 82.501358032 142.92610168 1.5802662373 1.5438448191 1.5689717531
 2945.1787109 2.0000000000 8.5069999695 8.5069999695 8.5000000000 22141.134766 -0.009800000 4.3977999687 0.2054000050 2.3810839653 4.7810997963 73.482299805 2.5694999695 82.562500000 82.562400818 142.83799744 1.4605916739 1.4308809042 1.4440001249
