~Version
VERS  .                                 3.0 : CWLS LAS ASCII Standard - Version 3.0
WRAP  . NO                                  : One line per depth step
DLM   . SPACE                               : Column data section delimiter
SOURCE. Converted to LAS by Log Studio 4.76 : GeoProvider

~Well
STRT.         2461.3 : Start depth
STOP.         2583.2 : Stop depth
STEP.              1 : Step
NULL.        -999.25 : No-value
COMP.                : Company
WELL. 6407/2-2       : Well
FLD .                : Field
LOC .                : Location
LATI.                : Latitude
LONG.                : Longitude
GDAT.                : Geodetic datum
CNTY.                : County
STAT.                : State
CTRY.                : Country
SRVC. GeoProvider AS : Service company
DATE.                : Date
API .                : API number
RUN .                : Run number

~Parameters
WellboreName.  : Wellbore name
RigName     .  : Rig name
StartDate   .  : Start date

~Curves
DEPTH.m            .  : null {F}Depth mMD
Hole_ID.-          .  : null {S}Hole ID
GR.API             .  : null {F}Gamma Ray
Lithology1.-       .  : null {S}Lithology 1
Lithology2.-       .  : null {S}Lithology 2
Lithology3.-       .  : null {S}Lithology 3
Lithology1.%       .  : null {F}Lithology 1 percentage
Lithology2.%       .  : null {F}Lithology 2 percentage
Lithology3.%       .  : null {F}Lithology 3 percentage
Grain_size_Top.-   .  : null {S}Grain size at the top 
Grain_size_Base.-  .  : null {S}Grain size at the bottom
Sub_Environment.-  .  : null {S}Sub Environment
Gross_Environment.-.  : null {S}Gross Environment

~Ascii
# ...
2569.4 "6407_2-2" 28.44000 "Sandstone" "Limestone" -999.25  92.0000  8.00000 0.0 "f/m"   "c/vc"  "Munningsbanke"                                 -999.25             
2569.5 "6407_2-2" 29.24000 "Sandstone" "Limestone" -999.25  92.0000  8.00000 0.0 "f/m"   "c/vc"  "Munningsbanke"                                 -999.25             
2569.6 "6407_2-2" 29.28000 "Sandstone" "Limestone" -999.25  92.0000  8.00000 0.0 "f/m"   "c/vc"  "Munningsbanke"                                 -999.25             
2569.7 "6407_2-2" 29.02000 "Sandstone" "Limestone" -999.25  92.0000  8.00000 0.0 "f/m"   "c/vc"  "Munningsbanke"                                 -999.25             
2569.8 "6407_2-2" 28.52000 "Sandstone" "Limestone" -999.25  92.0000  8.00000 0.0 "f/m"   "c/vc"  "Munningsbanke"                                 -999.25             
2569.9 "6407_2-2" 27.31000 "Sandstone" "Limestone" -999.25  92.0000  8.00000 0.0 "f/m"   "c/vc"  "Nedre_ovre__strandskraning_Distalmunnings-banke" -999.25             
2570.0 "6407_2-2" 26.69000 "Sandstone" "Limestone" -999.25  92.0000  8.00000 0.0 "f/m"   "c/vc"  "Nedre_ovre__strandskraning_Distalmunnings-banke" -999.25             
2570.1 "6407_2-2" 26.45000 "Sandstone" -999.25   -999.25 100.0000      0.0 0.0 "vf/f"  "f"     "Nedre_ovre__strandskraning_Distalmunnings-banke" -999.25             
2570.2 "6407_2-2" 26.45000 "Sandstone" -999.25   -999.25 100.0000      0.0 0.0 "vf/f"  "f"     "Nedre_ovre__strandskraning_Distalmunnings-banke" -999.25             
2570.3 "6407_2-2" 26.71000 "Sandstone" -999.25   -999.25 100.0000      0.0 0.0 "vf/f"  "f"     "Nedre_ovre__strandskraning_Distalmunnings-banke" -999.25             
2570.4 "6407_2-2" 27.25000 "Sandstone" -999.25   -999.25 100.0000      0.0 0.0 "vf/f"  "f"     "Nedre_ovre__strandskraning_Distalmunnings-banke" -999.25             
2570.5 "6407_2-2" 27.94000 "Sandstone" -999.25   -999.25 100.0000      0.0 0.0 "vf/f"  "f"     "Nedre_ovre__strandskraning_Distalmunnings-banke" -999.25             
2570.6 "6407_2-2" 29.17000 "Sandstone" -999.25   -999.25 100.0000      0.0 0.0 "vf/f"  "f"     "Nedre_ovre__strandskraning_Distalmunnings-banke" -999.25             
2570.7 "6407_2-2" 30.41000 "Sandstone" -999.25   -999.25 100.0000      0.0 0.0 "vf/f"  "f"     "Nedre_ovre__strandskraning_Distalmunnings-banke" -999.25             
2570.8 "6407_2-2" 31.65000 "Sandstone" -999.25   -999.25 100.0000      0.0 0.0 "vf/f"  "f"     "Nedre_ovre__strandskraning_Distalmunnings-banke" -999.25             
2570.9 "6407_2-2" 32.89000 "Sandstone" -999.25   -999.25 100.0000      0.0 0.0 "vf/f"  "f"     "Nedre_ovre__strandskraning_Distalmunnings-banke" -999.25             
2571.0 "6407_2-2" 33.52000 "Sandstone" -999.25   -999.25 100.0000      0.0 0.0 "vf/f"  "f"     "Nedre_ovre__strandskraning_Distalmunnings-banke" -999.25             
2571.1 "6407_2-2" 34.07000 "Sandstone" -999.25   -999.25 100.0000      0.0 0.0 "vf/f"  "f"     "Nedre_ovre__strandskraning_Distalmunnings-banke" -999.25             
2571.2 "6407_2-2" 34.37000 "Sandstone" -999.25   -999.25 100.0000      0.0 0.0 "vf/f"  "f"     "Nedre_ovre__strandskraning_Distalmunnings-banke" -999.25             
2571.3 "6407_2-2" 35.60000 "Sandstone" -999.25   -999.25 100.0000      0.0 0.0 "vf/f"  "f"     "Nedre_ovre__strandskraning_Distalmunnings-banke" -999.25             
2571.4 "6407_2-2" 37.65000 "Sandstone" -999.25   -999.25 100.0000      0.0 0.0 "vf/f"  "f"     "Nedre_ovre__strandskraning_Distalmunnings-banke" -999.25             
2571.5 "6407_2-2" 39.71000 "Sandstone" -999.25   -999.25 100.0000      0.0 0.0 "vf/f"  "f"     "Nedre_ovre__strandskraning_Distalmunnings-banke" -999.25             
2571.6 "6407_2-2" 41.25000 "Sandstone" -999.25   -999.25 100.0000      0.0 0.0 "vf/f"  "f"     "Nedre_ovre__strandskraning_Distalmunnings-banke" -999.25             
2571.7 "6407_2-2" 41.27000 "Sandstone" -999.25   -999.25 100.0000      0.0 0.0 "vf/f"  "f"     "Nedre_ovre__strandskraning_Distalmunnings-banke" -999.25             
2571.8 "6407_2-2" 40.86000 "Sandstone" -999.25   -999.25 100.0000      0.0 0.0 "vf/f"  "f"     "Nedre_ovre__strandskraning_Distalmunnings-banke" -999.25             
2571.9 "6407_2-2" 39.90000 "Sandstone" -999.25   -999.25 100.0000      0.0 0.0 "vf/f"  "f"     "Nedre_ovre__strandskraning_Distalmunnings-banke" -999.25             
2572.0 "6407_2-2" 38.11000 "Sandstone" -999.25   -999.25 100.0000      0.0 0.0 "vf/f"  "f"     "Nedre_ovre__strandskraning_Distalmunnings-banke" -999.25             
2572.1 "6407_2-2" 34.23000 "Sandstone" -999.25   -999.25 100.0000      0.0 0.0 "vf/f"  "f"     "Nedre_ovre__strandskraning_Distalmunnings-banke" -999.25             
2572.2 "6407_2-2" 33.12000 "Sandstone" -999.25   -999.25 100.0000      0.0 0.0 "vf/f"  "f"     "Nedre_ovre__strandskraning_Distalmunnings-banke" -999.25             
2572.3 "6407_2-2" 32.09000 "Sandstone" -999.25   -999.25 100.0000      0.0 0.0 "vf/f"  "f"     "Nedre_ovre__strandskraning_Distalmunnings-banke" -999.25             
2572.4 "6407_2-2" 31.20000 "Sandstone" -999.25   -999.25 100.0000      0.0 0.0 "vf/f"  "f"     "Nedre_ovre__strandskraning_Distalmunnings-banke" -999.25             
2572.5 "6407_2-2" 30.61000 "Sandstone" -999.25   -999.25 100.0000      0.0 0.0 "vf/f"  "f"     "Nedre_ovre__strandskraning_Distalmunnings-banke" -999.25             
2572.6 "6407_2-2" 30.04000 "Sandstone" -999.25   -999.25 100.0000      0.0 0.0 "vf/f"  "f"     "Nedre_ovre__strandskraning_Distalmunnings-banke" -999.25             
2572.7 "6407_2-2" 29.66000 "Sandstone" -999.25   -999.25 100.0000      0.0 0.0 "vf/f"  "f"     "Nedre_ovre__strandskraning_Distalmunnings-banke" -999.25             
2572.8 "6407_2-2" 29.28000 "Sandstone" -999.25   -999.25 100.0000      0.0 0.0 "vf/f"  "f"     "Nedre_ovre__strandskraning_Distalmunnings-banke" -999.25             
2572.9 "6407_2-2" 28.76000 "Sandstone" -999.25   -999.25 100.0000      0.0 0.0 "vf/f"  "f"     "Nedre_ovre__strandskraning_Distalmunnings-banke" -999.25             
2573.0 "6407_2-2" 27.56000 "Sandstone" -999.25   -999.25 100.0000      0.0 0.0 "vf/f"  "f"     "Nedre_ovre__strandskraning_Distalmunnings-banke" -999.25             
2573.1 "6407_2-2" 26.92000 "Sandstone" -999.25   -999.25 100.0000      0.0 0.0 "vf/f"  "f"     "Nedre_ovre__strandskraning_Distalmunnings-banke" -999.25             
2573.2 "6407_2-2" 26.30000 "Sandstone" -999.25   -999.25 100.0000      0.0 0.0 "vf/f"  "f"     "Nedre_ovre__strandskraning_Distalmunnings-banke" -999.25             
2573.3 "6407_2-2" 26.16000 "Sandstone" -999.25   -999.25 100.0000      0.0 0.0 "vf/f"  "f"     "Nedre_ovre__strandskraning_Distalmunnings-banke" -999.25             
2573.4 "6407_2-2" 26.02000 "Sandstone" -999.25   -999.25 100.0000      0.0 0.0 "vf/f"  "f"     "Nedre_ovre__strandskraning_Distalmunnings-banke" -999.25             
2573.5 "6407_2-2" 26.20000 "Sandstone" -999.25   -999.25 100.0000      0.0 0.0 "vf/f"  "f"     "Nedre_ovre__strandskraning_Distalmunnings-banke" -999.25             
2573.6 "6407_2-2" 26.41000 "Sandstone" -999.25   -999.25 100.0000      0.0 0.0 "vf/f"  "f"     "Nedre_ovre__strandskraning_Distalmunnings-banke" -999.25             
2573.7 "6407_2-2" 26.68000 "Sandstone" -999.25   -999.25 100.0000      0.0 0.0 "vf/f"  "f"     "Nedre_ovre__strandskraning_Distalmunnings-banke" -999.25             
2573.8 "6407_2-2" 27.37000 "Sandstone" -999.25   -999.25 100.0000      0.0 0.0 "vf/f"  "f"     "Nedre_ovre__strandskraning_Distalmunnings-banke" -999.25             
2573.9 "6407_2-2" 28.79000 "Sandstone" -999.25   -999.25 100.0000      0.0 0.0 "vf/f"  "f"     "Nedre_ovre__strandskraning_Distalmunnings-banke" -999.25             
2574.0 "6407_2-2" 30.26000 "Sandstone" -999.25   -999.25 100.0000      0.0 0.0 "vf/f"  "f"     "Nedre_ovre__strandskraning_Distalmunnings-banke" -999.25             
2574.1 "6407_2-2" 30.82000 "Sandstone" -999.25   -999.25 100.0000      0.0 0.0 "vf/f"  "f"     "Nedre_ovre__strandskraning_Distalmunnings-banke" -999.25             
2574.2 "6407_2-2" 30.72000 "Sandstone" -999.25   -999.25 100.0000      0.0 0.0 "vf/f"  "f"     "Nedre_ovre__strandskraning_Distalmunnings-banke" -999.25             
