~Version
VERS  .                                 3.0 : CWLS LAS ASCII Standard - Version 3.0
WRAP  . NO                                  : One line per depth step
DLM   . SPACE                               : Column data section delimiter
SOURCE. Converted to LAS by Log Studio 4.76 : GeoProvider

~Well
STRT.         2461.3 : Start depth
STOP.         2583.2 : Stop depth
STEP.              1 : Step
NULL.        -999.25 : No-value
COMP.                : Company
WELL. 6407/2-2       : Well
FLD .                : Field
LOC .                : Location
LATI.                : Latitude
LONG.                : Longitude
GDAT.                : Geodetic datum
CNTY.                : County
STAT.                : State
CTRY.                : Country
SRVC. GeoProvider AS : Service company
DATE.                : Date
API .                : API number
RUN .                : Run number

~Parameters
WellboreName.  : Wellbore name
RigName     .  : Rig name
StartDate   .  : Start date

~Curves
DEPTH.m            .  : null {F}Depth mMD
Hole_ID.-          .  : null {S}Hole ID
GR.API             .  : null {F}Gamma Ray
Lithology1.-       .  : null {S}Lithology 1
Lithology2.-       .  : null {S}Lithology 2
Lithology3.-       .  : null {S}Lithology 3
Lithology1.%       .  : null {F}Lithology 1 percentage
Lithology2.%       .  : null {F}Lithology 2 percentage
Lithology3.%       .  : null {F}Lithology 3 percentage
Grain_size_Top.-   .  : null {S}Grain size at the top 
Grain_size_Base.-  .  : null {S}Grain size at the bottom
Sub_Environment.-  .  : null {S}Sub Environment
Gross_Environment.-.  : null {S}Gross Environment

~Ascii
# ...
2490.8 "6407_2-2" 19.16000 "Sandstone" -999.25   -999.25 100.0000      0.0 0.0 "f/m"   "f/m"   "Hovedsaklig_ovre_stranskraning"                "PROXIMAL_DELTA_FRONT"
2490.9 "6407_2-2" 19.39000 "Sandstone" -999.25   -999.25 100.0000      0.0 0.0 "f/m"   "f/m"   "Hovedsaklig_ovre_stranskraning"                "PROXIMAL_DELTA_FRONT"
2491.0 "6407_2-2" 19.52000 "Sandstone" -999.25   -999.25 100.0000      0.0 0.0 "f/m"   "f/m"   "Hovedsaklig_ovre_stranskraning"                "PROXIMAL_DELTA_FRONT"
2491.1 "6407_2-2" 19.50000 "Sandstone" -999.25   -999.25 100.0000      0.0 0.0 "f/m"   "f/m"   "Hovedsaklig_ovre_stranskraning"                "PROXIMAL_DELTA_FRONT"
2491.2 "6407_2-2" 19.48000 "Sandstone" -999.25   -999.25 100.0000      0.0 0.0 "f/m"   "f/m"   "Hovedsaklig_ovre_stranskraning"                "PROXIMAL_DELTA_FRONT"
2491.3 "6407_2-2" 19.46000 "Sandstone" -999.25   -999.25 100.0000      0.0 0.0 "f/m"   "f/m"   "Hovedsaklig_ovre_stranskraning"                "PROXIMAL_DELTA_FRONT"
2491.4 "6407_2-2" 19.44000 "Sandstone" -999.25   -999.25 100.0000      0.0 0.0 "f/m"   "f/m"   "Hovedsaklig_ovre_stranskraning"                "PROXIMAL_DELTA_FRONT"
2491.5 "6407_2-2" 19.42000 "Sandstone" -999.25   -999.25 100.0000      0.0 0.0 "f/m"   "f/m"   "Hovedsaklig_ovre_stranskraning"                "PROXIMAL_DELTA_FRONT"
2491.6 "6407_2-2" 19.40000 "Sandstone" -999.25   -999.25 100.0000      0.0 0.0 "f/m"   "f/m"   "Hovedsaklig_ovre_stranskraning"                "PROXIMAL_DELTA_FRONT"
2491.7 "6407_2-2" 19.38000 "Sandstone" -999.25   -999.25 100.0000      0.0 0.0 "f/m"   "f/m"   "Hovedsaklig_ovre_stranskraning"                "PROXIMAL_DELTA_FRONT"
2491.8 "6407_2-2" 19.21000 "Sandstone" -999.25   -999.25 100.0000      0.0 0.0 "f/m"   "f/m"   "Hovedsaklig_ovre_stranskraning"                "PROXIMAL_DELTA_FRONT"
2491.9 "6407_2-2" 19.05000 "Sandstone" -999.25   -999.25 100.0000      0.0 0.0 "f/m"   "f/m"   "Hovedsaklig_ovre_stranskraning"                "PROXIMAL_DELTA_FRONT"
2492.0 "6407_2-2" 18.87000 "Sandstone" -999.25   -999.25 100.0000      0.0 0.0 "f/m"   "f/m"   "Hovedsaklig_ovre_stranskraning"                "PROXIMAL_DELTA_FRONT"
2492.1 "6407_2-2" 18.68000 "Sandstone" -999.25   -999.25 100.0000      0.0 0.0 "f/m"   "f/m"   "Hovedsaklig_ovre_stranskraning"                "PROXIMAL_DELTA_FRONT"
2492.2 "6407_2-2" 18.49000 "Sandstone" -999.25   -999.25 100.0000      0.0 0.0 "f/m"   "f/m"   "Hovedsaklig_ovre_stranskraning"                "PROXIMAL_DELTA_FRONT"
2492.3 "6407_2-2" 18.43000 "Sandstone" -999.25   -999.25 100.0000      0.0 0.0 "f/m"   "f/m"   "Hovedsaklig_ovre_stranskraning"                "PROXIMAL_DELTA_FRONT"
2492.4 "6407_2-2" 18.51000 "Sandstone" -999.25   -999.25 100.0000      0.0 0.0 "f/m"   "f/m"   "Hovedsaklig_ovre_stranskraning"                "PROXIMAL_DELTA_FRONT"
2492.5 "6407_2-2" 18.61000 "Sandstone" -999.25   -999.25 100.0000      0.0 0.0 "f/m"   "f/m"   "Hovedsaklig_ovre_stranskraning"                "PROXIMAL_DELTA_FRONT"
2492.6 "6407_2-2" 18.92000 "Sandstone" -999.25   -999.25 100.0000      0.0 0.0 "f/m"   "f/m"   "Hovedsaklig_ovre_stranskraning"                "PROXIMAL_DELTA_FRONT"
2492.7 "6407_2-2" 19.26000 "Sandstone" -999.25   -999.25 100.0000      0.0 0.0 "f/m"   "f/m"   "Hovedsaklig_ovre_stranskraning"                "PROXIMAL_DELTA_FRONT"
2492.8 "6407_2-2" 19.66000 "Sandstone" -999.25   -999.25 100.0000      0.0 0.0 "f/m"   "f/m"   "Hovedsaklig_ovre_stranskraning"                "PROXIMAL_DELTA_FRONT"
2492.9 "6407_2-2" 20.07000 "Sandstone" -999.25   -999.25 100.0000      0.0 0.0 "f/m"   "f/m"   "Hovedsaklig_ovre_stranskraning"                "PROXIMAL_DELTA_FRONT"
2493.0 "6407_2-2" 20.47000 "Sandstone" -999.25   -999.25 100.0000      0.0 0.0 "f/m"   "f/m"   "Hovedsaklig_ovre_stranskraning"                "PROXIMAL_DELTA_FRONT"
2493.1 "6407_2-2" 20.87000 "Sandstone" -999.25   -999.25 100.0000      0.0 0.0 "f/m"   "f/m"   "Hovedsaklig_ovre_stranskraning"                "PROXIMAL_DELTA_FRONT"
2493.2 "6407_2-2" 21.21000 "Sandstone" -999.25   -999.25 100.0000      0.0 0.0 "f/m"   "f/m"   "Hovedsaklig_ovre_stranskraning"                "PROXIMAL_DELTA_FRONT"
2493.3 "6407_2-2" 21.19000 "Sandstone" -999.25   -999.25 100.0000      0.0 0.0 "f/m"   "f/m"   "Hovedsaklig_ovre_stranskraning"                "PROXIMAL_DELTA_FRONT"
2493.4 "6407_2-2" 21.17000 "Sandstone" -999.25   -999.25 100.0000      0.0 0.0 "f/m"   "f/m"   "Hovedsaklig_ovre_stranskraning"                "PROXIMAL_DELTA_FRONT"
2493.5 "6407_2-2" 21.16000 "Sandstone" -999.25   -999.25 100.0000      0.0 0.0 "f/m"   "f/m"   "Hovedsaklig_ovre_stranskraning"                "PROXIMAL_DELTA_FRONT"
2493.6 "6407_2-2" 21.14000 "Sandstone" -999.25   -999.25 100.0000      0.0 0.0 "f/m"   "f/m"   "Hovedsaklig_ovre_stranskraning"                "PROXIMAL_DELTA_FRONT"
2493.7 "6407_2-2" 21.12000 "Sandstone" -999.25   -999.25 100.0000      0.0 0.0 "f/m"   "f/m"   "Hovedsaklig_ovre_stranskraning"                "PROXIMAL_DELTA_FRONT"
2493.8 "6407_2-2" 21.15000 "Sandstone" -999.25   -999.25 100.0000      0.0 0.0 "f/m"   "f/m"   "Hovedsaklig_ovre_stranskraning"                "PROXIMAL_DELTA_FRONT"
2493.9 "6407_2-2" 21.46000 "Sandstone" -999.25   -999.25 100.0000      0.0 0.0 "f/m"   "f/m"   "Hovedsaklig_ovre_stranskraning"                "PROXIMAL_DELTA_FRONT"
2494.0 "6407_2-2" 21.77000 "Sandstone" -999.25   -999.25 100.0000      0.0 0.0 "f/m"   "f/m"   "Hovedsaklig_ovre_stranskraning"                "PROXIMAL_DELTA_FRONT"
2494.1 "6407_2-2" 22.08000 "Sandstone" -999.25   -999.25 100.0000      0.0 0.0 "f/m"   "f/m"   "Hovedsaklig_ovre_stranskraning"                "PROXIMAL_DELTA_FRONT"
2494.2 "6407_2-2" 22.40000 "Sandstone" -999.25   -999.25 100.0000      0.0 0.0 "f/m"   "f/m"   "Hovedsaklig_ovre_stranskraning"                "PROXIMAL_DELTA_FRONT"
2494.3 "6407_2-2" 22.71000 "Sandstone" -999.25   -999.25 100.0000      0.0 0.0 "f/m"   "f/m"   "Hovedsaklig_ovre_stranskraning"                "PROXIMAL_DELTA_FRONT"
2494.4 "6407_2-2" 23.02000 "Sandstone" -999.25   -999.25 100.0000      0.0 0.0 "f/m"   "f/m"   "Hovedsaklig_ovre_stranskraning"                "PROXIMAL_DELTA_FRONT"
2494.5 "6407_2-2" 23.33000 "Sandstone" -999.25   -999.25 100.0000      0.0 0.0 "f/m"   "f/m"   "Hovedsaklig_ovre_stranskraning"                "PROXIMAL_DELTA_FRONT"
2494.6 "6407_2-2" 23.64000 "Sandstone" -999.25   -999.25 100.0000      0.0 0.0 "f/m"   "f/m"   "Hovedsaklig_ovre_stranskraning"                "PROXIMAL_DELTA_FRONT"
2494.7 "6407_2-2" 23.95000 "Sandstone" -999.25   -999.25 100.0000      0.0 0.0 "f/m"   "f/m"   "Hovedsaklig_ovre_stranskraning"                "PROXIMAL_DELTA_FRONT"
2494.8 "6407_2-2" 24.27000 "Sandstone" -999.25   -999.25 100.0000      0.0 0.0 "f/m"   "f/m"   "Hovedsaklig_ovre_stranskraning"                "PROXIMAL_DELTA_FRONT"
2494.9 "6407_2-2" 24.57000 "Sandstone" -999.25   -999.25 100.0000      0.0 0.0 "f/m"   "f/m"   "Hovedsaklig_ovre_stranskraning"                "PROXIMAL_DELTA_FRONT"
2495.0 "6407_2-2" 24.82000 "Sandstone" -999.25   -999.25 100.0000      0.0 0.0 "f/m"   "f/m"   "Hovedsaklig_ovre_stranskraning"                "PROXIMAL_DELTA_FRONT"
2495.1 "6407_2-2" 25.07000 "Sandstone" -999.25   -999.25 100.0000      0.0 0.0 "f/m"   "f/m"   "Hovedsaklig_ovre_stranskraning"                "PROXIMAL_DELTA_FRONT"
2495.2 "6407_2-2" 25.31000 "Sandstone" -999.25   -999.25 100.0000      0.0 0.0 "f/m"   "f/m"   "Hovedsaklig_ovre_stranskraning"                "PROXIMAL_DELTA_FRONT"
2495.3 "6407_2-2" 25.25000 "Sandstone" -999.25   -999.25 100.0000      0.0 0.0 "f/m"   "f/m"   "Hovedsaklig_ovre_stranskraning"                "PROXIMAL_DELTA_FRONT"
2495.4 "6407_2-2" 25.19000 "Sandstone" -999.25   -999.25 100.0000      0.0 0.0 "f/m"   "f/m"   "Hovedsaklig_ovre_stranskraning"                "PROXIMAL_DELTA_FRONT"
2495.5 "6407_2-2" 25.12000 "Sandstone" -999.25   -999.25 100.0000      0.0 0.0 "f/m"   "f/m"   "Hovedsaklig_ovre_stranskraning"                "PROXIMAL_DELTA_FRONT"
2495.6 "6407_2-2" 25.19000 "Sandstone" -999.25   -999.25 100.0000      0.0 0.0 "f/m"   "f/m"   "Hovedsaklig_ovre_stranskraning"                "PROXIMAL_DELTA_FRONT"
