~Version
VERS  .                                 3.0 : CWLS LAS ASCII Standard - Version 3.0
WRAP  . NO                                  : One line per depth step
DLM   . SPACE                               : Column data section delimiter
SOURCE. Converted to LAS by Log Studio 4.76 : GeoProvider

~Well
STRT.         2461.3 : Start depth
STOP.         2583.2 : Stop depth
STEP.              1 : Step
NULL.        -999.25 : No-value
COMP.                : Company
WELL. 6407/2-2       : Well
FLD .                : Field
LOC .                : Location
LATI.                : Latitude
LONG.                : Longitude
GDAT.                : Geodetic datum
CNTY.                : County
STAT.                : State
CTRY.                : Country
SRVC. GeoProvider AS : Service company
DATE.                : Date
API .                : API number
RUN .                : Run number

~Parameters
WellboreName.  : Wellbore name
RigName     .  : Rig name
StartDate   .  : Start date

~Curves
DEPTH.m            .  : null {F}Depth mMD
Hole_ID.-          .  : null {S}Hole ID
GR.API             .  : null {F}Gamma Ray
Lithology1.-       .  : null {S}Lithology 1
Lithology2.-       .  : null {S}Lithology 2
Lithology3.-       .  : null {S}Lithology 3
Lithology1.%       .  : null {F}Lithology 1 percentage
Lithology2.%       .  : null {F}Lithology 2 percentage
Lithology3.%       .  : null {F}Lithology 3 percentage
Grain_size_Top.-   .  : null {S}Grain size at the top 
Grain_size_Base.-  .  : null {S}Grain size at the bottom
Sub_Environment.-  .  : null {S}Sub Environment
Gross_Environment.-.  : null {S}Gross Environment

~Ascii
# ...
2485.9 "6407_2-2" 16.12000 "Sandstone" -999.25   -999.25 100.0000      0.0 0.0 "f/m"   "f/m"   "Hovedsaklig_ovre_stranskraning"                "PROXIMAL_DELTA_FRONT"
2486.0 "6407_2-2" 16.20000 "Sandstone" -999.25   -999.25 100.0000      0.0 0.0 "f/m"   "f/m"   "Hovedsaklig_ovre_stranskraning"                "PROXIMAL_DELTA_FRONT"
2486.1 "6407_2-2" 16.50000 "Sandstone" -999.25   -999.25 100.0000      0.0 0.0 "f/m"   "f/m"   "Hovedsaklig_ovre_stranskraning"                "PROXIMAL_DELTA_FRONT"
2486.2 "6407_2-2" 16.83000 "Sandstone" -999.25   -999.25 100.0000      0.0 0.0 "f/m"   "f/m"   "Hovedsaklig_ovre_stranskraning"                "PROXIMAL_DELTA_FRONT"
2486.3 "6407_2-2" 17.18000 "Sandstone" -999.25   -999.25 100.0000      0.0 0.0 "f/m"   "f/m"   "Hovedsaklig_ovre_stranskraning"                "PROXIMAL_DELTA_FRONT"
2486.4 "6407_2-2" 17.55000 "Sandstone" -999.25   -999.25 100.0000      0.0 0.0 "f/m"   "f/m"   "Hovedsaklig_ovre_stranskraning"                "PROXIMAL_DELTA_FRONT"
2486.5 "6407_2-2" 17.83000 "Sandstone" -999.25   -999.25 100.0000      0.0 0.0 "f/m"   "f/m"   "Hovedsaklig_ovre_stranskraning"                "PROXIMAL_DELTA_FRONT"
2486.6 "6407_2-2" 17.78000 "Sandstone" -999.25   -999.25 100.0000      0.0 0.0 "f/m"   "f/m"   "Hovedsaklig_ovre_stranskraning"                "PROXIMAL_DELTA_FRONT"
2486.7 "6407_2-2" 17.73000 "Sandstone" -999.25   -999.25 100.0000      0.0 0.0 "f/m"   "f/m"   "Hovedsaklig_ovre_stranskraning"                "PROXIMAL_DELTA_FRONT"
2486.8 "6407_2-2" 17.77000 "Sandstone" -999.25   -999.25 100.0000      0.0 0.0 "f/m"   "f/m"   "Hovedsaklig_ovre_stranskraning"                "PROXIMAL_DELTA_FRONT"
2486.9 "6407_2-2" 18.01000 "Sandstone" -999.25   -999.25 100.0000      0.0 0.0 "f/m"   "f/m"   "Hovedsaklig_ovre_stranskraning"                "PROXIMAL_DELTA_FRONT"
2487.0 "6407_2-2" 18.25000 "Sandstone" -999.25   -999.25 100.0000      0.0 0.0 "f/m"   "f/m"   "Hovedsaklig_ovre_stranskraning"                "PROXIMAL_DELTA_FRONT"
2487.1 "6407_2-2" 18.49000 "Sandstone" -999.25   -999.25 100.0000      0.0 0.0 "f/m"   "f/m"   "Hovedsaklig_ovre_stranskraning"                "PROXIMAL_DELTA_FRONT"
2487.2 "6407_2-2" 18.53000 "Sandstone" -999.25   -999.25 100.0000      0.0 0.0 "f/m"   "f/m"   "Hovedsaklig_ovre_stranskraning"                "PROXIMAL_DELTA_FRONT"
2487.3 "6407_2-2" 18.52000 "Sandstone" -999.25   -999.25 100.0000      0.0 0.0 "f/m"   "f/m"   "Hovedsaklig_ovre_stranskraning"                "PROXIMAL_DELTA_FRONT"
2487.4 "6407_2-2" 18.51000 "Sandstone" -999.25   -999.25 100.0000      0.0 0.0 "f/m"   "f/m"   "Hovedsaklig_ovre_stranskraning"                "PROXIMAL_DELTA_FRONT"
2487.5 "6407_2-2" 18.50000 "Sandstone" -999.25   -999.25 100.0000      0.0 0.0 "f/m"   "f/m"   "Hovedsaklig_ovre_stranskraning"                "PROXIMAL_DELTA_FRONT"
2487.6 "6407_2-2" 18.49000 "Sandstone" -999.25   -999.25 100.0000      0.0 0.0 "f/m"   "f/m"   "Hovedsaklig_ovre_stranskraning"                "PROXIMAL_DELTA_FRONT"
2487.7 "6407_2-2" 18.55000 "Sandstone" -999.25   -999.25 100.0000      0.0 0.0 "f/m"   "f/m"   "Hovedsaklig_ovre_stranskraning"                "PROXIMAL_DELTA_FRONT"
2487.8 "6407_2-2" 18.70000 "Sandstone" -999.25   -999.25 100.0000      0.0 0.0 "f/m"   "f/m"   "Hovedsaklig_ovre_stranskraning"                "PROXIMAL_DELTA_FRONT"
2487.9 "6407_2-2" 18.86000 "Sandstone" -999.25   -999.25 100.0000      0.0 0.0 "f/m"   "f/m"   "Hovedsaklig_ovre_stranskraning"                "PROXIMAL_DELTA_FRONT"
2488.0 "6407_2-2" 19.01000 "Sandstone" -999.25   -999.25 100.0000      0.0 0.0 "f/m"   "f/m"   "Hovedsaklig_ovre_stranskraning"                "PROXIMAL_DELTA_FRONT"
2488.1 "6407_2-2" 19.17000 "Sandstone" -999.25   -999.25 100.0000      0.0 0.0 "f/m"   "f/m"   "Hovedsaklig_ovre_stranskraning"                "PROXIMAL_DELTA_FRONT"
2488.2 "6407_2-2" 19.32000 "Sandstone" -999.25   -999.25 100.0000      0.0 0.0 "f/m"   "f/m"   "Hovedsaklig_ovre_stranskraning"                "PROXIMAL_DELTA_FRONT"
2488.3 "6407_2-2" 19.47000 "Sandstone" -999.25   -999.25 100.0000      0.0 0.0 "f/m"   "f/m"   "Hovedsaklig_ovre_stranskraning"                "PROXIMAL_DELTA_FRONT"
2488.4 "6407_2-2" 19.41000 "Sandstone" -999.25   -999.25 100.0000      0.0 0.0 "f/m"   "f/m"   "Hovedsaklig_ovre_stranskraning"                "PROXIMAL_DELTA_FRONT"
2488.5 "6407_2-2" 19.34000 "Sandstone" -999.25   -999.25 100.0000      0.0 0.0 "f/m"   "f/m"   "Hovedsaklig_ovre_stranskraning"                "PROXIMAL_DELTA_FRONT"
2488.6 "6407_2-2" 19.26000 "Sandstone" -999.25   -999.25 100.0000      0.0 0.0 "f/m"   "f/m"   "Hovedsaklig_ovre_stranskraning"                "PROXIMAL_DELTA_FRONT"
2488.7 "6407_2-2" 18.96000 "Sandstone" -999.25   -999.25 100.0000      0.0 0.0 "f/m"   "f/m"   "Hovedsaklig_ovre_stranskraning"                "PROXIMAL_DELTA_FRONT"
2488.8 "6407_2-2" 18.67000 "Sandstone" -999.25   -999.25 100.0000      0.0 0.0 "f/m"   "f/m"   "Hovedsaklig_ovre_stranskraning"                "PROXIMAL_DELTA_FRONT"
2488.9 "6407_2-2" 18.38000 "Sandstone" -999.25   -999.25 100.0000      0.0 0.0 "f/m"   "f/m"   "Hovedsaklig_ovre_stranskraning"                "PROXIMAL_DELTA_FRONT"
2489.0 "6407_2-2" 18.15000 "Sandstone" -999.25   -999.25 100.0000      0.0 0.0 "f/m"   "f/m"   "Hovedsaklig_ovre_stranskraning"                "PROXIMAL_DELTA_FRONT"
2489.1 "6407_2-2" 17.94000 "Sandstone" -999.25   -999.25 100.0000      0.0 0.0 "f/m"   "f/m"   "Hovedsaklig_ovre_stranskraning"                "PROXIMAL_DELTA_FRONT"
2489.2 "6407_2-2" 17.86000 "Sandstone" -999.25   -999.25 100.0000      0.0 0.0 "f/m"   "f/m"   "Hovedsaklig_ovre_stranskraning"                "PROXIMAL_DELTA_FRONT"
2489.3 "6407_2-2" 17.88000 "Sandstone" -999.25   -999.25 100.0000      0.0 0.0 "f/m"   "f/m"   "Hovedsaklig_ovre_stranskraning"                "PROXIMAL_DELTA_FRONT"
2489.4 "6407_2-2" 17.95000 "Sandstone" -999.25   -999.25 100.0000      0.0 0.0 "f/m"   "f/m"   "Hovedsaklig_ovre_stranskraning"                "PROXIMAL_DELTA_FRONT"
2489.5 "6407_2-2" 18.13000 "Sandstone" -999.25   -999.25 100.0000      0.0 0.0 "f/m"   "f/m"   "Hovedsaklig_ovre_stranskraning"                "PROXIMAL_DELTA_FRONT"
2489.6 "6407_2-2" 18.31000 "Sandstone" -999.25   -999.25 100.0000      0.0 0.0 "f/m"   "f/m"   "Hovedsaklig_ovre_stranskraning"                "PROXIMAL_DELTA_FRONT"
2489.7 "6407_2-2" 18.49000 "Sandstone" -999.25   -999.25 100.0000      0.0 0.0 "f/m"   "f/m"   "Hovedsaklig_ovre_stranskraning"                "PROXIMAL_DELTA_FRONT"
2489.8 "6407_2-2" 18.67000 "Sandstone" -999.25   -999.25 100.0000      0.0 0.0 "f/m"   "f/m"   "Hovedsaklig_ovre_stranskraning"                "PROXIMAL_DELTA_FRONT"
2489.9 "6407_2-2" 18.79000 "Sandstone" -999.25   -999.25 100.0000      0.0 0.0 "f/m"   "f/m"   "Hovedsaklig_ovre_stranskraning"                "PROXIMAL_DELTA_FRONT"
2490.0 "6407_2-2" 18.82000 "Sandstone" -999.25   -999.25 100.0000      0.0 0.0 "f/m"   "f/m"   "Hovedsaklig_ovre_stranskraning"                "PROXIMAL_DELTA_FRONT"
2490.1 "6407_2-2" 18.80000 "Sandstone" -999.25   -999.25 100.0000      0.0 0.0 "f/m"   "f/m"   "Hovedsaklig_ovre_stranskraning"                "PROXIMAL_DELTA_FRONT"
2490.2 "6407_2-2" 18.69000 "Sandstone" -999.25   -999.25 100.0000      0.0 0.0 "f/m"   "f/m"   "Hovedsaklig_ovre_stranskraning"                "PROXIMAL_DELTA_FRONT"
2490.3 "6407_2-2" 18.58000 "Sandstone" -999.25   -999.25 100.0000      0.0 0.0 "f/m"   "f/m"   "Hovedsaklig_ovre_stranskraning"                "PROXIMAL_DELTA_FRONT"
2490.4 "6407_2-2" 18.56000 "Sandstone" -999.25   -999.25 100.0000      0.0 0.0 "f/m"   "f/m"   "Hovedsaklig_ovre_stranskraning"                "PROXIMAL_DELTA_FRONT"
2490.5 "6407_2-2" 18.60000 "Sandstone" -999.25   -999.25 100.0000      0.0 0.0 "f/m"   "f/m"   "Hovedsaklig_ovre_stranskraning"                "PROXIMAL_DELTA_FRONT"
2490.6 "6407_2-2" 18.68000 "Sandstone" -999.25   -999.25 100.0000      0.0 0.0 "f/m"   "f/m"   "Hovedsaklig_ovre_stranskraning"                "PROXIMAL_DELTA_FRONT"
2490.7 "6407_2-2" 18.92000 "Sandstone" -999.25   -999.25 100.0000      0.0 0.0 "f/m"   "f/m"   "Hovedsaklig_ovre_stranskraning"                "PROXIMAL_DELTA_FRONT"
