~Version
VERS  .                                 3.0 : CWLS LAS ASCII Standard - Version 3.0
WRAP  . NO                                  : One line per depth step
DLM   . SPACE                               : Column data section delimiter
SOURCE. Converted to LAS by Log Studio 4.76 : GeoProvider

~Well
STRT.         2461.3 : Start depth
STOP.         2583.2 : Stop depth
STEP.              1 : Step
NULL.        -999.25 : No-value
COMP.                : Company
WELL. 6407/2-2       : Well
FLD .                : Field
LOC .                : Location
LATI.                : Latitude
LONG.                : Longitude
GDAT.                : Geodetic datum
CNTY.                : County
STAT.                : State
CTRY.                : Country
SRVC. GeoProvider AS : Service company
DATE.                : Date
API .                : API number
RUN .                : Run number

~Parameters
WellboreName.  : Wellbore name
RigName     .  : Rig name
StartDate   .  : Start date

~Curves
DEPTH.m            .  : null {F}Depth mMD
Hole_ID.-          .  : null {S}Hole ID
GR.API             .  : null {F}Gamma Ray
Lithology1.-       .  : null {S}Lithology 1
Lithology2.-       .  : null {S}Lithology 2
Lithology3.-       .  : null {S}Lithology 3
Lithology1.%       .  : null {F}Lithology 1 percentage
Lithology2.%       .  : null {F}Lithology 2 percentage
Lithology3.%       .  : null {F}Lithology 3 percentage
Grain_size_Top.-   .  : null {S}Grain size at the top 
Grain_size_Base.-  .  : null {S}Grain size at the bottom
Sub_Environment.-  .  : null {S}Sub Environment
Gross_Environment.-.  : null {S}Gross Environment

~Ascii
# ...
2530.1 "6407_2-2" 26.90000 "Shale"   "Sandstone" -999.25  90.0000 10.00000 0.0 "silt"  "silt"  "?_Avgrenset_marint_basseng"                    "PRODELTA"          
2530.2 "6407_2-2" 25.08000 "Shale"   "Sandstone" -999.25  90.0000 10.00000 0.0 "silt"  "silt"  "?_Avgrenset_marint_basseng"                    "PRODELTA"          
2530.3 "6407_2-2" 23.92000 "Shale"   "Sandstone" -999.25  90.0000 10.00000 0.0 "silt"  "silt"  "?_Avgrenset_marint_basseng"                    "PRODELTA"          
2530.4 "6407_2-2" 23.38000 "Shale"   "Sandstone" -999.25  90.0000 10.00000 0.0 "silt"  "silt"  "?_Avgrenset_marint_basseng"                    "PRODELTA"          
2530.5 "6407_2-2" 23.03000 "Shale"   "Sandstone" -999.25  90.0000 10.00000 0.0 "silt"  "silt"  "?_Avgrenset_marint_basseng"                    "PRODELTA"          
2530.6 "6407_2-2" 22.67000 "Shale"   "Sandstone" -999.25  90.0000 10.00000 0.0 "silt"  "silt"  "?_Avgrenset_marint_basseng"                    "PRODELTA"          
2530.7 "6407_2-2" 22.32000 "Shale"   "Sandstone" -999.25  90.0000 10.00000 0.0 "silt"  "silt"  "?_Avgrenset_marint_basseng"                    "PRODELTA"          
2530.8 "6407_2-2" 21.97000 "Shale"   "Sandstone" -999.25  82.0000 18.00000 0.0 "silt/vf" "m"     "?_Avgrenset_marint_basseng"                    "PRODELTA"          
2530.9 "6407_2-2" 21.60000 "Shale"   "Sandstone" -999.25  82.0000 18.00000 0.0 "silt/vf" "m"     "?_Avgrenset_marint_basseng"                    "PRODELTA"          
2531.0 "6407_2-2" 21.16000 "Shale"   "Sandstone" -999.25  82.0000 18.00000 0.0 "silt/vf" "m"     "?_Avgrenset_marint_basseng"                    "PRODELTA"          
2531.1 "6407_2-2" 20.80000 "Shale"   "Sandstone" -999.25  82.0000 18.00000 0.0 "silt/vf" "m"     "?_Avgrenset_marint_basseng"                    "PRODELTA"          
2531.2 "6407_2-2" 21.20000 "Shale"   "Sandstone" -999.25  82.0000 18.00000 0.0 "silt/vf" "m"     "?_Avgrenset_marint_basseng"                    "PRODELTA"          
2531.3 "6407_2-2" 21.91000 "Shale"   "Sandstone" -999.25  82.0000 18.00000 0.0 "silt/vf" "m"     "?_Avgrenset_marint_basseng"                    "PRODELTA"          
2531.4 "6407_2-2" 22.83000 "Shale"   "Sandstone" -999.25  82.0000 18.00000 0.0 "silt/vf" "m"     "?_Avgrenset_marint_basseng"                    "PRODELTA"          
2531.5 "6407_2-2" 23.75000 "Shale"   "Sandstone" -999.25  82.0000 18.00000 0.0 "silt/vf" "m"     "?_Avgrenset_marint_basseng"                    "PRODELTA"          
2531.6 "6407_2-2" 24.49000 "Shale"   "Sandstone" -999.25  82.0000 18.00000 0.0 "silt/vf" "m"     "?_Avgrenset_marint_basseng"                    "PRODELTA"          
2531.7 "6407_2-2" 24.84000 "Shale"   "Sandstone" -999.25  82.0000 18.00000 0.0 "silt/vf" "m"     "?_Avgrenset_marint_basseng"                    "PRODELTA"          
2531.8 "6407_2-2" 25.19000 "Shale"   "Sandstone" -999.25  82.0000 18.00000 0.0 "silt/vf" "m"     "?_Avgrenset_marint_basseng"                    "PRODELTA"          
2531.9 "6407_2-2" 25.54000 "Shale"   "Sandstone" -999.25  82.0000 18.00000 0.0 "silt/vf" "m"     "?_Avgrenset_marint_basseng"                    "PRODELTA"          
2532.0 "6407_2-2" 25.89000 "Shale"   "Sandstone" -999.25  82.0000 18.00000 0.0 "silt/vf" "m"     "?_Avgrenset_marint_basseng"                    "PRODELTA"          
2532.1 "6407_2-2" 26.24000 "Shale"   "Sandstone" -999.25  82.0000 18.00000 0.0 "silt/vf" "m"     "?_Avgrenset_marint_basseng"                    "PRODELTA"          
2532.2 "6407_2-2" 26.45000 "Shale"   "Sandstone" -999.25  82.0000 18.00000 0.0 "silt/vf" "m"     "?_Avgrenset_marint_basseng"                    "PRODELTA"          
2532.3 "6407_2-2" 26.44000 "Shale"   "Sandstone" -999.25  82.0000 18.00000 0.0 "silt/vf" "m"     "?_Avgrenset_marint_basseng"                    "PRODELTA"          
2532.4 "6407_2-2" 26.22000 "Shale"   "Sandstone" -999.25  82.0000 18.00000 0.0 "silt/vf" "m"     "?_Avgrenset_marint_basseng"                    "PRODELTA"          
2532.5 "6407_2-2" 25.87000 "Shale"   "Sandstone" -999.25  82.0000 18.00000 0.0 "silt/vf" "m"     "?_Avgrenset_marint_basseng"                    "PRODELTA"          
2532.6 "6407_2-2" 25.41000 "Shale"   "Sandstone" -999.25  82.0000 18.00000 0.0 "silt/vf" "m"     "?_Avgrenset_marint_basseng"                    "PRODELTA"          
2532.7 "6407_2-2" 24.95000 "Shale"   "Sandstone" -999.25  82.0000 18.00000 0.0 "silt/vf" "m"     "?_Avgrenset_marint_basseng"                    "PRODELTA"          
2532.8 "6407_2-2" 24.48000 "Shale"   "Sandstone" -999.25  82.0000 18.00000 0.0 "silt/vf" "m"     "?_Avgrenset_marint_basseng"                    "PRODELTA"          
2532.9 "6407_2-2" 24.13000 "Sandstone" -999.25   -999.25 100.0000      0.0 0.0 "m/c"   "c/vc"  "?_Avgrenset_marint_basseng"                    "PRODELTA"          
2533.0 "6407_2-2" 24.00000 "Sandstone" -999.25   -999.25 100.0000      0.0 0.0 "m/c"   "c/vc"  "?_Avgrenset_marint_basseng"                    "PRODELTA"          
2533.1 "6407_2-2" 23.88000 "Sandstone" -999.25   -999.25 100.0000      0.0 0.0 "m/c"   "c/vc"  "?_Avgrenset_marint_basseng"                    "PRODELTA"          
2533.2 "6407_2-2" 23.90000 "Sandstone" -999.25   -999.25 100.0000      0.0 0.0 "m/c"   "c/vc"  "?_Avgrenset_marint_basseng"                    "PRODELTA"          
2533.3 "6407_2-2" 23.91000 "Sandstone" -999.25   -999.25 100.0000      0.0 0.0 "m/c"   "c/vc"  "?_Avgrenset_marint_basseng"                    "PRODELTA"          
2533.4 "6407_2-2" 23.93000 "Sandstone" -999.25   -999.25 100.0000      0.0 0.0 "m/c"   "c/vc"  "?_Avgrenset_marint_basseng"                    "PRODELTA"          
2533.5 "6407_2-2" 23.95000 "Sandstone" -999.25   -999.25 100.0000      0.0 0.0 "m/c"   "c/vc"  "?_Avgrenset_marint_basseng"                    "PRODELTA"          
2533.6 "6407_2-2" 23.96000 "Sandstone" -999.25   -999.25 100.0000      0.0 0.0 "m/c"   "c/vc"  "?_Avgrenset_marint_basseng"                    "PRODELTA"          
2533.7 "6407_2-2" 23.96000 "Sandstone" -999.25   -999.25 100.0000      0.0 0.0 "m/c"   "c/vc"  "?_Avgrenset_marint_basseng"                    "PRODELTA"          
2533.8 "6407_2-2" 23.72000 "Sandstone" -999.25   -999.25 100.0000      0.0 0.0 "m/c"   "c/vc"  "?_Avgrenset_marint_basseng"                    "PRODELTA"          
2533.9 "6407_2-2" 23.49000 "Sandstone" -999.25   -999.25 100.0000      0.0 0.0 "m/c"   "c/vc"  "?_Avgrenset_marint_basseng"                    "PRODELTA"          
2534.0 "6407_2-2" 23.25000 "Sandstone" -999.25   -999.25 100.0000      0.0 0.0 "m/c"   "c/vc"  "?_Avgrenset_marint_basseng"                    "PRODELTA"          
2534.1 "6407_2-2" 23.01000 "Sandstone" -999.25   -999.25 100.0000      0.0 0.0 "m/c"   "c/vc"  "?_Avgrenset_marint_basseng"                    "PRODELTA"          
2534.2 "6407_2-2" 23.12000 "Sandstone" -999.25   -999.25 100.0000      0.0 0.0 "m/c"   "c/vc"  "?_Avgrenset_marint_basseng"                    "PRODELTA"          
2534.3 "6407_2-2" 23.25000 "Sandstone" -999.25   -999.25 100.0000      0.0 0.0 "m/c"   "c/vc"  "?_Avgrenset_marint_basseng"                    "PRODELTA"          
2534.4 "6407_2-2" 23.39000 "Sandstone" -999.25   -999.25 100.0000      0.0 0.0 "m/c"   "c/vc"  "?_Avgrenset_marint_basseng"                    "PRODELTA"          
2534.5 "6407_2-2" 23.53000 "Sandstone" -999.25   -999.25 100.0000      0.0 0.0 "m/c"   "c/vc"  "?_Avgrenset_marint_basseng"                    "PRODELTA"          
2534.6 "6407_2-2" 23.75000 -999.25   -999.25   -999.25 100.0000      0.0 0.0 -999.25 -999.25 -999.25                                         -999.25             
2534.7 "6407_2-2" 24.03000 -999.25   -999.25   -999.25 100.0000      0.0 0.0 -999.25 -999.25 -999.25                                         -999.25             
2534.8 "6407_2-2" 24.30000 -999.25   -999.25   -999.25 100.0000      0.0 0.0 -999.25 -999.25 -999.25                                         -999.25             
2534.9 "6407_2-2" 24.57000 -999.25   -999.25   -999.25 100.0000      0.0 0.0 -999.25 -999.25 -999.25                                         -999.25             
