~Version
VERS  .                                 3.0 : CWLS LAS ASCII Standard - Version 3.0
WRAP  . NO                                  : One line per depth step
DLM   . SPACE                               : Column data section delimiter
SOURCE. Converted to LAS by Log Studio 4.76 : GeoProvider

~Well
STRT.         2461.3 : Start depth
STOP.         2583.2 : Stop depth
STEP.              1 : Step
NULL.        -999.25 : No-value
COMP.                : Company
WELL. 6407/2-2       : Well
FLD .                : Field
LOC .                : Location
LATI.                : Latitude
LONG.                : Longitude
GDAT.                : Geodetic datum
CNTY.                : County
STAT.                : State
CTRY.                : Country
SRVC. GeoProvider AS : Service company
DATE.                : Date
API .                : API number
RUN .                : Run number

~Parameters
WellboreName.  : Wellbore name
RigName     .  : Rig name
StartDate   .  : Start date

~Curves
DEPTH.m            .  : null {F}Depth mMD
Hole_ID.-          .  : null {S}Hole ID
GR.API             .  : null {F}Gamma Ray
Lithology1.-       .  : null {S}Lithology 1
Lithology2.-       .  : null {S}Lithology 2
Lithology3.-       .  : null {S}Lithology 3
Lithology1.%       .  : null {F}Lithology 1 percentage
Lithology2.%       .  : null {F}Lithology 2 percentage
Lithology3.%       .  : null {F}Lithology 3 percentage
Grain_size_Top.-   .  : null {S}Grain size at the top 
Grain_size_Base.-  .  : null {S}Grain size at the bottom
Sub_Environment.-  .  : null {S}Sub Environment
Gross_Environment.-.  : null {S}Gross Environment

~Ascii
# ...
2505.5 "6407_2-2" 17.28000 "Sandstone" -999.25   -999.25 100.0000      0.0 0.0 "f/m"   "vf"    "Ovre_stranskraning"                            "PROXIMAL_DELTA_FRONT"
2505.6 "6407_2-2" 16.93000 "Sandstone" -999.25   -999.25 100.0000      0.0 0.0 "f/m"   "vf"    "Ovre_stranskraning"                            "PROXIMAL_DELTA_FRONT"
2505.7 "6407_2-2" 16.66000 "Sandstone" -999.25   -999.25 100.0000      0.0 0.0 "f/m"   "vf"    "Ovre_stranskraning"                            "PROXIMAL_DELTA_FRONT"
2505.8 "6407_2-2" 16.52000 "Sandstone" -999.25   -999.25 100.0000      0.0 0.0 "f/m"   "vf"    "Ovre_stranskraning"                            "PROXIMAL_DELTA_FRONT"
2505.9 "6407_2-2" 16.58000 "Sandstone" -999.25   -999.25 100.0000      0.0 0.0 "f/m"   "vf"    "Ovre_stranskraning"                            "PROXIMAL_DELTA_FRONT"
2506.0 "6407_2-2" 16.77000 "Sandstone" -999.25   -999.25 100.0000      0.0 0.0 "f/m"   "vf"    "Ovre_stranskraning"                            "PROXIMAL_DELTA_FRONT"
2506.1 "6407_2-2" 16.97000 "Sandstone" -999.25   -999.25 100.0000      0.0 0.0 "f/m"   "vf"    "Ovre_stranskraning"                            "PROXIMAL_DELTA_FRONT"
2506.2 "6407_2-2" 17.13000 "Sandstone" -999.25   -999.25 100.0000      0.0 0.0 "f/m"   "vf"    "Ovre_stranskraning"                            "PROXIMAL_DELTA_FRONT"
2506.3 "6407_2-2" 17.17000 -999.25   -999.25   -999.25 100.0000      0.0 0.0 -999.25 -999.25 "Ovre_stranskraning"                            "PROXIMAL_DELTA_FRONT"
2506.4 "6407_2-2" 17.03000 -999.25   -999.25   -999.25 100.0000      0.0 0.0 -999.25 -999.25 -999.25                                         -999.25             
2506.5 "6407_2-2" 16.75000 -999.25   -999.25   -999.25 100.0000      0.0 0.0 -999.25 -999.25 -999.25                                         -999.25             
2506.6 "6407_2-2" 16.45000 -999.25   -999.25   -999.25 100.0000      0.0 0.0 -999.25 -999.25 -999.25                                         -999.25             
2506.7 "6407_2-2" 16.14000 -999.25   -999.25   -999.25 100.0000      0.0 0.0 -999.25 -999.25 -999.25                                         -999.25             
2506.8 "6407_2-2" 15.83000 -999.25   -999.25   -999.25 100.0000      0.0 0.0 -999.25 -999.25 -999.25                                         -999.25             
2506.9 "6407_2-2" 15.55000 -999.25   -999.25   -999.25 100.0000      0.0 0.0 -999.25 -999.25 -999.25                                         -999.25             
2507.0 "6407_2-2" 15.42000 -999.25   -999.25   -999.25 100.0000      0.0 0.0 -999.25 -999.25 -999.25                                         -999.25             
2507.1 "6407_2-2" 15.31000 -999.25   -999.25   -999.25 100.0000      0.0 0.0 -999.25 -999.25 -999.25                                         -999.25             
2507.2 "6407_2-2" 15.28000 -999.25   -999.25   -999.25 100.0000      0.0 0.0 -999.25 -999.25 -999.25                                         -999.25             
2507.3 "6407_2-2" 15.24000 -999.25   -999.25   -999.25 100.0000      0.0 0.0 -999.25 -999.25 -999.25                                         -999.25             
2507.4 "6407_2-2" 15.37000 -999.25   -999.25   -999.25 100.0000      0.0 0.0 -999.25 -999.25 -999.25                                         -999.25             
2507.5 "6407_2-2" 15.60000 -999.25   -999.25   -999.25 100.0000      0.0 0.0 -999.25 -999.25 -999.25                                         -999.25             
2507.6 "6407_2-2" 15.84000 -999.25   -999.25   -999.25 100.0000      0.0 0.0 -999.25 -999.25 -999.25                                         -999.25             
2507.7 "6407_2-2" 16.07000 -999.25   -999.25   -999.25 100.0000      0.0 0.0 -999.25 -999.25 -999.25                                         -999.25             
2507.8 "6407_2-2" 16.49000 -999.25   -999.25   -999.25 100.0000      0.0 0.0 -999.25 -999.25 -999.25                                         -999.25             
2507.9 "6407_2-2" 17.02000 -999.25   -999.25   -999.25 100.0000      0.0 0.0 -999.25 -999.25 -999.25                                         -999.25             
2508.0 "6407_2-2" 17.55000 -999.25   -999.25   -999.25 100.0000      0.0 0.0 -999.25 -999.25 "Ovre_stranskraning"                            "PROXIMAL_DELTA_FRONT"
2508.1 "6407_2-2" 18.13000 "Sandstone" "Limestone" -999.25  30.0000 70.00000 0.0 "f/m"   "f/m"   "Ovre_stranskraning"                            "PROXIMAL_DELTA_FRONT"
2508.2 "6407_2-2" 19.16000 "Sandstone" "Limestone" -999.25  30.0000 70.00000 0.0 "f/m"   "f/m"   "Ovre_stranskraning"                            "PROXIMAL_DELTA_FRONT"
2508.3 "6407_2-2" 19.54000 "Sandstone" "Limestone" -999.25  30.0000 70.00000 0.0 "f/m"   "f/m"   "Ovre_stranskraning"                            "PROXIMAL_DELTA_FRONT"
2508.4 "6407_2-2" 19.92000 "Sandstone" "Limestone" -999.25  30.0000 70.00000 0.0 "f/m"   "f/m"   "Ovre_stranskraning"                            "PROXIMAL_DELTA_FRONT"
2508.5 "6407_2-2" 20.30000 "Sandstone" "Limestone" -999.25  30.0000 70.00000 0.0 "f/m"   "f/m"   "Ovre_stranskraning"                            "PROXIMAL_DELTA_FRONT"
2508.6 "6407_2-2" 20.48000 "Sandstone" "Limestone" -999.25  30.0000 70.00000 0.0 "f/m"   "f/m"   "Ovre_stranskraning"                            "PROXIMAL_DELTA_FRONT"
2508.7 "6407_2-2" 20.50000 "Sandstone" "Limestone" -999.25  30.0000 70.00000 0.0 "f/m"   "f/m"   "Ovre_stranskraning"                            "PROXIMAL_DELTA_FRONT"
2508.8 "6407_2-2" 20.46000 "Sandstone" "Limestone" -999.25  30.0000 70.00000 0.0 "f/m"   "f/m"   "Ovre_stranskraning"                            "PROXIMAL_DELTA_FRONT"
2508.9 "6407_2-2" 20.32000 "Sandstone" "Limestone" -999.25  30.0000 70.00000 0.0 "f/m"   "f/m"   "Ovre_stranskraning"                            "PROXIMAL_DELTA_FRONT"
2509.0 "6407_2-2" 20.12000 "Sandstone" "Limestone" -999.25  30.0000 70.00000 0.0 "f/m"   "f/m"   "Ovre_stranskraning"                            "PROXIMAL_DELTA_FRONT"
2509.1 "6407_2-2" 19.75000 "Sandstone" "Limestone" -999.25  30.0000 70.00000 0.0 "f/m"   "f/m"   "Ovre_stranskraning"                            "PROXIMAL_DELTA_FRONT"
2509.2 "6407_2-2" 19.38000 "Sandstone" "Limestone" -999.25  30.0000 70.00000 0.0 "f/m"   "f/m"   "Ovre_stranskraning"                            "PROXIMAL_DELTA_FRONT"
2509.3 "6407_2-2" 19.02000 "Sandstone" "Limestone" -999.25  30.0000 70.00000 0.0 "f/m"   "f/m"   "Ovre_stranskraning"                            "PROXIMAL_DELTA_FRONT"
2509.4 "6407_2-2" 18.78000 "Sandstone" "Limestone" -999.25  30.0000 70.00000 0.0 "f/m"   "f/m"   "Ovre_stranskraning"                            "PROXIMAL_DELTA_FRONT"
2509.5 "6407_2-2" 18.78000 "Sandstone" "Limestone" -999.25  30.0000 70.00000 0.0 "f/m"   "f/m"   "Ovre_stranskraning"                            "PROXIMAL_DELTA_FRONT"
2509.6 "6407_2-2" 18.95000 "Sandstone" "Limestone" -999.25  30.0000 70.00000 0.0 "f/m"   "f/m"   "Ovre_stranskraning"                            "PROXIMAL_DELTA_FRONT"
2509.7 "6407_2-2" 19.18000 "Sandstone" "Limestone" -999.25  30.0000 70.00000 0.0 "f/m"   "f/m"   "Ovre_stranskraning"                            "PROXIMAL_DELTA_FRONT"
2509.8 "6407_2-2" 19.18000 "Sandstone" "Limestone" -999.25  30.0000 70.00000 0.0 "f/m"   "f/m"   "Ovre_stranskraning"                            "PROXIMAL_DELTA_FRONT"
2509.9 "6407_2-2" 19.18000 "Sandstone" "Limestone" -999.25  30.0000 70.00000 0.0 "f/m"   "f/m"   "Ovre_stranskraning"                            "PROXIMAL_DELTA_FRONT"
2510.0 "6407_2-2" 18.73000 "Sandstone" "Limestone" -999.25  30.0000 70.00000 0.0 "f/m"   "f/m"   "Ovre_stranskraning"                            "PROXIMAL_DELTA_FRONT"
2510.1 "6407_2-2" 18.07000 "Sandstone" "Limestone" -999.25  30.0000 70.00000 0.0 "f/m"   "f/m"   "Ovre_stranskraning"                            "PROXIMAL_DELTA_FRONT"
2510.2 "6407_2-2" 17.40000 "Sandstone" "Limestone" -999.25  30.0000 70.00000 0.0 "f/m"   "f/m"   "Ovre_stranskraning"                            "PROXIMAL_DELTA_FRONT"
2510.3 "6407_2-2" 16.74000 "Sandstone" "Limestone" -999.25  30.0000 70.00000 0.0 "f/m"   "f/m"   "Ovre_stranskraning"                            "PROXIMAL_DELTA_FRONT"
