~Version
VERS  .                                 3.0 : CWLS LAS ASCII Standard - Version 3.0
WRAP  . NO                                  : One line per depth step
DLM   . SPACE                               : Column data section delimiter
SOURCE. Converted to LAS by Log Studio 4.76 : GeoProvider

~Well
STRT.         2461.3 : Start depth
STOP.         2583.2 : Stop depth
STEP.              1 : Step
NULL.        -999.25 : No-value
COMP.                : Company
WELL. 6407/2-2       : Well
FLD .                : Field
LOC .                : Location
LATI.                : Latitude
LONG.                : Longitude
GDAT.                : Geodetic datum
CNTY.                : County
STAT.                : State
CTRY.                : Country
SRVC. GeoProvider AS : Service company
DATE.                : Date
API .                : API number
RUN .                : Run number

~Parameters
WellboreName.  : Wellbore name
RigName     .  : Rig name
StartDate   .  : Start date

~Curves
DEPTH.m            .  : null {F}Depth mMD
Hole_ID.-          .  : null {S}Hole ID
GR.API             .  : null {F}Gamma Ray
Lithology1.-       .  : null {S}Lithology 1
Lithology2.-       .  : null {S}Lithology 2
Lithology3.-       .  : null {S}Lithology 3
Lithology1.%       .  : null {F}Lithology 1 percentage
Lithology2.%       .  : null {F}Lithology 2 percentage
Lithology3.%       .  : null {F}Lithology 3 percentage
Grain_size_Top.-   .  : null {S}Grain size at the top 
Grain_size_Base.-  .  : null {S}Grain size at the bottom
Sub_Environment.-  .  : null {S}Sub Environment
Gross_Environment.-.  : null {S}Gross Environment

~Ascii
# ...
2500.6 "6407_2-2" 21.04000 -999.25   -999.25   -999.25 100.0000      0.0 0.0 -999.25 -999.25 -999.25                                         -999.25             
2500.7 "6407_2-2" 20.89000 -999.25   -999.25   -999.25 100.0000      0.0 0.0 -999.25 -999.25 -999.25                                         -999.25             
2500.8 "6407_2-2" 20.74000 -999.25   -999.25   -999.25 100.0000      0.0 0.0 -999.25 -999.25 -999.25                                         -999.25             
2500.9 "6407_2-2" 20.59000 -999.25   -999.25   -999.25 100.0000      0.0 0.0 -999.25 -999.25 -999.25                                         -999.25             
2501.0 "6407_2-2" 20.33000 -999.25   -999.25   -999.25 100.0000      0.0 0.0 -999.25 -999.25 -999.25                                         -999.25             
2501.1 "6407_2-2" 20.08000 "Sandstone" -999.25   -999.25 100.0000      0.0 0.0 "f/m"   "vf"    -999.25                                         -999.25             
2501.2 "6407_2-2" 19.98000 "Sandstone" -999.25   -999.25 100.0000      0.0 0.0 "f/m"   "vf"    -999.25                                         -999.25             
2501.3 "6407_2-2" 20.13000 "Sandstone" -999.25   -999.25 100.0000      0.0 0.0 "f/m"   "vf"    -999.25                                         -999.25             
2501.4 "6407_2-2" 20.28000 "Sandstone" -999.25   -999.25 100.0000      0.0 0.0 "f/m"   "vf"    -999.25                                         -999.25             
2501.5 "6407_2-2" 20.62000 "Sandstone" -999.25   -999.25 100.0000      0.0 0.0 "f/m"   "vf"    "Ovre_stranskraning"                            "PROXIMAL_DELTA_FRONT"
2501.6 "6407_2-2" 21.01000 "Sandstone" -999.25   -999.25 100.0000      0.0 0.0 "f/m"   "vf"    "Ovre_stranskraning"                            "PROXIMAL_DELTA_FRONT"
2501.7 "6407_2-2" 21.16000 "Sandstone" -999.25   -999.25 100.0000      0.0 0.0 "f/m"   "vf"    "Ovre_stranskraning"                            "PROXIMAL_DELTA_FRONT"
2501.8 "6407_2-2" 21.31000 "Sandstone" -999.25   -999.25 100.0000      0.0 0.0 "f/m"   "vf"    "Ovre_stranskraning"                            "PROXIMAL_DELTA_FRONT"
2501.9 "6407_2-2" 21.46000 "Sandstone" -999.25   -999.25 100.0000      0.0 0.0 "f/m"   "vf"    "Ovre_stranskraning"                            "PROXIMAL_DELTA_FRONT"
2502.0 "6407_2-2" 21.49000 "Sandstone" -999.25   -999.25 100.0000      0.0 0.0 "f/m"   "vf"    "Ovre_stranskraning"                            "PROXIMAL_DELTA_FRONT"
2502.1 "6407_2-2" 21.48000 "Sandstone" -999.25   -999.25 100.0000      0.0 0.0 "f/m"   "vf"    "Ovre_stranskraning"                            "PROXIMAL_DELTA_FRONT"
2502.2 "6407_2-2" 21.46000 "Sandstone" -999.25   -999.25 100.0000      0.0 0.0 "f/m"   "vf"    "Ovre_stranskraning"                            "PROXIMAL_DELTA_FRONT"
2502.3 "6407_2-2" 21.36000 "Sandstone" -999.25   -999.25 100.0000      0.0 0.0 "f/m"   "vf"    "Ovre_stranskraning"                            "PROXIMAL_DELTA_FRONT"
2502.4 "6407_2-2" 21.18000 "Sandstone" -999.25   -999.25 100.0000      0.0 0.0 "f/m"   "vf"    "Ovre_stranskraning"                            "PROXIMAL_DELTA_FRONT"
2502.5 "6407_2-2" 20.93000 "Sandstone" -999.25   -999.25 100.0000      0.0 0.0 "f/m"   "vf"    "Ovre_stranskraning"                            "PROXIMAL_DELTA_FRONT"
2502.6 "6407_2-2" 20.61000 "Sandstone" -999.25   -999.25 100.0000      0.0 0.0 "f/m"   "vf"    "Ovre_stranskraning"                            "PROXIMAL_DELTA_FRONT"
2502.7 "6407_2-2" 20.29000 "Sandstone" -999.25   -999.25 100.0000      0.0 0.0 "f/m"   "vf"    "Ovre_stranskraning"                            "PROXIMAL_DELTA_FRONT"
2502.8 "6407_2-2" 20.23000 "Sandstone" -999.25   -999.25 100.0000      0.0 0.0 "f/m"   "vf"    "Ovre_stranskraning"                            "PROXIMAL_DELTA_FRONT"
2502.9 "6407_2-2" 20.22000 "Sandstone" -999.25   -999.25 100.0000      0.0 0.0 "f/m"   "vf"    "Ovre_stranskraning"                            "PROXIMAL_DELTA_FRONT"
2503.0 "6407_2-2" 20.26000 "Sandstone" -999.25   -999.25 100.0000      0.0 0.0 "f/m"   "vf"    "Ovre_stranskraning"                            "PROXIMAL_DELTA_FRONT"
2503.1 "6407_2-2" 20.38000 "Sandstone" -999.25   -999.25 100.0000      0.0 0.0 "f/m"   "vf"    "Ovre_stranskraning"                            "PROXIMAL_DELTA_FRONT"
2503.2 "6407_2-2" 20.80000 "Sandstone" -999.25   -999.25 100.0000      0.0 0.0 "f/m"   "vf"    "Ovre_stranskraning"                            "PROXIMAL_DELTA_FRONT"
2503.3 "6407_2-2" 20.98000 "Sandstone" -999.25   -999.25 100.0000      0.0 0.0 "f/m"   "vf"    "Ovre_stranskraning"                            "PROXIMAL_DELTA_FRONT"
2503.4 "6407_2-2" 20.91000 "Sandstone" -999.25   -999.25 100.0000      0.0 0.0 "f/m"   "vf"    "Ovre_stranskraning"                            "PROXIMAL_DELTA_FRONT"
2503.5 "6407_2-2" 20.41000 "Sandstone" -999.25   -999.25 100.0000      0.0 0.0 "f/m"   "vf"    "Ovre_stranskraning"                            "PROXIMAL_DELTA_FRONT"
2503.6 "6407_2-2" 19.92000 "Sandstone" -999.25   -999.25 100.0000      0.0 0.0 "f/m"   "vf"    "Ovre_stranskraning"                            "PROXIMAL_DELTA_FRONT"
2503.7 "6407_2-2" 19.42000 "Sandstone" -999.25   -999.25 100.0000      0.0 0.0 "f/m"   "vf"    "Ovre_stranskraning"                            "PROXIMAL_DELTA_FRONT"
2503.8 "6407_2-2" 19.17000 "Sandstone" -999.25   -999.25 100.0000      0.0 0.0 "f/m"   "vf"    "Ovre_stranskraning"                            "PROXIMAL_DELTA_FRONT"
2503.9 "6407_2-2" 19.08000 "Sandstone" -999.25   -999.25 100.0000      0.0 0.0 "f/m"   "vf"    "Ovre_stranskraning"                            "PROXIMAL_DELTA_FRONT"
2504.0 "6407_2-2" 19.12000 "Sandstone" -999.25   -999.25 100.0000      0.0 0.0 "f/m"   "vf"    "Ovre_stranskraning"                            "PROXIMAL_DELTA_FRONT"
2504.1 "6407_2-2" 19.17000 "Sandstone" -999.25   -999.25 100.0000      0.0 0.0 "f/m"   "vf"    "Ovre_stranskraning"                            "PROXIMAL_DELTA_FRONT"
2504.2 "6407_2-2" 19.32000 "Sandstone" -999.25   -999.25 100.0000      0.0 0.0 "f/m"   "vf"    "Ovre_stranskraning"                            "PROXIMAL_DELTA_FRONT"
2504.3 "6407_2-2" 19.51000 "Sandstone" -999.25   -999.25 100.0000      0.0 0.0 "f/m"   "vf"    "Ovre_stranskraning"                            "PROXIMAL_DELTA_FRONT"
2504.4 "6407_2-2" 19.70000 "Sandstone" -999.25   -999.25 100.0000      0.0 0.0 "f/m"   "vf"    "Ovre_stranskraning"                            "PROXIMAL_DELTA_FRONT"
2504.5 "6407_2-2" 19.89000 "Sandstone" -999.25   -999.25 100.0000      0.0 0.0 "f/m"   "vf"    "Ovre_stranskraning"                            "PROXIMAL_DELTA_FRONT"
2504.6 "6407_2-2" 19.91000 "Sandstone" -999.25   -999.25 100.0000      0.0 0.0 "f/m"   "vf"    "Ovre_stranskraning"                            "PROXIMAL_DELTA_FRONT"
2504.7 "6407_2-2" 19.89000 "Sandstone" -999.25   -999.25 100.0000      0.0 0.0 "f/m"   "vf"    "Ovre_stranskraning"                            "PROXIMAL_DELTA_FRONT"
2504.8 "6407_2-2" 19.73000 "Sandstone" -999.25   -999.25 100.0000      0.0 0.0 "f/m"   "vf"    "Ovre_stranskraning"                            "PROXIMAL_DELTA_FRONT"
2504.9 "6407_2-2" 19.38000 "Sandstone" -999.25   -999.25 100.0000      0.0 0.0 "f/m"   "vf"    "Ovre_stranskraning"                            "PROXIMAL_DELTA_FRONT"
2505.0 "6407_2-2" 19.03000 "Sandstone" -999.25   -999.25 100.0000      0.0 0.0 "f/m"   "vf"    "Ovre_stranskraning"                            "PROXIMAL_DELTA_FRONT"
2505.1 "6407_2-2" 18.68000 "Sandstone" -999.25   -999.25 100.0000      0.0 0.0 "f/m"   "vf"    "Ovre_stranskraning"                            "PROXIMAL_DELTA_FRONT"
2505.2 "6407_2-2" 18.33000 "Sandstone" -999.25   -999.25 100.0000      0.0 0.0 "f/m"   "vf"    "Ovre_stranskraning"                            "PROXIMAL_DELTA_FRONT"
2505.3 "6407_2-2" 17.98000 "Sandstone" -999.25   -999.25 100.0000      0.0 0.0 "f/m"   "vf"    "Ovre_stranskraning"                            "PROXIMAL_DELTA_FRONT"
2505.4 "6407_2-2" 17.63000 "Sandstone" -999.25   -999.25 100.0000      0.0 0.0 "f/m"   "vf"    "Ovre_stranskraning"                            "PROXIMAL_DELTA_FRONT"
