~Version
VERS  .                                 3.0 : CWLS LAS ASCII Standard - Version 3.0
WRAP  . NO                                  : One line per depth step
DLM   . SPACE                               : Column data section delimiter
SOURCE. Converted to LAS by Log Studio 4.76 : GeoProvider

~Well
STRT.         2461.3 : Start depth
STOP.         2583.2 : Stop depth
STEP.              1 : Step
NULL.        -999.25 : No-value
COMP.                : Company
WELL. 6407/2-2       : Well
FLD .                : Field
LOC .                : Location
LATI.                : Latitude
LONG.                : Longitude
GDAT.                : Geodetic datum
CNTY.                : County
STAT.                : State
CTRY.                : Country
SRVC. GeoProvider AS : Service company
DATE.                : Date
API .                : API number
RUN .                : Run number

~Parameters
WellboreName.  : Wellbore name
RigName     .  : Rig name
StartDate   .  : Start date

~Curves
DEPTH.m            .  : null {F}Depth mMD
Hole_ID.-          .  : null {S}Hole ID
GR.API             .  : null {F}Gamma Ray
Lithology1.-       .  : null {S}Lithology 1
Lithology2.-       .  : null {S}Lithology 2
Lithology3.-       .  : null {S}Lithology 3
Lithology1.%       .  : null {F}Lithology 1 percentage
Lithology2.%       .  : null {F}Lithology 2 percentage
Lithology3.%       .  : null {F}Lithology 3 percentage
Grain_size_Top.-   .  : null {S}Grain size at the top 
Grain_size_Base.-  .  : null {S}Grain size at the bottom
Sub_Environment.-  .  : null {S}Sub Environment
Gross_Environment.-.  : null {S}Gross Environment

~Ascii
# ...
2579.2 "6407_2-2" 21.10000 "Sandstone" -999.25   -999.25 100.0000      0.0 0.0 "m/c"   "m/c"   "Munningsbanke"                                 "DELTA_FRONT"       
2579.3 "6407_2-2" 21.08000 "Sandstone" -999.25   -999.25 100.0000      0.0 0.0 "m/c"   "m/c"   "Munningsbanke"                                 "DELTA_FRONT"       
2579.4 "6407_2-2" 21.16000 "Sandstone" -999.25   -999.25 100.0000      0.0 0.0 "m/c"   "m/c"   "Munningsbanke"                                 "DELTA_FRONT"       
2579.5 "6407_2-2" 21.71000 "Sandstone" -999.25   -999.25 100.0000      0.0 0.0 "m/c"   "m/c"   "Munningsbanke"                                 "DELTA_FRONT"       
2579.6 "6407_2-2" 22.75000 "Sandstone" -999.25   -999.25 100.0000      0.0 0.0 "m/c"   "m/c"   "Munningsbanke"                                 "DELTA_FRONT"       
2579.7 "6407_2-2" 23.48000 -999.25   -999.25   -999.25 100.0000      0.0 0.0 -999.25 -999.25 -999.25                                         -999.25             
2579.8 "6407_2-2" 23.87000 -999.25   -999.25   -999.25 100.0000      0.0 0.0 -999.25 -999.25 -999.25                                         -999.25             
2579.9 "6407_2-2" 24.15000 -999.25   -999.25   -999.25 100.0000      0.0 0.0 -999.25 -999.25 -999.25                                         -999.25             
2580.0 "6407_2-2" 24.21000 -999.25   -999.25   -999.25 100.0000      0.0 0.0 -999.25 -999.25 -999.25                                         -999.25             
2580.1 "6407_2-2" 23.90000 -999.25   -999.25   -999.25 100.0000      0.0 0.0 -999.25 -999.25 -999.25                                         -999.25             
2580.2 "6407_2-2" 23.65000 -999.25   -999.25   -999.25 100.0000      0.0 0.0 -999.25 -999.25 -999.25                                         -999.25             
2580.3 "6407_2-2" 23.91000 -999.25   -999.25   -999.25 100.0000      0.0 0.0 -999.25 -999.25 -999.25                                         -999.25             
2580.4 "6407_2-2" 25.22000 -999.25   -999.25   -999.25 100.0000      0.0 0.0 -999.25 -999.25 -999.25                                         -999.25             
2580.5 "6407_2-2" 25.87000 -999.25   -999.25   -999.25 100.0000      0.0 0.0 -999.25 -999.25 -999.25                                         -999.25             
2580.6 "6407_2-2" 25.93000 -999.25   -999.25   -999.25 100.0000      0.0 0.0 -999.25 -999.25 -999.25                                         -999.25             
2580.7 "6407_2-2" 25.78000 -999.25   -999.25   -999.25 100.0000      0.0 0.0 -999.25 -999.25 -999.25                                         -999.25             
2580.8 "6407_2-2" 25.07000 -999.25   -999.25   -999.25 100.0000      0.0 0.0 -999.25 -999.25 -999.25                                         -999.25             
2580.9 "6407_2-2" 23.84000 -999.25   -999.25   -999.25 100.0000      0.0 0.0 -999.25 -999.25 -999.25                                         -999.25             
2581.0 "6407_2-2" 22.47000 -999.25   -999.25   -999.25 100.0000      0.0 0.0 -999.25 -999.25 -999.25                                         -999.25             
2581.1 "6407_2-2" 21.10000 -999.25   -999.25   -999.25 100.0000      0.0 0.0 -999.25 -999.25 -999.25                                         -999.25             
2581.2 "6407_2-2" 20.42000 -999.25   -999.25   -999.25 100.0000      0.0 0.0 -999.25 -999.25 -999.25                                         -999.25             
2581.3 "6407_2-2" 20.12000 -999.25   -999.25   -999.25 100.0000      0.0 0.0 -999.25 -999.25 -999.25                                         -999.25             
2581.4 "6407_2-2" 19.82000 -999.25   -999.25   -999.25 100.0000      0.0 0.0 -999.25 -999.25 -999.25                                         -999.25             
2581.5 "6407_2-2" 19.52000 -999.25   -999.25   -999.25 100.0000      0.0 0.0 -999.25 -999.25 -999.25                                         -999.25             
2581.6 "6407_2-2" 18.91000 -999.25   -999.25   -999.25 100.0000      0.0 0.0 -999.25 -999.25 -999.25                                         -999.25             
2581.7 "6407_2-2" 18.25000 -999.25   -999.25   -999.25 100.0000      0.0 0.0 -999.25 -999.25 -999.25                                         -999.25             
2581.8 "6407_2-2" 17.73000 -999.25   -999.25   -999.25 100.0000      0.0 0.0 -999.25 -999.25 -999.25                                         -999.25             
2581.9 "6407_2-2" 17.68000 -999.25   -999.25   -999.25 100.0000      0.0 0.0 -999.25 -999.25 -999.25                                         -999.25             
2582.0 "6407_2-2" 17.77000 -999.25   -999.25   -999.25 100.0000      0.0 0.0 -999.25 -999.25 -999.25                                         "DELTA_FRONT"       
2582.1 "6407_2-2" 18.05000 "Sandstone" "Limestone" -999.25  70.0000 30.00000 0.0 "m"     "m"     -999.25                                         "DELTA_FRONT"       
2582.2 "6407_2-2" 18.07000 "Sandstone" "Limestone" -999.25  70.0000 30.00000 0.0 "m"     "m"     -999.25                                         "DELTA_FRONT"       
2582.3 "6407_2-2" 18.04000 "Sandstone" "Limestone" -999.25  70.0000 30.00000 0.0 "m"     "m"     -999.25                                         "DELTA_FRONT"       
2582.4 "6407_2-2" 18.01000 "Sandstone" "Limestone" -999.25  70.0000 30.00000 0.0 "m"     "m"     -999.25                                         "DELTA_FRONT"       
2582.5 "6407_2-2" 17.88000 "Sandstone" "Limestone" -999.25  70.0000 30.00000 0.0 "m"     "m"     -999.25                                         "DELTA_FRONT"       
2582.6 "6407_2-2" 17.51000 "Sandstone" "Limestone" -999.25  70.0000 30.00000 0.0 "m"     "m"     -999.25                                         "DELTA_FRONT"       
2582.7 "6407_2-2" 17.13000 "Sandstone" "Limestone" -999.25  70.0000 30.00000 0.0 "m"     "m"     -999.25                                         "DELTA_FRONT"       
2582.8 "6407_2-2" 16.67000 "Sandstone" "Limestone" -999.25  70.0000 30.00000 0.0 "m"     "m"     -999.25                                         "DELTA_FRONT"       
2582.9 "6407_2-2" 16.54000 "Sandstone" "Limestone" -999.25  70.0000 30.00000 0.0 "m"     "m"     -999.25                                         "DELTA_FRONT"       
2583.0 "6407_2-2" 16.59000 "Sandstone" "Limestone" -999.25  70.0000 30.00000 0.0 "m"     "m"     -999.25                                         "DELTA_FRONT"       
2583.1 "6407_2-2" 16.74000 "Sandstone" "Limestone" -999.25  70.0000 30.00000 0.0 "m"     "m"     -999.25                                         "DELTA_FRONT"       
2583.2 "6407_2-2" 17.00000 "Sandstone" "Limestone" -999.25  70.0000 30.00000 0.0 "m"     "m"     -999.25                                         "DELTA_FRONT"       
