~Version
VERS  .                                 3.0 : CWLS LAS ASCII Standard - Version 3.0
WRAP  . NO                                  : One line per depth step
DLM   . SPACE                               : Column data section delimiter
SOURCE. Converted to LAS by Log Studio 4.76 : GeoProvider

~Well
STRT.         2461.3 : Start depth
STOP.         2583.2 : Stop depth
STEP.              1 : Step
NULL.        -999.25 : No-value
COMP.                : Company
WELL. 6407/2-2       : Well
FLD .                : Field
LOC .                : Location
LATI.                : Latitude
LONG.                : Longitude
GDAT.                : Geodetic datum
CNTY.                : County
STAT.                : State
CTRY.                : Country
SRVC. GeoProvider AS : Service company
DATE.                : Date
API .                : API number
RUN .                : Run number

~Parameters
WellboreName.  : Wellbore name
RigName     .  : Rig name
StartDate   .  : Start date

~Curves
DEPTH.m            .  : null {F}Depth mMD
Hole_ID.-          .  : null {S}Hole ID
GR.API             .  : null {F}Gamma Ray
Lithology1.-       .  : null {S}Lithology 1
Lithology2.-       .  : null {S}Lithology 2
Lithology3.-       .  : null {S}Lithology 3
Lithology1.%       .  : null {F}Lithology 1 percentage
Lithology2.%       .  : null {F}Lithology 2 percentage
Lithology3.%       .  : null {F}Lithology 3 percentage
Grain_size_Top.-   .  : null {S}Grain size at the top 
Grain_size_Base.-  .  : null {S}Grain size at the bottom
Sub_Environment.-  .  : null {S}Sub Environment
Gross_Environment.-.  : null {S}Gross Environment

~Ascii
# ...
2520.3 "6407_2-2" 38.69000 "Sandstone" "Limestone" -999.25  30.0000 70.00000 0.0 "f/m"   "vf/f"  "REGRESSION"                                    "PRODELTA"          
2520.4 "6407_2-2" 39.43000 "Sandstone" "Limestone" -999.25  30.0000 70.00000 0.0 "f/m"   "vf/f"  "REGRESSION"                                    "PRODELTA"          
2520.5 "6407_2-2" 40.17000 "Sandstone" "Limestone" -999.25  30.0000 70.00000 0.0 "f/m"   "vf/f"  "REGRESSION"                                    "PRODELTA"          
2520.6 "6407_2-2" 40.91000 "Sandstone" "Limestone" -999.25  30.0000 70.00000 0.0 "f/m"   "vf/f"  "REGRESSION"                                    "PRODELTA"          
2520.7 "6407_2-2" 41.64000 "Sandstone" "Limestone" -999.25  30.0000 70.00000 0.0 "f/m"   "vf/f"  "REGRESSION"                                    "PRODELTA"          
2520.8 "6407_2-2" 41.66000 "Sandstone" "Limestone" -999.25  30.0000 70.00000 0.0 "f/m"   "vf/f"  "REGRESSION"                                    "PRODELTA"          
2520.9 "6407_2-2" 41.68000 "Sandstone" "Limestone" -999.25  30.0000 70.00000 0.0 "f/m"   "vf/f"  "REGRESSION"                                    "PRODELTA"          
2521.0 "6407_2-2" 41.70000 "Sandstone" "Limestone" -999.25  30.0000 70.00000 0.0 "f/m"   "vf/f"  "REGRESSION"                                    "PRODELTA"          
2521.1 "6407_2-2" 41.72000 "Sandstone" "Limestone" -999.25  30.0000 70.00000 0.0 "f/m"   "vf/f"  "REGRESSION"                                    "PRODELTA"          
2521.2 "6407_2-2" 41.82000 "Sandstone" "Limestone" -999.25  30.0000 70.00000 0.0 "f/m"   "vf/f"  "REGRESSION"                                    "PRODELTA"          
2521.3 "6407_2-2" 42.18000 "Sandstone" "Limestone" -999.25  30.0000 70.00000 0.0 "f/m"   "vf/f"  "REGRESSION"                                    "PRODELTA"          
2521.4 "6407_2-2" 42.53000 "Sandstone" "Limestone" -999.25  30.0000 70.00000 0.0 "f/m"   "vf/f"  "REGRESSION"                                    "PRODELTA"          
2521.5 "6407_2-2" 42.69000 "Sandstone" "Limestone" -999.25  30.0000 70.00000 0.0 "f/m"   "vf/f"  "REGRESSION"                                    "PRODELTA"          
2521.6 "6407_2-2" 42.72000 "Sandstone" "Limestone" -999.25  30.0000 70.00000 0.0 "f/m"   "vf/f"  "REGRESSION"                                    "PRODELTA"          
2521.7 "6407_2-2" 42.65000 "Sandstone" "Limestone" -999.25  30.0000 70.00000 0.0 "f/m"   "vf/f"  "REGRESSION"                                    "PRODELTA"          
2521.8 "6407_2-2" 42.54000 "Sandstone" "Limestone" -999.25  30.0000 70.00000 0.0 "f/m"   "vf/f"  "REGRESSION"                                    "PRODELTA"          
2521.9 "6407_2-2" 42.44000 "Sandstone" "Shale"   -999.25  20.0000 80.00000 0.0 "silt"  "vf/f"  "REGRESSION"                                    "PRODELTA"          
2522.0 "6407_2-2" 42.33000 "Sandstone" "Shale"   -999.25  20.0000 80.00000 0.0 "silt"  "vf/f"  "REGRESSION"                                    "PRODELTA"          
2522.1 "6407_2-2" 42.23000 "Sandstone" "Shale"   -999.25  20.0000 80.00000 0.0 "silt"  "vf/f"  "REGRESSION"                                    "PRODELTA"          
2522.2 "6407_2-2" 42.23000 "Sandstone" "Shale"   -999.25  20.0000 80.00000 0.0 "silt"  "vf/f"  "REGRESSION"                                    "PRODELTA"          
2522.3 "6407_2-2" 42.23000 "Sandstone" "Shale"   -999.25  20.0000 80.00000 0.0 "silt"  "vf/f"  "REGRESSION"                                    "PRODELTA"          
2522.4 "6407_2-2" 42.23000 "Sandstone" "Shale"   -999.25  20.0000 80.00000 0.0 "silt"  "vf/f"  "REGRESSION"                                    "PRODELTA"          
2522.5 "6407_2-2" 42.23000 "Sandstone" "Shale"   -999.25  20.0000 80.00000 0.0 "silt"  "vf/f"  "REGRESSION"                                    "PRODELTA"          
2522.6 "6407_2-2" 41.99000 "Sandstone" "Shale"   -999.25  20.0000 80.00000 0.0 "silt"  "vf/f"  "REGRESSION"                                    "PRODELTA"          
2522.7 "6407_2-2" 41.68000 "Sandstone" "Shale"   -999.25  20.0000 80.00000 0.0 "silt"  "vf/f"  "REGRESSION"                                    "PRODELTA"          
2522.8 "6407_2-2" 41.24000 "Sandstone" "Shale"   -999.25  20.0000 80.00000 0.0 "silt"  "vf/f"  "REGRESSION"                                    "PRODELTA"          
2522.9 "6407_2-2" 40.59000 "Sandstone" "Shale"   -999.25  20.0000 80.00000 0.0 "silt"  "vf/f"  "REGRESSION"                                    "PRODELTA"          
2523.0 "6407_2-2" 39.77000 "Sandstone" "Shale"   -999.25  20.0000 80.00000 0.0 "silt"  "vf/f"  "REGRESSION"                                    "PRODELTA"          
2523.1 "6407_2-2" 38.84000 "Sandstone" "Shale"   -999.25  20.0000 80.00000 0.0 "silt"  "vf/f"  "REGRESSION"                                    "PRODELTA"          
2523.2 "6407_2-2" 37.77000 "Sandstone" "Shale"   -999.25  20.0000 80.00000 0.0 "silt"  "vf/f"  "REGRESSION"                                    "PRODELTA"          
2523.3 "6407_2-2" 36.62000 "Sandstone" "Shale"   -999.25  20.0000 80.00000 0.0 "silt"  "vf/f"  "REGRESSION"                                    "PRODELTA"          
2523.4 "6407_2-2" 36.53000 "Sandstone" "Shale"   -999.25  20.0000 80.00000 0.0 "silt"  "vf/f"  "REGRESSION"                                    "PRODELTA"          
2523.5 "6407_2-2" 36.71000 "Sandstone" "Shale"   -999.25  20.0000 80.00000 0.0 "silt"  "vf/f"  "REGRESSION"                                    "PRODELTA"          
2523.6 "6407_2-2" 37.90000 "Sandstone" "Shale"   -999.25  20.0000 80.00000 0.0 "silt"  "vf/f"  "REGRESSION"                                    "PRODELTA"          
2523.7 "6407_2-2" 39.17000 "Sandstone" "Shale"   -999.25  20.0000 80.00000 0.0 "silt"  "vf/f"  "REGRESSION"                                    "PRODELTA"          
2523.8 "6407_2-2" 40.22000 "Sandstone" "Shale"   -999.25  20.0000 80.00000 0.0 "silt"  "vf/f"  "REGRESSION"                                    "PRODELTA"          
2523.9 "6407_2-2" 40.80000 "Sandstone" "Shale"   -999.25  20.0000 80.00000 0.0 "silt"  "vf/f"  "REGRESSION"                                    "PRODELTA"          
2524.0 "6407_2-2" 41.11000 "Sandstone" "Shale"   -999.25  20.0000 80.00000 0.0 "silt"  "vf/f"  "REGRESSION"                                    "PRODELTA"          
2524.1 "6407_2-2" 41.21000 "Sandstone" "Shale"   -999.25  20.0000 80.00000 0.0 "silt"  "vf/f"  "REGRESSION"                                    "PRODELTA"          
2524.2 "6407_2-2" 41.32000 "Sandstone" "Shale"   -999.25  20.0000 80.00000 0.0 "silt"  "vf/f"  "REGRESSION"                                    "PRODELTA"          
2524.3 "6407_2-2" 41.36000 "Sandstone" "Shale"   -999.25  20.0000 80.00000 0.0 "silt"  "vf/f"  "REGRESSION"                                    "PRODELTA"          
2524.4 "6407_2-2" 41.29000 "Sandstone" "Shale"   -999.25  20.0000 80.00000 0.0 "silt"  "vf/f"  "REGRESSION"                                    "PRODELTA"          
2524.5 "6407_2-2" 41.21000 "Sandstone" "Shale"   -999.25  20.0000 80.00000 0.0 "silt"  "vf/f"  "REGRESSION"                                    "PRODELTA"          
2524.6 "6407_2-2" 41.09000 "Sandstone" "Shale"   -999.25  20.0000 80.00000 0.0 "silt"  "vf/f"  "REGRESSION"                                    "PRODELTA"          
2524.7 "6407_2-2" 40.77000 "Sandstone" "Shale"   -999.25  20.0000 80.00000 0.0 "silt"  "vf/f"  "REGRESSION"                                    "PRODELTA"          
2524.8 "6407_2-2" 40.50000 "Sandstone" "Shale"   -999.25  20.0000 80.00000 0.0 "silt"  "vf/f"  "REGRESSION"                                    "PRODELTA"          
2524.9 "6407_2-2" 40.50000 "Sandstone" "Shale"   -999.25  20.0000 80.00000 0.0 "silt"  "vf/f"  "REGRESSION"                                    "PRODELTA"          
2525.0 "6407_2-2" 40.72000 "Sandstone" "Shale"   -999.25  20.0000 80.00000 0.0 "silt"  "vf/f"  "REGRESSION"                                    "PRODELTA"          
2525.1 "6407_2-2" 41.27000 "Sandstone" "Shale"   -999.25  20.0000 80.00000 0.0 "silt"  "vf/f"  "REGRESSION"                                    "PRODELTA"          
