~Version
VERS  .                                 3.0 : CWLS LAS ASCII Standard - Version 3.0
WRAP  . NO                                  : One line per depth step
DLM   . SPACE                               : Column data section delimiter
SOURCE. Converted to LAS by Log Studio 4.76 : GeoProvider

~Well
STRT.         2461.3 : Start depth
STOP.         2583.2 : Stop depth
STEP.              1 : Step
NULL.        -999.25 : No-value
COMP.                : Company
WELL. 6407/2-2       : Well
FLD .                : Field
LOC .                : Location
LATI.                : Latitude
LONG.                : Longitude
GDAT.                : Geodetic datum
CNTY.                : County
STAT.                : State
CTRY.                : Country
SRVC. GeoProvider AS : Service company
DATE.                : Date
API .                : API number
RUN .                : Run number

~Parameters
WellboreName.  : Wellbore name
RigName     .  : Rig name
StartDate   .  : Start date

~Curves
DEPTH.m            .  : null {F}Depth mMD
Hole_ID.-          .  : null {S}Hole ID
GR.API             .  : null {F}Gamma Ray
Lithology1.-       .  : null {S}Lithology 1
Lithology2.-       .  : null {S}Lithology 2
Lithology3.-       .  : null {S}Lithology 3
Lithology1.%       .  : null {F}Lithology 1 percentage
Lithology2.%       .  : null {F}Lithology 2 percentage
Lithology3.%       .  : null {F}Lithology 3 percentage
Grain_size_Top.-   .  : null {S}Grain size at the top 
Grain_size_Base.-  .  : null {S}Grain size at the bottom
Sub_Environment.-  .  : null {S}Sub Environment
Gross_Environment.-.  : null {S}Gross Environment

~Ascii
# ...
2544.8 "6407_2-2" 20.69000 "Sandstone" -999.25   -999.25 100.0000      0.0 0.0 "c/vc"  "f/m"   "Munningsbanke_Ovre_strandskaning"              "PROXIMAL_DELTA_FRONT"
2544.9 "6407_2-2" 20.03000 "Sandstone" -999.25   -999.25 100.0000      0.0 0.0 "c/vc"  "f/m"   "Munningsbanke_Ovre_strandskaning"              "PROXIMAL_DELTA_FRONT"
2545.0 "6407_2-2" 19.83000 "Sandstone" -999.25   -999.25 100.0000      0.0 0.0 "c/vc"  "f/m"   "Munningsbanke_Ovre_strandskaning"              "PROXIMAL_DELTA_FRONT"
2545.1 "6407_2-2" 19.73000 "Sandstone" -999.25   -999.25 100.0000      0.0 0.0 "c/vc"  "f/m"   "Munningsbanke_Ovre_strandskaning"              "PROXIMAL_DELTA_FRONT"
2545.2 "6407_2-2" 19.81000 "Sandstone" -999.25   -999.25 100.0000      0.0 0.0 "c/vc"  "f/m"   "Munningsbanke_Ovre_strandskaning"              "PROXIMAL_DELTA_FRONT"
2545.3 "6407_2-2" 19.91000 "Sandstone" -999.25   -999.25 100.0000      0.0 0.0 "c/vc"  "f/m"   "Munningsbanke_Ovre_strandskaning"              "PROXIMAL_DELTA_FRONT"
2545.4 "6407_2-2" 20.04000 "Sandstone" -999.25   -999.25 100.0000      0.0 0.0 "m/c"   "vc"    "Munningsbanke_Ovre_strandskaning"              "PROXIMAL_DELTA_FRONT"
2545.5 "6407_2-2" 20.24000 "Sandstone" -999.25   -999.25 100.0000      0.0 0.0 "m/c"   "vc"    "Munningsbanke_Ovre_strandskaning"              "PROXIMAL_DELTA_FRONT"
2545.6 "6407_2-2" 20.44000 "Sandstone" -999.25   -999.25 100.0000      0.0 0.0 "m/c"   "vc"    "Munningsbanke_Ovre_strandskaning"              "PROXIMAL_DELTA_FRONT"
2545.7 "6407_2-2" 20.58000 "Sandstone" -999.25   -999.25 100.0000      0.0 0.0 "m/c"   "vc"    "Munningsbanke_Ovre_strandskaning"              "PROXIMAL_DELTA_FRONT"
2545.8 "6407_2-2" 20.41000 "Sandstone" -999.25   -999.25 100.0000      0.0 0.0 "m/c"   "vc"    "Munningsbanke_Ovre_strandskaning"              "PROXIMAL_DELTA_FRONT"
2545.9 "6407_2-2" 20.24000 "Sandstone" -999.25   -999.25 100.0000      0.0 0.0 "m/c"   "vc"    "Munningsbanke_Ovre_strandskaning"              "PROXIMAL_DELTA_FRONT"
2546.0 "6407_2-2" 20.07000 "Sandstone" -999.25   -999.25 100.0000      0.0 0.0 "m/c"   "vc"    "Munningsbanke_Ovre_strandskaning"              "PROXIMAL_DELTA_FRONT"
2546.1 "6407_2-2" 20.09000 "Sandstone" -999.25   -999.25 100.0000      0.0 0.0 "m/c"   "vc"    "Munningsbanke_Ovre_strandskaning"              "PROXIMAL_DELTA_FRONT"
2546.2 "6407_2-2" 20.40000 "Sandstone" -999.25   -999.25 100.0000      0.0 0.0 "m/c"   "vc"    "Munningsbanke_Ovre_strandskaning"              "PROXIMAL_DELTA_FRONT"
2546.3 "6407_2-2" 20.78000 "Sandstone" -999.25   -999.25 100.0000      0.0 0.0 "m/c"   "vc"    "Munningsbanke_Ovre_strandskaning"              "PROXIMAL_DELTA_FRONT"
2546.4 "6407_2-2" 21.18000 "Sandstone" -999.25   -999.25 100.0000      0.0 0.0 "m/c"   "vc"    "Munningsbanke_Ovre_strandskaning"              "PROXIMAL_DELTA_FRONT"
2546.5 "6407_2-2" 21.59000 "Sandstone" -999.25   -999.25 100.0000      0.0 0.0 "m/c"   "vc"    "Munningsbanke_Ovre_strandskaning"              "PROXIMAL_DELTA_FRONT"
2546.6 "6407_2-2" 21.99000 "Sandstone" -999.25   -999.25 100.0000      0.0 0.0 "m/c"   "vc"    "Munningsbanke_Ovre_strandskaning"              "PROXIMAL_DELTA_FRONT"
2546.7 "6407_2-2" 22.37000 "Sandstone" -999.25   -999.25 100.0000      0.0 0.0 "m/c"   "vc"    "Munningsbanke_Ovre_strandskaning"              "PROXIMAL_DELTA_FRONT"
2546.8 "6407_2-2" 22.75000 "Sandstone" -999.25   -999.25 100.0000      0.0 0.0 "m/c"   "vc"    "Munningsbanke_Ovre_strandskaning"              "PROXIMAL_DELTA_FRONT"
2546.9 "6407_2-2" 23.13000 "Sandstone" -999.25   -999.25 100.0000      0.0 0.0 "m/c"   "vc"    "Munningsbanke_Ovre_strandskaning"              "PROXIMAL_DELTA_FRONT"
2547.0 "6407_2-2" 23.47000 "Sandstone" -999.25   -999.25 100.0000      0.0 0.0 "m/c"   "vc"    "Munningsbanke_Ovre_strandskaning"              "PROXIMAL_DELTA_FRONT"
2547.1 "6407_2-2" 23.80000 "Sandstone" -999.25   -999.25 100.0000      0.0 0.0 "m/c"   "vc"    "Munningsbanke_Ovre_strandskaning"              "PROXIMAL_DELTA_FRONT"
2547.2 "6407_2-2" 24.13000 "Sandstone" -999.25   -999.25 100.0000      0.0 0.0 "m/c"   "vc"    "Munningsbanke_Ovre_strandskaning"              "PROXIMAL_DELTA_FRONT"
2547.3 "6407_2-2" 24.46000 "Sandstone" -999.25   -999.25 100.0000      0.0 0.0 "m/c"   "vc"    "Munningsbanke_Ovre_strandskaning"              "PROXIMAL_DELTA_FRONT"
2547.4 "6407_2-2" 25.27000 "Sandstone" -999.25   -999.25 100.0000      0.0 0.0 "m/c"   "vc"    "Munningsbanke_Ovre_strandskaning"              "PROXIMAL_DELTA_FRONT"
2547.5 "6407_2-2" 26.68000 "Sandstone" -999.25   -999.25 100.0000      0.0 0.0 "m/c"   "vc"    "Munningsbanke_Ovre_strandskaning"              "PROXIMAL_DELTA_FRONT"
2547.6 "6407_2-2" 29.38000 "Sandstone" -999.25   -999.25 100.0000      0.0 0.0 "m/c"   "vc"    "Munningsbanke_Ovre_strandskaning"              "PROXIMAL_DELTA_FRONT"
2547.7 "6407_2-2" 31.81000 "Sandstone" -999.25   -999.25 100.0000      0.0 0.0 "m/c"   "vc"    "Munningsbanke_Ovre_strandskaning"              "PROXIMAL_DELTA_FRONT"
2547.8 "6407_2-2" 32.67000 "Sandstone" -999.25   -999.25 100.0000      0.0 0.0 "m/c"   "vc"    "Munningsbanke_Ovre_strandskaning"              "PROXIMAL_DELTA_FRONT"
2547.9 "6407_2-2" 34.33000 "Sandstone" -999.25   -999.25 100.0000      0.0 0.0 "m/c"   "vc"    "Munningsbanke_Ovre_strandskaning"              "PROXIMAL_DELTA_FRONT"
2548.0 "6407_2-2" 35.99000 "Sandstone" -999.25   -999.25 100.0000      0.0 0.0 "m/c"   "vc"    "Munningsbanke_Ovre_strandskaning"              "PROXIMAL_DELTA_FRONT"
2548.1 "6407_2-2" 35.77000 "Sandstone" -999.25   -999.25 100.0000      0.0 0.0 "m/c"   "vc"    "Munningsbanke_Ovre_strandskaning"              "PROXIMAL_DELTA_FRONT"
2548.2 "6407_2-2" 34.30000 "Sandstone" -999.25   -999.25 100.0000      0.0 0.0 "m/c"   "vc"    "Munningsbanke_Ovre_strandskaning"              "PROXIMAL_DELTA_FRONT"
2548.3 "6407_2-2" 32.62000 "Sandstone" -999.25   -999.25 100.0000      0.0 0.0 "m/c"   "vc"    "Munningsbanke_Ovre_strandskaning"              "PROXIMAL_DELTA_FRONT"
2548.4 "6407_2-2" 30.54000 "Sandstone" -999.25   -999.25 100.0000      0.0 0.0 "m/c"   "vc"    "Munningsbanke_Ovre_strandskaning"              "PROXIMAL_DELTA_FRONT"
2548.5 "6407_2-2" 28.46000 "Sandstone" -999.25   -999.25 100.0000      0.0 0.0 "m/c"   "vc"    "Munningsbanke_Ovre_strandskaning"              "PROXIMAL_DELTA_FRONT"
2548.6 "6407_2-2" 26.38000 "Sandstone" -999.25   -999.25 100.0000      0.0 0.0 "m/c"   "vc"    "Munningsbanke_Ovre_strandskaning"              "PROXIMAL_DELTA_FRONT"
2548.7 "6407_2-2" 25.29000 "Sandstone" -999.25   -999.25 100.0000      0.0 0.0 "m/c"   "vc"    "Munningsbanke_Ovre_strandskaning"              "PROXIMAL_DELTA_FRONT"
2548.8 "6407_2-2" 24.92000 "Sandstone" -999.25   -999.25 100.0000      0.0 0.0 "m/c"   "vc"    "Munningsbanke_Ovre_strandskaning"              "PROXIMAL_DELTA_FRONT"
2548.9 "6407_2-2" 24.92000 "Sandstone" -999.25   -999.25 100.0000      0.0 0.0 "m/c"   "vc"    "Munningsbanke_Ovre_strandskaning"              "PROXIMAL_DELTA_FRONT"
2549.0 "6407_2-2" 25.02000 -999.25   -999.25   -999.25 100.0000      0.0 0.0 -999.25 -999.25 "Munningsbanke_Ovre_strandskaning"              "PROXIMAL_DELTA_FRONT"
2549.1 "6407_2-2" 25.32000 -999.25   -999.25   -999.25 100.0000      0.0 0.0 -999.25 -999.25 -999.25                                         -999.25             
2549.2 "6407_2-2" 26.34000 -999.25   -999.25   -999.25 100.0000      0.0 0.0 -999.25 -999.25 -999.25                                         -999.25             
2549.3 "6407_2-2" 28.43000 -999.25   -999.25   -999.25 100.0000      0.0 0.0 -999.25 -999.25 -999.25                                         -999.25             
2549.4 "6407_2-2" 29.32000 -999.25   -999.25   -999.25 100.0000      0.0 0.0 -999.25 -999.25 -999.25                                         -999.25             
2549.5 "6407_2-2" 30.41000 -999.25   -999.25   -999.25 100.0000      0.0 0.0 -999.25 -999.25 -999.25                                         -999.25             
2549.6 "6407_2-2" 32.39000 -999.25   -999.25   -999.25 100.0000      0.0 0.0 -999.25 -999.25 -999.25                                         -999.25             
