~Version
VERS  .                                 3.0 : CWLS LAS ASCII Standard - Version 3.0
WRAP  . NO                                  : One line per depth step
DLM   . SPACE                               : Column data section delimiter
SOURCE. Converted to LAS by Log Studio 4.76 : GeoProvider

~Well
STRT.         2461.3 : Start depth
STOP.         2583.2 : Stop depth
STEP.              1 : Step
NULL.        -999.25 : No-value
COMP.                : Company
WELL. 6407/2-2       : Well
FLD .                : Field
LOC .                : Location
LATI.                : Latitude
LONG.                : Longitude
GDAT.                : Geodetic datum
CNTY.                : County
STAT.                : State
CTRY.                : Country
SRVC. GeoProvider AS : Service company
DATE.                : Date
API .                : API number
RUN .                : Run number

~Parameters
WellboreName.  : Wellbore name
RigName     .  : Rig name
StartDate   .  : Start date

~Curves
DEPTH.m            .  : null {F}Depth mMD
Hole_ID.-          .  : null {S}Hole ID
GR.API             .  : null {F}Gamma Ray
Lithology1.-       .  : null {S}Lithology 1
Lithology2.-       .  : null {S}Lithology 2
Lithology3.-       .  : null {S}Lithology 3
Lithology1.%       .  : null {F}Lithology 1 percentage
Lithology2.%       .  : null {F}Lithology 2 percentage
Lithology3.%       .  : null {F}Lithology 3 percentage
Grain_size_Top.-   .  : null {S}Grain size at the top 
Grain_size_Base.-  .  : null {S}Grain size at the bottom
Sub_Environment.-  .  : null {S}Sub Environment
Gross_Environment.-.  : null {S}Gross Environment

~Ascii
2461.3 "6407_2-2" 33.32000 "Sandstone" -999.25   -999.25 100.0000      0.0 0.0 "vf/f"  "vf/f"  "TRANSGRESSION_Ovre_midtre_strandskraning"      "DELTA_FRONT"       
2461.4 "6407_2-2" 32.15000 "Sandstone" -999.25   -999.25 100.0000      0.0 0.0 "vf/f"  "vf/f"  "TRANSGRESSION_Ovre_midtre_strandskraning"      "DELTA_FRONT"       
2461.5 "6407_2-2" 29.69000 "Sandstone" -999.25   -999.25 100.0000      0.0 0.0 "vf/f"  "vf/f"  "TRANSGRESSION_Ovre_midtre_strandskraning"      "DELTA_FRONT"       
2461.6 "6407_2-2" 26.93000 "Sandstone" -999.25   -999.25 100.0000      0.0 0.0 "vf/f"  "vf/f"  "TRANSGRESSION_Ovre_midtre_strandskraning"      "DELTA_FRONT"       
2461.7 "6407_2-2" 23.94000 "Sandstone" -999.25   -999.25 100.0000      0.0 0.0 "vf/f"  "vf/f"  "TRANSGRESSION_Ovre_midtre_strandskraning"      "DELTA_FRONT"       
2461.8 "6407_2-2" 22.78000 "Sandstone" -999.25   -999.25 100.0000      0.0 0.0 "vf/f"  "vf/f"  "TRANSGRESSION_Ovre_midtre_strandskraning"      "DELTA_FRONT"       
2461.9 "6407_2-2" 22.47000 "Sandstone" -999.25   -999.25 100.0000      0.0 0.0 "vf/f"  "f"     "TRANSGRESSION_Ovre_midtre_strandskraning"      "DELTA_FRONT"       
2462.0 "6407_2-2" 22.22000 "Sandstone" -999.25   -999.25 100.0000      0.0 0.0 "vf/f"  "f"     "TRANSGRESSION_Ovre_midtre_strandskraning"      "DELTA_FRONT"       
2462.1 "6407_2-2" 22.12000 "Sandstone" -999.25   -999.25 100.0000      0.0 0.0 "vf/f"  "f"     "TRANSGRESSION_Ovre_midtre_strandskraning"      "DELTA_FRONT"       
2462.2 "6407_2-2" 22.02000 "Sandstone" -999.25   -999.25 100.0000      0.0 0.0 "vf/f"  "f"     "TRANSGRESSION_Ovre_midtre_strandskraning"      "DELTA_FRONT"       
2462.3 "6407_2-2" 22.13000 "Sandstone" -999.25   -999.25 100.0000      0.0 0.0 "vf/f"  "f"     "TRANSGRESSION_Ovre_midtre_strandskraning"      "DELTA_FRONT"       
2462.4 "6407_2-2" 22.30000 "Sandstone" -999.25   -999.25 100.0000      0.0 0.0 "vf/f"  "f"     "TRANSGRESSION_Ovre_midtre_strandskraning"      "DELTA_FRONT"       
2462.5 "6407_2-2" 22.47000 "Sandstone" -999.25   -999.25 100.0000      0.0 0.0 "vf/f"  "f"     "TRANSGRESSION_Ovre_midtre_strandskraning"      "DELTA_FRONT"       
2462.6 "6407_2-2" 22.49000 "Sandstone" -999.25   -999.25 100.0000      0.0 0.0 "vf/f"  "f"     "TRANSGRESSION_Ovre_midtre_strandskraning"      "DELTA_FRONT"       
2462.7 "6407_2-2" 22.49000 "Sandstone" -999.25   -999.25 100.0000      0.0 0.0 "vf/f"  "f"     "TRANSGRESSION_Ovre_midtre_strandskraning"      "DELTA_FRONT"       
2462.8 "6407_2-2" 22.39000 "Sandstone" -999.25   -999.25 100.0000      0.0 0.0 "vf/f"  "f"     "TRANSGRESSION_Ovre_midtre_strandskraning"      "DELTA_FRONT"       
2462.9 "6407_2-2" 22.11000 "Sandstone" -999.25   -999.25 100.0000      0.0 0.0 "vf/f"  "f"     "TRANSGRESSION_Ovre_midtre_strandskraning"      "DELTA_FRONT"       
2463.0 "6407_2-2" 21.83000 "Sandstone" -999.25   -999.25 100.0000      0.0 0.0 "vf/f"  "f"     "TRANSGRESSION_Ovre_midtre_strandskraning"      "DELTA_FRONT"       
2463.1 "6407_2-2" 21.55000 "Sandstone" -999.25   -999.25 100.0000      0.0 0.0 "vf/f"  "f"     "TRANSGRESSION_Ovre_midtre_strandskraning"      "DELTA_FRONT"       
2463.2 "6407_2-2" 21.42000 "Sandstone" -999.25   -999.25 100.0000      0.0 0.0 "vf/f"  "f"     "TRANSGRESSION_Ovre_midtre_strandskraning"      "DELTA_FRONT"       
2463.3 "6407_2-2" 21.31000 "Sandstone" -999.25   -999.25 100.0000      0.0 0.0 "vf/f"  "f"     "TRANSGRESSION_Ovre_midtre_strandskraning"      "DELTA_FRONT"       
2463.4 "6407_2-2" 21.35000 "Sandstone" -999.25   -999.25 100.0000      0.0 0.0 "vf/f"  "f"     "TRANSGRESSION_Ovre_midtre_strandskraning"      "DELTA_FRONT"       
2463.5 "6407_2-2" 21.60000 "Sandstone" -999.25   -999.25 100.0000      0.0 0.0 "vf/f"  "f"     "TRANSGRESSION_Ovre_midtre_strandskraning"      "DELTA_FRONT"       
2463.6 "6407_2-2" 22.25000 "Sandstone" -999.25   -999.25 100.0000      0.0 0.0 "vf/f"  "f"     "TRANSGRESSION_Ovre_midtre_strandskraning"      "DELTA_FRONT"       
2463.7 "6407_2-2" 22.89000 "Sandstone" -999.25   -999.25 100.0000      0.0 0.0 "vf/f"  "f"     "TRANSGRESSION_Ovre_midtre_strandskraning"      "DELTA_FRONT"       
2463.8 "6407_2-2" 23.00000 "Sandstone" -999.25   -999.25 100.0000      0.0 0.0 "vf/f"  "f"     "TRANSGRESSION_Ovre_midtre_strandskraning"      "DELTA_FRONT"       
2463.9 "6407_2-2" 23.06000 "Sandstone" -999.25   -999.25 100.0000      0.0 0.0 "vf/f"  "f"     "TRANSGRESSION_Ovre_midtre_strandskraning"      "DELTA_FRONT"       
2464.0 "6407_2-2" 23.05000 "Sandstone" -999.25   -999.25 100.0000      0.0 0.0 "vf/f"  "f"     "TRANSGRESSION_Ovre_midtre_strandskraning"      "DELTA_FRONT"       
2464.1 "6407_2-2" 22.98000 "Sandstone" -999.25   -999.25 100.0000      0.0 0.0 "vf/f"  "f"     "TRANSGRESSION_Ovre_midtre_strandskraning"      "DELTA_FRONT"       
2464.2 "6407_2-2" 22.91000 "Sandstone" -999.25   -999.25 100.0000      0.0 0.0 "vf/f"  "f"     "TRANSGRESSION_Ovre_midtre_strandskraning"      "DELTA_FRONT"       
2464.3 "6407_2-2" 22.90000 "Sandstone" -999.25   -999.25 100.0000      0.0 0.0 "vf/f"  "f"     "TRANSGRESSION_Ovre_midtre_strandskraning"      "DELTA_FRONT"       
2464.4 "6407_2-2" 22.92000 "Sandstone" -999.25   -999.25 100.0000      0.0 0.0 "vf/f"  "f"     "TRANSGRESSION_Ovre_midtre_strandskraning"      "DELTA_FRONT"       
2464.5 "6407_2-2" 22.93000 "Sandstone" -999.25   -999.25 100.0000      0.0 0.0 "vf/f"  "f"     "TRANSGRESSION_Ovre_midtre_strandskraning"      "DELTA_FRONT"       
2464.6 "6407_2-2" 23.13000 "Sandstone" -999.25   -999.25 100.0000      0.0 0.0 "vf/f"  "f"     "TRANSGRESSION_Ovre_midtre_strandskraning"      "DELTA_FRONT"       
2464.7 "6407_2-2" 23.50000 "Sandstone" -999.25   -999.25 100.0000      0.0 0.0 "vf/f"  "f"     "TRANSGRESSION_Ovre_midtre_strandskraning"      "DELTA_FRONT"       
2464.8 "6407_2-2" 23.87000 "Sandstone" -999.25   -999.25 100.0000      0.0 0.0 "vf/f"  "f"     "TRANSGRESSION_Ovre_midtre_strandskraning"      "DELTA_FRONT"       
2464.9 "6407_2-2" 24.24000 "Sandstone" -999.25   -999.25 100.0000      0.0 0.0 "vf/f"  "f"     "TRANSGRESSION_Ovre_midtre_strandskraning"      "DELTA_FRONT"       
2465.0 "6407_2-2" 24.62000 "Sandstone" -999.25   -999.25 100.0000      0.0 0.0 "vf/f"  "f"     "TRANSGRESSION_Ovre_midtre_strandskraning"      "DELTA_FRONT"       
2465.1 "6407_2-2" 25.09000 "Sandstone" -999.25   -999.25 100.0000      0.0 0.0 "vf/f"  "f"     "TRANSGRESSION_Ovre_midtre_strandskraning"      "DELTA_FRONT"       
2465.2 "6407_2-2" 25.63000 "Sandstone" -999.25   -999.25 100.0000      0.0 0.0 "vf/f"  "f"     "TRANSGRESSION_Ovre_midtre_strandskraning"      "DELTA_FRONT"       
2465.3 "6407_2-2" 26.17000 "Sandstone" -999.25   -999.25 100.0000      0.0 0.0 "vf/f"  "f"     "TRANSGRESSION_Ovre_midtre_strandskraning"      "DELTA_FRONT"       
2465.4 "6407_2-2" 26.39000 "Sandstone" -999.25   -999.25 100.0000      0.0 0.0 "vf/f"  "f"     "TRANSGRESSION_Ovre_midtre_strandskraning"      "DELTA_FRONT"       
2465.5 "6407_2-2" 26.37000 "Sandstone" -999.25   -999.25 100.0000      0.0 0.0 "vf/f"  "f"     "TRANSGRESSION_Ovre_midtre_strandskraning"      "DELTA_FRONT"       
2465.6 "6407_2-2" 26.32000 "Sandstone" -999.25   -999.25 100.0000      0.0 0.0 "vf/f"  "f"     "TRANSGRESSION_Ovre_midtre_strandskraning"      "DELTA_FRONT"       
2465.7 "6407_2-2" 25.76000 "Sandstone" -999.25   -999.25 100.0000      0.0 0.0 "vf/f"  "f"     "TRANSGRESSION_Ovre_midtre_strandskraning"      "DELTA_FRONT"       
2465.8 "6407_2-2" 24.96000 "Sandstone" -999.25   -999.25 100.0000      0.0 0.0 "vf/f"  "f"     "TRANSGRESSION_Ovre_midtre_strandskraning"      "DELTA_FRONT"       
2465.9 "6407_2-2" 24.27000 "Sandstone" -999.25   -999.25 100.0000      0.0 0.0 "vf/f"  "f"     "TRANSGRESSION_Ovre_midtre_strandskraning"      "DELTA_FRONT"       
2466.0 "6407_2-2" 24.03000 "Sandstone" -999.25   -999.25 100.0000      0.0 0.0 "vf/f"  "f"     "TRANSGRESSION_Ovre_midtre_strandskraning"      "DELTA_FRONT"       
2466.1 "6407_2-2" 23.79000 "Sandstone" -999.25   -999.25 100.0000      0.0 0.0 "vf/f"  "f"     "TRANSGRESSION_Ovre_midtre_strandskraning"      "DELTA_FRONT"       
