~Version
VERS  .                                 3.0 : CWLS LAS ASCII Standard - Version 3.0
WRAP  . NO                                  : One line per depth step
DLM   . SPACE                               : Column data section delimiter
SOURCE. Converted to LAS by Log Studio 4.76 : GeoProvider

~Well
STRT.         2461.3 : Start depth
STOP.         2583.2 : Stop depth
STEP.              1 : Step
NULL.        -999.25 : No-value
COMP.                : Company
WELL. 6407/2-2       : Well
FLD .                : Field
LOC .                : Location
LATI.                : Latitude
LONG.                : Longitude
GDAT.                : Geodetic datum
CNTY.                : County
STAT.                : State
CTRY.                : Country
SRVC. GeoProvider AS : Service company
DATE.                : Date
API .                : API number
RUN .                : Run number

~Parameters
WellboreName.  : Wellbore name
RigName     .  : Rig name
StartDate   .  : Start date

~Curves
DEPTH.m            .  : null {F}Depth mMD
Hole_ID.-          .  : null {S}Hole ID
GR.API             .  : null {F}Gamma Ray
Lithology1.-       .  : null {S}Lithology 1
Lithology2.-       .  : null {S}Lithology 2
Lithology3.-       .  : null {S}Lithology 3
Lithology1.%       .  : null {F}Lithology 1 percentage
Lithology2.%       .  : null {F}Lithology 2 percentage
Lithology3.%       .  : null {F}Lithology 3 percentage
Grain_size_Top.-   .  : null {S}Grain size at the top 
Grain_size_Base.-  .  : null {S}Grain size at the bottom
Sub_Environment.-  .  : null {S}Sub Environment
Gross_Environment.-.  : null {S}Gross Environment

~Ascii
# ...
2471.1 "6407_2-2" 27.77000 "Sandstone" -999.25   -999.25 100.0000      0.0 0.0 "vf/f"  "f"     "TRANSGRESSION_Ovre_midtre_strandskraning"      "DELTA_FRONT"       
2471.2 "6407_2-2" 27.71000 -999.25   -999.25   -999.25 100.0000      0.0 0.0 -999.25 -999.25 -999.25                                         -999.25             
2471.3 "6407_2-2" 27.54000 -999.25   -999.25   -999.25 100.0000      0.0 0.0 -999.25 -999.25 -999.25                                         -999.25             
2471.4 "6407_2-2" 27.36000 -999.25   -999.25   -999.25 100.0000      0.0 0.0 -999.25 -999.25 -999.25                                         -999.25             
2471.5 "6407_2-2" 27.24000 -999.25   -999.25   -999.25 100.0000      0.0 0.0 -999.25 -999.25 -999.25                                         -999.25             
2471.6 "6407_2-2" 27.24000 -999.25   -999.25   -999.25 100.0000      0.0 0.0 -999.25 -999.25 -999.25                                         -999.25             
2471.7 "6407_2-2" 27.49000 -999.25   -999.25   -999.25 100.0000      0.0 0.0 -999.25 -999.25 -999.25                                         -999.25             
2471.8 "6407_2-2" 28.34000 -999.25   -999.25   -999.25 100.0000      0.0 0.0 -999.25 -999.25 -999.25                                         -999.25             
2471.9 "6407_2-2" 29.20000 -999.25   -999.25   -999.25 100.0000      0.0 0.0 -999.25 -999.25 -999.25                                         -999.25             
2472.0 "6407_2-2" 29.92000 -999.25   -999.25   -999.25 100.0000      0.0 0.0 -999.25 -999.25 -999.25                                         -999.25             
2472.1 "6407_2-2" 30.31000 -999.25   -999.25   -999.25 100.0000      0.0 0.0 -999.25 -999.25 -999.25                                         -999.25             
2472.2 "6407_2-2" 30.28000 -999.25   -999.25   -999.25 100.0000      0.0 0.0 -999.25 -999.25 -999.25                                         -999.25             
2472.3 "6407_2-2" 30.15000 -999.25   -999.25   -999.25 100.0000      0.0 0.0 -999.25 -999.25 -999.25                                         -999.25             
2472.4 "6407_2-2" 29.94000 -999.25   -999.25   -999.25 100.0000      0.0 0.0 -999.25 -999.25 -999.25                                         -999.25             
2472.5 "6407_2-2" 29.72000 -999.25   -999.25   -999.25 100.0000      0.0 0.0 -999.25 -999.25 -999.25                                         -999.25             
2472.6 "6407_2-2" 29.64000 -999.25   -999.25   -999.25 100.0000      0.0 0.0 -999.25 -999.25 -999.25                                         -999.25             
2472.7 "6407_2-2" 29.61000 -999.25   -999.25   -999.25 100.0000      0.0 0.0 -999.25 -999.25 -999.25                                         -999.25             
2472.8 "6407_2-2" 29.58000 -999.25   -999.25   -999.25 100.0000      0.0 0.0 -999.25 -999.25 -999.25                                         -999.25             
2472.9 "6407_2-2" 29.70000 -999.25   -999.25   -999.25 100.0000      0.0 0.0 -999.25 -999.25 -999.25                                         -999.25             
2473.0 "6407_2-2" 29.98000 -999.25   -999.25   -999.25 100.0000      0.0 0.0 -999.25 -999.25 "TRANSGRESSION"                                 "DELTA_FRONT"       
2473.1 "6407_2-2" 30.26000 "Sandstone" "Shale"   -999.25  97.0000  3.00000 0.0 "vf/f"  "vf/f"  "TRANSGRESSION"                                 "DELTA_FRONT"       
2473.2 "6407_2-2" 30.55000 "Sandstone" "Shale"   -999.25  97.0000  3.00000 0.0 "vf/f"  "vf/f"  "TRANSGRESSION"                                 "DELTA_FRONT"       
2473.3 "6407_2-2" 30.76000 "Sandstone" "Shale"   -999.25  97.0000  3.00000 0.0 "vf/f"  "vf/f"  "TRANSGRESSION"                                 "DELTA_FRONT"       
2473.4 "6407_2-2" 30.87000 "Sandstone" "Shale"   -999.25  97.0000  3.00000 0.0 "vf/f"  "vf/f"  "TRANSGRESSION"                                 "DELTA_FRONT"       
2473.5 "6407_2-2" 30.92000 "Sandstone" "Shale"   -999.25  97.0000  3.00000 0.0 "vf/f"  "vf/f"  "TRANSGRESSION"                                 "DELTA_FRONT"       
2473.6 "6407_2-2" 30.82000 "Sandstone" "Shale"   -999.25  97.0000  3.00000 0.0 "vf/f"  "vf/f"  "TRANSGRESSION"                                 "DELTA_FRONT"       
2473.7 "6407_2-2" 30.72000 "Sandstone" "Shale"   -999.25  97.0000  3.00000 0.0 "vf/f"  "vf/f"  "TRANSGRESSION"                                 "DELTA_FRONT"       
2473.8 "6407_2-2" 30.62000 "Sandstone" "Shale"   -999.25  97.0000  3.00000 0.0 "vf/f"  "vf/f"  "TRANSGRESSION"                                 "DELTA_FRONT"       
2473.9 "6407_2-2" 30.52000 "Sandstone" "Shale"   -999.25  97.0000  3.00000 0.0 "vf/f"  "vf/f"  "TRANSGRESSION"                                 "DELTA_FRONT"       
2474.0 "6407_2-2" 30.42000 "Sandstone" "Shale"   -999.25  97.0000  3.00000 0.0 "vf/f"  "vf/f"  "TRANSGRESSION"                                 "DELTA_FRONT"       
2474.1 "6407_2-2" 30.52000 "Sandstone" "Shale"   -999.25  97.0000  3.00000 0.0 "vf/f"  "vf/f"  "TRANSGRESSION"                                 "DELTA_FRONT"       
2474.2 "6407_2-2" 30.64000 "Sandstone" "Shale"   -999.25  97.0000  3.00000 0.0 "vf/f"  "vf/f"  "TRANSGRESSION"                                 "DELTA_FRONT"       
2474.3 "6407_2-2" 30.76000 "Sandstone" "Shale"   -999.25  97.0000  3.00000 0.0 "vf/f"  "vf/f"  "TRANSGRESSION"                                 "DELTA_FRONT"       
2474.4 "6407_2-2" 30.89000 "Sandstone" "Shale"   -999.25  97.0000  3.00000 0.0 "vf/f"  "vf/f"  "TRANSGRESSION"                                 "DELTA_FRONT"       
2474.5 "6407_2-2" 31.24000 "Sandstone" "Shale"   -999.25  97.0000  3.00000 0.0 "vf/f"  "vf/f"  "TRANSGRESSION"                                 "DELTA_FRONT"       
2474.6 "6407_2-2" 31.64000 "Sandstone" "Shale"   -999.25  97.0000  3.00000 0.0 "vf/f"  "vf/f"  "TRANSGRESSION"                                 "DELTA_FRONT"       
2474.7 "6407_2-2" 32.41000 "Sandstone" "Shale"   -999.25  97.0000  3.00000 0.0 "vf/f"  "vf/f"  "TRANSGRESSION"                                 "DELTA_FRONT"       
2474.8 "6407_2-2" 33.40000 "Sandstone" "Shale"   -999.25  97.0000  3.00000 0.0 "vf/f"  "vf/f"  "TRANSGRESSION"                                 "DELTA_FRONT"       
2474.9 "6407_2-2" 34.48000 "Sandstone" "Shale"   -999.25  97.0000  3.00000 0.0 "vf/f"  "vf/f"  "TRANSGRESSION"                                 "DELTA_FRONT"       
2475.0 "6407_2-2" 35.04000 "Sandstone" "Shale"   -999.25  97.0000  3.00000 0.0 "vf/f"  "vf/f"  "TRANSGRESSION"                                 "DELTA_FRONT"       
2475.1 "6407_2-2" 35.60000 "Sandstone" "Shale"   -999.25  97.0000  3.00000 0.0 "vf/f"  "vf/f"  "TRANSGRESSION"                                 "DELTA_FRONT"       
2475.2 "6407_2-2" 35.81000 "Sandstone" "Shale"   -999.25  97.0000  3.00000 0.0 "vf/f"  "vf/f"  "TRANSGRESSION"                                 "DELTA_FRONT"       
2475.3 "6407_2-2" 35.78000 "Sandstone" "Shale"   -999.25  97.0000  3.00000 0.0 "vf/f"  "vf/f"  "TRANSGRESSION"                                 "DELTA_FRONT"       
2475.4 "6407_2-2" 35.41000 "Sandstone" "Shale"   -999.25  97.0000  3.00000 0.0 "vf/f"  "vf/f"  "TRANSGRESSION"                                 "DELTA_FRONT"       
2475.5 "6407_2-2" 35.03000 "Sandstone" "Shale"   -999.25  97.0000  3.00000 0.0 "vf/f"  "vf/f"  "TRANSGRESSION"                                 "DELTA_FRONT"       
2475.6 "6407_2-2" 34.42000 "Sandstone" "Shale"   -999.25  97.0000  3.00000 0.0 "vf/f"  "vf/f"  "TRANSGRESSION"                                 "DELTA_FRONT"       
2475.7 "6407_2-2" 33.69000 "Sandstone" "Shale"   -999.25  97.0000  3.00000 0.0 "vf/f"  "vf/f"  "TRANSGRESSION"                                 "DELTA_FRONT"       
2475.8 "6407_2-2" 32.61000 "Sandstone" "Shale"   -999.25  97.0000  3.00000 0.0 "vf/f"  "vf/f"  "TRANSGRESSION"                                 "DELTA_FRONT"       
2475.9 "6407_2-2" 31.49000 "Sandstone" "Shale"   -999.25  97.0000  3.00000 0.0 "vf/f"  "vf/f"  "TRANSGRESSION"                                 "DELTA_FRONT"       
2476.0 "6407_2-2" 30.04000 "Sandstone" "Shale"   -999.25  97.0000  3.00000 0.0 "vf/f"  "vf/f"  "TRANSGRESSION"                                 "DELTA_FRONT"       
