~Version
VERS  .                                 3.0 : CWLS LAS ASCII Standard - Version 3.0
WRAP  . NO                                  : One line per depth step
DLM   . SPACE                               : Column data section delimiter
SOURCE. Converted to LAS by Log Studio 4.76 : GeoProvider

~Well
STRT.         2461.3 : Start depth
STOP.         2583.2 : Stop depth
STEP.              1 : Step
NULL.        -999.25 : No-value
COMP.                : Company
WELL. 6407/2-2       : Well
FLD .                : Field
LOC .                : Location
LATI.                : Latitude
LONG.                : Longitude
GDAT.                : Geodetic datum
CNTY.                : County
STAT.                : State
CTRY.                : Country
SRVC. GeoProvider AS : Service company
DATE.                : Date
API .                : API number
RUN .                : Run number

~Parameters
WellboreName.  : Wellbore name
RigName     .  : Rig name
StartDate   .  : Start date

~Curves
DEPTH.m            .  : null {F}Depth mMD
Hole_ID.-          .  : null {S}Hole ID
GR.API             .  : null {F}Gamma Ray
Lithology1.-       .  : null {S}Lithology 1
Lithology2.-       .  : null {S}Lithology 2
Lithology3.-       .  : null {S}Lithology 3
Lithology1.%       .  : null {F}Lithology 1 percentage
Lithology2.%       .  : null {F}Lithology 2 percentage
Lithology3.%       .  : null {F}Lithology 3 percentage
Grain_size_Top.-   .  : null {S}Grain size at the top 
Grain_size_Base.-  .  : null {S}Grain size at the bottom
Sub_Environment.-  .  : null {S}Sub Environment
Gross_Environment.-.  : null {S}Gross Environment

~Ascii
# ...
2535.0 "6407_2-2" 24.73000 -999.25   -999.25   -999.25 100.0000      0.0 0.0 -999.25 -999.25 -999.25                                         -999.25             
2535.1 "6407_2-2" 24.89000 -999.25   -999.25   -999.25 100.0000      0.0 0.0 -999.25 -999.25 -999.25                                         -999.25             
2535.2 "6407_2-2" 25.05000 -999.25   -999.25   -999.25 100.0000      0.0 0.0 -999.25 -999.25 -999.25                                         -999.25             
2535.3 "6407_2-2" 25.08000 -999.25   -999.25   -999.25 100.0000      0.0 0.0 -999.25 -999.25 -999.25                                         -999.25             
2535.4 "6407_2-2" 25.02000 -999.25   -999.25   -999.25 100.0000      0.0 0.0 -999.25 -999.25 -999.25                                         -999.25             
2535.5 "6407_2-2" 24.89000 -999.25   -999.25   -999.25 100.0000      0.0 0.0 -999.25 -999.25 -999.25                                         -999.25             
2535.6 "6407_2-2" 24.50000 -999.25   -999.25   -999.25 100.0000      0.0 0.0 -999.25 -999.25 -999.25                                         -999.25             
2535.7 "6407_2-2" 24.10000 -999.25   -999.25   -999.25 100.0000      0.0 0.0 -999.25 -999.25 -999.25                                         -999.25             
2535.8 "6407_2-2" 23.71000 -999.25   -999.25   -999.25 100.0000      0.0 0.0 -999.25 -999.25 -999.25                                         -999.25             
2535.9 "6407_2-2" 23.12000 -999.25   -999.25   -999.25 100.0000      0.0 0.0 -999.25 -999.25 -999.25                                         -999.25             
2536.0 "6407_2-2" 22.58000 -999.25   -999.25   -999.25 100.0000      0.0 0.0 -999.25 -999.25 "Munningsbanke_Ovre_strandskaning"              "PROXIMAL_DELTA_FRONT"
2536.1 "6407_2-2" 22.18000 "Sandstone" -999.25   -999.25 100.0000      0.0 0.0 "c/vc"  "m/c"   "Munningsbanke_Ovre_strandskaning"              "PROXIMAL_DELTA_FRONT"
2536.2 "6407_2-2" 22.17000 "Sandstone" -999.25   -999.25 100.0000      0.0 0.0 "c/vc"  "m/c"   "Munningsbanke_Ovre_strandskaning"              "PROXIMAL_DELTA_FRONT"
2536.3 "6407_2-2" 22.36000 "Sandstone" -999.25   -999.25 100.0000      0.0 0.0 "c/vc"  "m/c"   "Munningsbanke_Ovre_strandskaning"              "PROXIMAL_DELTA_FRONT"
2536.4 "6407_2-2" 22.72000 "Sandstone" -999.25   -999.25 100.0000      0.0 0.0 "c/vc"  "m/c"   "Munningsbanke_Ovre_strandskaning"              "PROXIMAL_DELTA_FRONT"
2536.5 "6407_2-2" 23.24000 "Sandstone" -999.25   -999.25 100.0000      0.0 0.0 "c/vc"  "m/c"   "Munningsbanke_Ovre_strandskaning"              "PROXIMAL_DELTA_FRONT"
2536.6 "6407_2-2" 23.49000 "Sandstone" -999.25   -999.25 100.0000      0.0 0.0 "c/vc"  "m/c"   "Munningsbanke_Ovre_strandskaning"              "PROXIMAL_DELTA_FRONT"
2536.7 "6407_2-2" 23.57000 "Sandstone" -999.25   -999.25 100.0000      0.0 0.0 "c/vc"  "m/c"   "Munningsbanke_Ovre_strandskaning"              "PROXIMAL_DELTA_FRONT"
2536.8 "6407_2-2" 23.60000 "Sandstone" -999.25   -999.25 100.0000      0.0 0.0 "c/vc"  "m/c"   "Munningsbanke_Ovre_strandskaning"              "PROXIMAL_DELTA_FRONT"
2536.9 "6407_2-2" 23.48000 "Sandstone" -999.25   -999.25 100.0000      0.0 0.0 "c/vc"  "m/c"   "Munningsbanke_Ovre_strandskaning"              "PROXIMAL_DELTA_FRONT"
2537.0 "6407_2-2" 23.35000 "Sandstone" -999.25   -999.25 100.0000      0.0 0.0 "c/vc"  "m/c"   "Munningsbanke_Ovre_strandskaning"              "PROXIMAL_DELTA_FRONT"
2537.1 "6407_2-2" 23.20000 "Sandstone" -999.25   -999.25 100.0000      0.0 0.0 "c/vc"  "m/c"   "Munningsbanke_Ovre_strandskaning"              "PROXIMAL_DELTA_FRONT"
2537.2 "6407_2-2" 22.77000 "Sandstone" -999.25   -999.25 100.0000      0.0 0.0 "c/vc"  "m/c"   "Munningsbanke_Ovre_strandskaning"              "PROXIMAL_DELTA_FRONT"
2537.3 "6407_2-2" 22.34000 "Sandstone" -999.25   -999.25 100.0000      0.0 0.0 "c/vc"  "m/c"   "Munningsbanke_Ovre_strandskaning"              "PROXIMAL_DELTA_FRONT"
2537.4 "6407_2-2" 21.91000 "Sandstone" -999.25   -999.25 100.0000      0.0 0.0 "c/vc"  "m/c"   "Munningsbanke_Ovre_strandskaning"              "PROXIMAL_DELTA_FRONT"
2537.5 "6407_2-2" 21.48000 "Sandstone" -999.25   -999.25 100.0000      0.0 0.0 "c/vc"  "m/c"   "Munningsbanke_Ovre_strandskaning"              "PROXIMAL_DELTA_FRONT"
2537.6 "6407_2-2" 21.06000 "Sandstone" -999.25   -999.25 100.0000      0.0 0.0 "c/vc"  "m/c"   "Munningsbanke_Ovre_strandskaning"              "PROXIMAL_DELTA_FRONT"
2537.7 "6407_2-2" 20.78000 "Sandstone" -999.25   -999.25 100.0000      0.0 0.0 "c/vc"  "m/c"   "Munningsbanke_Ovre_strandskaning"              "PROXIMAL_DELTA_FRONT"
2537.8 "6407_2-2" 20.69000 "Sandstone" -999.25   -999.25 100.0000      0.0 0.0 "c/vc"  "m/c"   "Munningsbanke_Ovre_strandskaning"              "PROXIMAL_DELTA_FRONT"
2537.9 "6407_2-2" 20.60000 "Sandstone" -999.25   -999.25 100.0000      0.0 0.0 "c/vc"  "m/c"   "Munningsbanke_Ovre_strandskaning"              "PROXIMAL_DELTA_FRONT"
2538.0 "6407_2-2" 20.52000 "Sandstone" -999.25   -999.25 100.0000      0.0 0.0 "c/vc"  "m/c"   "Munningsbanke_Ovre_strandskaning"              "PROXIMAL_DELTA_FRONT"
2538.1 "6407_2-2" 20.43000 "Sandstone" -999.25   -999.25 100.0000      0.0 0.0 "c/vc"  "m/c"   "Munningsbanke_Ovre_strandskaning"              "PROXIMAL_DELTA_FRONT"
2538.2 "6407_2-2" 20.35000 "Sandstone" -999.25   -999.25 100.0000      0.0 0.0 "c/vc"  "m/c"   "Munningsbanke_Ovre_strandskaning"              "PROXIMAL_DELTA_FRONT"
2538.3 "6407_2-2" 20.26000 "Sandstone" -999.25   -999.25 100.0000      0.0 0.0 "c/vc"  "m/c"   "Munningsbanke_Ovre_strandskaning"              "PROXIMAL_DELTA_FRONT"
2538.4 "6407_2-2" 20.47000 "Sandstone" -999.25   -999.25 100.0000      0.0 0.0 "c/vc"  "m/c"   "Munningsbanke_Ovre_strandskaning"              "PROXIMAL_DELTA_FRONT"
2538.5 "6407_2-2" 20.95000 "Sandstone" -999.25   -999.25 100.0000      0.0 0.0 "c/vc"  "m/c"   "Munningsbanke_Ovre_strandskaning"              "PROXIMAL_DELTA_FRONT"
2538.6 "6407_2-2" 21.27000 "Sandstone" -999.25   -999.25 100.0000      0.0 0.0 "c/vc"  "m/c"   "Munningsbanke_Ovre_strandskaning"              "PROXIMAL_DELTA_FRONT"
2538.7 "6407_2-2" 21.31000 "Sandstone" -999.25   -999.25 100.0000      0.0 0.0 "c/vc"  "m/c"   "Munningsbanke_Ovre_strandskaning"              "PROXIMAL_DELTA_FRONT"
2538.8 "6407_2-2" 21.34000 "Sandstone" -999.25   -999.25 100.0000      0.0 0.0 "c/vc"  "m/c"   "Munningsbanke_Ovre_strandskaning"              "PROXIMAL_DELTA_FRONT"
2538.9 "6407_2-2" 21.15000 "Sandstone" -999.25   -999.25 100.0000      0.0 0.0 "c/vc"  "m/c"   "Munningsbanke_Ovre_strandskaning"              "PROXIMAL_DELTA_FRONT"
2539.0 "6407_2-2" 20.80000 "Sandstone" -999.25   -999.25 100.0000      0.0 0.0 "c/vc"  "m/c"   "Munningsbanke_Ovre_strandskaning"              "PROXIMAL_DELTA_FRONT"
2539.1 "6407_2-2" 20.46000 "Sandstone" -999.25   -999.25 100.0000      0.0 0.0 "c/vc"  "m/c"   "Munningsbanke_Ovre_strandskaning"              "PROXIMAL_DELTA_FRONT"
2539.2 "6407_2-2" 20.12000 "Sandstone" -999.25   -999.25 100.0000      0.0 0.0 "c/vc"  "m/c"   "Munningsbanke_Ovre_strandskaning"              "PROXIMAL_DELTA_FRONT"
2539.3 "6407_2-2" 19.81000 "Sandstone" -999.25   -999.25 100.0000      0.0 0.0 "c/vc"  "m/c"   "Munningsbanke_Ovre_strandskaning"              "PROXIMAL_DELTA_FRONT"
2539.4 "6407_2-2" 19.54000 "Sandstone" -999.25   -999.25 100.0000      0.0 0.0 "c/vc"  "m/c"   "Munningsbanke_Ovre_strandskaning"              "PROXIMAL_DELTA_FRONT"
2539.5 "6407_2-2" 19.50000 "Sandstone" -999.25   -999.25 100.0000      0.0 0.0 "c/vc"  "m/c"   "Munningsbanke_Ovre_strandskaning"              "PROXIMAL_DELTA_FRONT"
2539.6 "6407_2-2" 19.62000 "Sandstone" -999.25   -999.25 100.0000      0.0 0.0 "c/vc"  "m/c"   "Munningsbanke_Ovre_strandskaning"              "PROXIMAL_DELTA_FRONT"
2539.7 "6407_2-2" 19.75000 "Sandstone" -999.25   -999.25 100.0000      0.0 0.0 "c/vc"  "m/c"   "Munningsbanke_Ovre_strandskaning"              "PROXIMAL_DELTA_FRONT"
2539.8 "6407_2-2" 20.07000 "Sandstone" -999.25   -999.25 100.0000      0.0 0.0 "c/vc"  "m/c"   "Munningsbanke_Ovre_strandskaning"              "PROXIMAL_DELTA_FRONT"
