~Version
VERS  .                                 3.0 : CWLS LAS ASCII Standard - Version 3.0
WRAP  . NO                                  : One line per depth step
DLM   . SPACE                               : Column data section delimiter
SOURCE. Converted to LAS by Log Studio 4.76 : GeoProvider

~Well
STRT.         2461.3 : Start depth
STOP.         2583.2 : Stop depth
STEP.              1 : Step
NULL.        -999.25 : No-value
COMP.                : Company
WELL. 6407/2-2       : Well
FLD .                : Field
LOC .                : Location
LATI.                : Latitude
LONG.                : Longitude
GDAT.                : Geodetic datum
CNTY.                : County
STAT.                : State
CTRY.                : Country
SRVC. GeoProvider AS : Service company
DATE.                : Date
API .                : API number
RUN .                : Run number

~Parameters
WellboreName.  : Wellbore name
RigName     .  : Rig name
StartDate   .  : Start date

~Curves
DEPTH.m            .  : null {F}Depth mMD
Hole_ID.-          .  : null {S}Hole ID
GR.API             .  : null {F}Gamma Ray
Lithology1.-       .  : null {S}Lithology 1
Lithology2.-       .  : null {S}Lithology 2
Lithology3.-       .  : null {S}Lithology 3
Lithology1.%       .  : null {F}Lithology 1 percentage
Lithology2.%       .  : null {F}Lithology 2 percentage
Lithology3.%       .  : null {F}Lithology 3 percentage
Grain_size_Top.-   .  : null {S}Grain size at the top 
Grain_size_Base.-  .  : null {S}Grain size at the bottom
Sub_Environment.-  .  : null {S}Sub Environment
Gross_Environment.-.  : null {S}Gross Environment

~Ascii
# ...
2549.7 "6407_2-2" 34.38000 -999.25   -999.25   -999.25 100.0000      0.0 0.0 -999.25 -999.25 -999.25                                         -999.25             
2549.8 "6407_2-2" 36.88000 -999.25   -999.25   -999.25 100.0000      0.0 0.0 -999.25 -999.25 -999.25                                         -999.25             
2549.9 "6407_2-2" 39.53000 -999.25   -999.25   -999.25 100.0000      0.0 0.0 -999.25 -999.25 -999.25                                         -999.25             
2550.0 "6407_2-2" 42.15000 -999.25   -999.25   -999.25 100.0000      0.0 0.0 -999.25 -999.25 -999.25                                         -999.25             
2550.1 "6407_2-2" 43.55000 -999.25   -999.25   -999.25 100.0000      0.0 0.0 -999.25 -999.25 -999.25                                         -999.25             
2550.2 "6407_2-2" 43.76000 -999.25   -999.25   -999.25 100.0000      0.0 0.0 -999.25 -999.25 -999.25                                         -999.25             
2550.3 "6407_2-2" 41.33000 -999.25   -999.25   -999.25 100.0000      0.0 0.0 -999.25 -999.25 -999.25                                         -999.25             
2550.4 "6407_2-2" 38.38000 -999.25   -999.25   -999.25 100.0000      0.0 0.0 -999.25 -999.25 -999.25                                         -999.25             
2550.5 "6407_2-2" 36.24000 -999.25   -999.25   -999.25 100.0000      0.0 0.0 -999.25 -999.25 -999.25                                         -999.25             
2550.6 "6407_2-2" 35.64000 -999.25   -999.25   -999.25 100.0000      0.0 0.0 -999.25 -999.25 -999.25                                         -999.25             
2550.7 "6407_2-2" 35.29000 -999.25   -999.25   -999.25 100.0000      0.0 0.0 -999.25 -999.25 -999.25                                         -999.25             
2550.8 "6407_2-2" 35.66000 -999.25   -999.25   -999.25 100.0000      0.0 0.0 -999.25 -999.25 -999.25                                         -999.25             
2550.9 "6407_2-2" 36.13000 -999.25   -999.25   -999.25 100.0000      0.0 0.0 -999.25 -999.25 -999.25                                         -999.25             
2551.0 "6407_2-2" 37.03000 -999.25   -999.25   -999.25 100.0000      0.0 0.0 -999.25 -999.25 -999.25                                         -999.25             
2551.1 "6407_2-2" 41.64000 -999.25   -999.25   -999.25 100.0000      0.0 0.0 -999.25 -999.25 -999.25                                         -999.25             
2551.2 "6407_2-2" 48.55000 -999.25   -999.25   -999.25 100.0000      0.0 0.0 -999.25 -999.25 -999.25                                         -999.25             
2551.3 "6407_2-2" 49.94000 -999.25   -999.25   -999.25 100.0000      0.0 0.0 -999.25 -999.25 -999.25                                         -999.25             
2551.4 "6407_2-2" 52.71000 -999.25   -999.25   -999.25 100.0000      0.0 0.0 -999.25 -999.25 -999.25                                         -999.25             
2551.5 "6407_2-2" 55.54000 -999.25   -999.25   -999.25 100.0000      0.0 0.0 -999.25 -999.25 -999.25                                         -999.25             
2551.6 "6407_2-2" 56.88000 -999.25   -999.25   -999.25 100.0000      0.0 0.0 -999.25 -999.25 -999.25                                         -999.25             
2551.7 "6407_2-2" 57.20000 -999.25   -999.25   -999.25 100.0000      0.0 0.0 -999.25 -999.25 -999.25                                         -999.25             
2551.8 "6407_2-2" 57.20000 -999.25   -999.25   -999.25 100.0000      0.0 0.0 -999.25 -999.25 -999.25                                         -999.25             
2551.9 "6407_2-2" 56.72000 -999.25   -999.25   -999.25 100.0000      0.0 0.0 -999.25 -999.25 -999.25                                         -999.25             
2552.0 "6407_2-2" 55.72000 -999.25   -999.25   -999.25 100.0000      0.0 0.0 -999.25 -999.25 "Munningsbanke_Tilforselskanal"                 "PROXIMAL_DELTA_FRONT"
2552.1 "6407_2-2" 54.18000 "Sandstone" -999.25   -999.25 100.0000      0.0 0.0 "m/c"   "m/c"   "Munningsbanke_Tilforselskanal"                 "PROXIMAL_DELTA_FRONT"
2552.2 "6407_2-2" 52.12000 "Sandstone" -999.25   -999.25 100.0000      0.0 0.0 "m/c"   "m/c"   "Munningsbanke_Tilforselskanal"                 "PROXIMAL_DELTA_FRONT"
2552.3 "6407_2-2" 49.87000 "Sandstone" -999.25   -999.25 100.0000      0.0 0.0 "m/c"   "m/c"   "Munningsbanke_Tilforselskanal"                 "PROXIMAL_DELTA_FRONT"
2552.4 "6407_2-2" 46.78000 "Sandstone" -999.25   -999.25 100.0000      0.0 0.0 "m"     "f/m"   "Munningsbanke_Tilforselskanal"                 "PROXIMAL_DELTA_FRONT"
2552.5 "6407_2-2" 41.73000 "Sandstone" -999.25   -999.25 100.0000      0.0 0.0 "m"     "f/m"   "Munningsbanke_Tilforselskanal"                 "PROXIMAL_DELTA_FRONT"
2552.6 "6407_2-2" 36.69000 "Sandstone" -999.25   -999.25 100.0000      0.0 0.0 "m"     "f/m"   "Munningsbanke_Tilforselskanal"                 "PROXIMAL_DELTA_FRONT"
2552.7 "6407_2-2" 31.64000 "Sandstone" -999.25   -999.25 100.0000      0.0 0.0 "m"     "f/m"   "Munningsbanke_Tilforselskanal"                 "PROXIMAL_DELTA_FRONT"
2552.8 "6407_2-2" 26.59000 "Sandstone" -999.25   -999.25 100.0000      0.0 0.0 "f/m"   "f/m"   "Munningsbanke_Tilforselskanal"                 "PROXIMAL_DELTA_FRONT"
2552.9 "6407_2-2" 21.54000 "Sandstone" -999.25   -999.25 100.0000      0.0 0.0 "f/m"   "f/m"   "Munningsbanke_Tilforselskanal"                 "PROXIMAL_DELTA_FRONT"
2553.0 "6407_2-2" 19.62000 "Sandstone" -999.25   -999.25 100.0000      0.0 0.0 "f/m"   "f/m"   "Munningsbanke_Tilforselskanal"                 "PROXIMAL_DELTA_FRONT"
2553.1 "6407_2-2" 18.78000 "Sandstone" -999.25   -999.25 100.0000      0.0 0.0 "f/m"   "f/m"   "Munningsbanke_Tilforselskanal"                 "PROXIMAL_DELTA_FRONT"
2553.2 "6407_2-2" 18.11000 "Sandstone" -999.25   -999.25 100.0000      0.0 0.0 "f/m"   "f/m"   "Munningsbanke_Tilforselskanal"                 "PROXIMAL_DELTA_FRONT"
2553.3 "6407_2-2" 17.68000 "Sandstone" -999.25   -999.25 100.0000      0.0 0.0 "f/m"   "f/m"   "Munningsbanke_Tilforselskanal"                 "PROXIMAL_DELTA_FRONT"
2553.4 "6407_2-2" 17.26000 "Sandstone" -999.25   -999.25 100.0000      0.0 0.0 "f/m"   "f/m"   "Munningsbanke_Tilforselskanal"                 "PROXIMAL_DELTA_FRONT"
2553.5 "6407_2-2" 16.93000 "Sandstone" -999.25   -999.25 100.0000      0.0 0.0 "f/m"   "f/m"   "Munningsbanke_Tilforselskanal"                 "PROXIMAL_DELTA_FRONT"
2553.6 "6407_2-2" 16.85000 "Sandstone" -999.25   -999.25 100.0000      0.0 0.0 "f/m"   "f/m"   "Munningsbanke_Tilforselskanal"                 "PROXIMAL_DELTA_FRONT"
2553.7 "6407_2-2" 17.18000 "Sandstone" -999.25   -999.25 100.0000      0.0 0.0 "f/m"   "f/m"   "Munningsbanke_Tilforselskanal"                 "PROXIMAL_DELTA_FRONT"
2553.8 "6407_2-2" 17.88000 "Sandstone" -999.25   -999.25 100.0000      0.0 0.0 "f/m"   "f/m"   "Munningsbanke_Tilforselskanal"                 "PROXIMAL_DELTA_FRONT"
2553.9 "6407_2-2" 18.58000 "Sandstone" -999.25   -999.25 100.0000      0.0 0.0 "f/m"   "f/m"   "Munningsbanke_Tilforselskanal"                 "PROXIMAL_DELTA_FRONT"
2554.0 "6407_2-2" 20.82000 "Sandstone" -999.25   -999.25 100.0000      0.0 0.0 "f/m"   "f/m"   "Munningsbanke_Tilforselskanal"                 "PROXIMAL_DELTA_FRONT"
2554.1 "6407_2-2" 23.98000 "Sandstone" -999.25   -999.25 100.0000      0.0 0.0 "vf/f"  "vf/f"  "Munningsbanke_Tilforselskanal"                 "PROXIMAL_DELTA_FRONT"
2554.2 "6407_2-2" 27.30000 "Sandstone" -999.25   -999.25 100.0000      0.0 0.0 "vf/f"  "vf/f"  "Munningsbanke_Tilforselskanal"                 "PROXIMAL_DELTA_FRONT"
2554.3 "6407_2-2" 30.63000 "Sandstone" -999.25   -999.25 100.0000      0.0 0.0 "vf/f"  "vf/f"  "Munningsbanke_Tilforselskanal"                 "PROXIMAL_DELTA_FRONT"
2554.4 "6407_2-2" 33.69000 "Sandstone" -999.25   -999.25 100.0000      0.0 0.0 "vf/f"  "vf/f"  "Munningsbanke_Tilforselskanal"                 "PROXIMAL_DELTA_FRONT"
2554.5 "6407_2-2" 36.67000 "Sandstone" -999.25   -999.25 100.0000      0.0 0.0 "vf/f"  "vf/f"  "Munningsbanke_Tilforselskanal"                 "PROXIMAL_DELTA_FRONT"
