~Version
VERS  .                                 3.0 : CWLS LAS ASCII Standard - Version 3.0
WRAP  . NO                                  : One line per depth step
DLM   . SPACE                               : Column data section delimiter
SOURCE. Converted to LAS by Log Studio 4.76 : GeoProvider

~Well
STRT.         2461.3 : Start depth
STOP.         2583.2 : Stop depth
STEP.              1 : Step
NULL.        -999.25 : No-value
COMP.                : Company
WELL. 6407/2-2       : Well
FLD .                : Field
LOC .                : Location
LATI.                : Latitude
LONG.                : Longitude
GDAT.                : Geodetic datum
CNTY.                : County
STAT.                : State
CTRY.                : Country
SRVC. GeoProvider AS : Service company
DATE.                : Date
API .                : API number
RUN .                : Run number

~Parameters
WellboreName.  : Wellbore name
RigName     .  : Rig name
StartDate   .  : Start date

~Curves
DEPTH.m            .  : null {F}Depth mMD
Hole_ID.-          .  : null {S}Hole ID
GR.API             .  : null {F}Gamma Ray
Lithology1.-       .  : null {S}Lithology 1
Lithology2.-       .  : null {S}Lithology 2
Lithology3.-       .  : null {S}Lithology 3
Lithology1.%       .  : null {F}Lithology 1 percentage
Lithology2.%       .  : null {F}Lithology 2 percentage
Lithology3.%       .  : null {F}Lithology 3 percentage
Grain_size_Top.-   .  : null {S}Grain size at the top 
Grain_size_Base.-  .  : null {S}Grain size at the bottom
Sub_Environment.-  .  : null {S}Sub Environment
Gross_Environment.-.  : null {S}Gross Environment

~Ascii
# ...
2564.5 "6407_2-2" 27.27000 -999.25   -999.25   -999.25 100.0000      0.0 0.0 -999.25 -999.25 -999.25                                         -999.25             
2564.6 "6407_2-2" 27.29000 -999.25   -999.25   -999.25 100.0000      0.0 0.0 -999.25 -999.25 -999.25                                         -999.25             
2564.7 "6407_2-2" 27.07000 -999.25   -999.25   -999.25 100.0000      0.0 0.0 -999.25 -999.25 -999.25                                         -999.25             
2564.8 "6407_2-2" 26.59000 -999.25   -999.25   -999.25 100.0000      0.0 0.0 -999.25 -999.25 -999.25                                         -999.25             
2564.9 "6407_2-2" 25.82000 -999.25   -999.25   -999.25 100.0000      0.0 0.0 -999.25 -999.25 -999.25                                         -999.25             
2565.0 "6407_2-2" 24.99000 "Sandstone" "Shale"   -999.25  95.0000  5.00000 0.0 "f/m"   "f/m"   "Munningsbanke"                                 -999.25             
2565.1 "6407_2-2" 23.62000 "Sandstone" "Shale"   -999.25  95.0000  5.00000 0.0 "f/m"   "f/m"   "Munningsbanke"                                 -999.25             
2565.2 "6407_2-2" 22.66000 "Sandstone" "Shale"   -999.25  95.0000  5.00000 0.0 "f/m"   "f/m"   "Munningsbanke"                                 -999.25             
2565.3 "6407_2-2" 21.90000 "Sandstone" "Shale"   -999.25  95.0000  5.00000 0.0 "f/m"   "f/m"   "Munningsbanke"                                 -999.25             
2565.4 "6407_2-2" 21.90000 "Sandstone" "Shale"   -999.25  95.0000  5.00000 0.0 "f/m"   "f/m"   "Munningsbanke"                                 -999.25             
2565.5 "6407_2-2" 22.09000 "Sandstone" "Shale"   -999.25  95.0000  5.00000 0.0 "f/m"   "f/m"   "Munningsbanke"                                 -999.25             
2565.6 "6407_2-2" 22.77000 "Sandstone" "Shale"   -999.25  95.0000  5.00000 0.0 "f/m"   "f/m"   "Munningsbanke"                                 -999.25             
2565.7 "6407_2-2" 23.45000 "Sandstone" "Shale"   -999.25  95.0000  5.00000 0.0 "f/m"   "f/m"   "Munningsbanke"                                 -999.25             
2565.8 "6407_2-2" 23.50000 "Sandstone" "Shale"   -999.25  95.0000  5.00000 0.0 "f/m"   "f/m"   "Munningsbanke"                                 -999.25             
2565.9 "6407_2-2" 23.24000 "Sandstone" "Shale"   -999.25  95.0000  5.00000 0.0 "f/m"   "f/m"   "Munningsbanke"                                 -999.25             
2566.0 "6407_2-2" 22.51000 "Sandstone" "Shale"   -999.25  95.0000  5.00000 0.0 "f/m"   "f/m"   "Munningsbanke"                                 -999.25             
2566.1 "6407_2-2" 21.52000 "Sandstone" "Shale"   -999.25  95.0000  5.00000 0.0 "f/m"   "f/m"   "Munningsbanke"                                 -999.25             
2566.2 "6407_2-2" 20.54000 "Sandstone" "Shale"   -999.25  95.0000  5.00000 0.0 "f/m"   "f/m"   "Munningsbanke"                                 -999.25             
2566.3 "6407_2-2" 20.41000 "Sandstone" "Shale"   -999.25  95.0000  5.00000 0.0 "f/m"   "f/m"   "Munningsbanke"                                 -999.25             
2566.4 "6407_2-2" 20.30000 "Sandstone" "Shale"   -999.25  95.0000  5.00000 0.0 "f/m"   "f/m"   "Munningsbanke"                                 -999.25             
2566.5 "6407_2-2" 20.23000 "Sandstone" "Shale"   -999.25  95.0000  5.00000 0.0 "f/m"   "f/m"   "Munningsbanke"                                 -999.25             
2566.6 "6407_2-2" 20.18000 "Sandstone" "Shale"   -999.25  95.0000  5.00000 0.0 "f/m"   "f/m"   "Munningsbanke"                                 -999.25             
2566.7 "6407_2-2" 20.12000 "Sandstone" "Limestone" -999.25  92.0000  8.00000 0.0 "f/m"   "c/vc"  "Munningsbanke"                                 -999.25             
2566.8 "6407_2-2" 19.93000 "Sandstone" "Limestone" -999.25  92.0000  8.00000 0.0 "f/m"   "c/vc"  "Munningsbanke"                                 -999.25             
2566.9 "6407_2-2" 19.72000 "Sandstone" "Limestone" -999.25  92.0000  8.00000 0.0 "f/m"   "c/vc"  "Munningsbanke"                                 -999.25             
2567.0 "6407_2-2" 19.51000 "Sandstone" "Limestone" -999.25  92.0000  8.00000 0.0 "f/m"   "c/vc"  "Munningsbanke"                                 -999.25             
2567.1 "6407_2-2" 19.10000 "Sandstone" "Limestone" -999.25  92.0000  8.00000 0.0 "f/m"   "c/vc"  "Munningsbanke"                                 -999.25             
2567.2 "6407_2-2" 18.69000 "Sandstone" "Limestone" -999.25  92.0000  8.00000 0.0 "f/m"   "c/vc"  "Munningsbanke"                                 -999.25             
2567.3 "6407_2-2" 18.28000 "Sandstone" "Limestone" -999.25  92.0000  8.00000 0.0 "f/m"   "c/vc"  "Munningsbanke"                                 -999.25             
2567.4 "6407_2-2" 17.78000 "Sandstone" "Limestone" -999.25  92.0000  8.00000 0.0 "f/m"   "c/vc"  "Munningsbanke"                                 -999.25             
2567.5 "6407_2-2" 17.45000 "Sandstone" "Limestone" -999.25  92.0000  8.00000 0.0 "f/m"   "c/vc"  "Munningsbanke"                                 -999.25             
2567.6 "6407_2-2" 17.27000 "Sandstone" "Limestone" -999.25  92.0000  8.00000 0.0 "f/m"   "c/vc"  "Munningsbanke"                                 -999.25             
2567.7 "6407_2-2" 17.28000 "Sandstone" "Limestone" -999.25  92.0000  8.00000 0.0 "f/m"   "c/vc"  "Munningsbanke"                                 -999.25             
2567.8 "6407_2-2" 17.61000 "Sandstone" "Limestone" -999.25  92.0000  8.00000 0.0 "f/m"   "c/vc"  "Munningsbanke"                                 -999.25             
2567.9 "6407_2-2" 17.95000 "Sandstone" "Limestone" -999.25  92.0000  8.00000 0.0 "f/m"   "c/vc"  "Munningsbanke"                                 -999.25             
2568.0 "6407_2-2" 18.28000 "Sandstone" "Limestone" -999.25  92.0000  8.00000 0.0 "f/m"   "c/vc"  "Munningsbanke"                                 -999.25             
2568.1 "6407_2-2" 18.61000 "Sandstone" "Limestone" -999.25  92.0000  8.00000 0.0 "f/m"   "c/vc"  "Munningsbanke"                                 -999.25             
2568.2 "6407_2-2" 18.75000 "Sandstone" "Limestone" -999.25  92.0000  8.00000 0.0 "f/m"   "c/vc"  "Munningsbanke"                                 -999.25             
2568.3 "6407_2-2" 18.67000 "Sandstone" "Limestone" -999.25  92.0000  8.00000 0.0 "f/m"   "c/vc"  "Munningsbanke"                                 -999.25             
2568.4 "6407_2-2" 18.58000 "Sandstone" "Limestone" -999.25  92.0000  8.00000 0.0 "f/m"   "c/vc"  "Munningsbanke"                                 -999.25             
2568.5 "6407_2-2" 18.48000 "Sandstone" "Limestone" -999.25  92.0000  8.00000 0.0 "f/m"   "c/vc"  "Munningsbanke"                                 -999.25             
2568.6 "6407_2-2" 18.38000 "Sandstone" "Limestone" -999.25  92.0000  8.00000 0.0 "f/m"   "c/vc"  "Munningsbanke"                                 -999.25             
2568.7 "6407_2-2" 18.49000 "Sandstone" "Limestone" -999.25  92.0000  8.00000 0.0 "f/m"   "c/vc"  "Munningsbanke"                                 -999.25             
2568.8 "6407_2-2" 18.76000 "Sandstone" "Limestone" -999.25  92.0000  8.00000 0.0 "f/m"   "c/vc"  "Munningsbanke"                                 -999.25             
2568.9 "6407_2-2" 19.03000 "Sandstone" "Limestone" -999.25  92.0000  8.00000 0.0 "f/m"   "c/vc"  "Munningsbanke"                                 -999.25             
2569.0 "6407_2-2" 19.94000 "Sandstone" "Limestone" -999.25  92.0000  8.00000 0.0 "f/m"   "c/vc"  "Munningsbanke"                                 -999.25             
2569.1 "6407_2-2" 21.05000 "Sandstone" "Limestone" -999.25  92.0000  8.00000 0.0 "f/m"   "c/vc"  "Munningsbanke"                                 -999.25             
2569.2 "6407_2-2" 23.23000 "Sandstone" "Limestone" -999.25  92.0000  8.00000 0.0 "f/m"   "c/vc"  "Munningsbanke"                                 -999.25             
2569.3 "6407_2-2" 25.73000 "Sandstone" "Limestone" -999.25  92.0000  8.00000 0.0 "f/m"   "c/vc"  "Munningsbanke"                                 -999.25             
