~Version
VERS  .                                 3.0 : CWLS LAS ASCII Standard - Version 3.0
WRAP  . NO                                  : One line per depth step
DLM   . SPACE                               : Column data section delimiter
SOURCE. Converted to LAS by Log Studio 4.76 : GeoProvider

~Well
STRT.         2461.3 : Start depth
STOP.         2583.2 : Stop depth
STEP.              1 : Step
NULL.        -999.25 : No-value
COMP.                : Company
WELL. 6407/2-2       : Well
FLD .                : Field
LOC .                : Location
LATI.                : Latitude
LONG.                : Longitude
GDAT.                : Geodetic datum
CNTY.                : County
STAT.                : State
CTRY.                : Country
SRVC. GeoProvider AS : Service company
DATE.                : Date
API .                : API number
RUN .                : Run number

~Parameters
WellboreName.  : Wellbore name
RigName     .  : Rig name
StartDate   .  : Start date

~Curves
DEPTH.m            .  : null {F}Depth mMD
Hole_ID.-          .  : null {S}Hole ID
GR.API             .  : null {F}Gamma Ray
Lithology1.-       .  : null {S}Lithology 1
Lithology2.-       .  : null {S}Lithology 2
Lithology3.-       .  : null {S}Lithology 3
Lithology1.%       .  : null {F}Lithology 1 percentage
Lithology2.%       .  : null {F}Lithology 2 percentage
Lithology3.%       .  : null {F}Lithology 3 percentage
Grain_size_Top.-   .  : null {S}Grain size at the top 
Grain_size_Base.-  .  : null {S}Grain size at the bottom
Sub_Environment.-  .  : null {S}Sub Environment
Gross_Environment.-.  : null {S}Gross Environment

~Ascii
# ...
2515.3 "6407_2-2" 49.85000 -999.25   -999.25   -999.25 100.0000      0.0 0.0 -999.25 -999.25 -999.25                                         -999.25             
2515.4 "6407_2-2" 51.64000 -999.25   -999.25   -999.25 100.0000      0.0 0.0 -999.25 -999.25 -999.25                                         -999.25             
2515.5 "6407_2-2" 54.52000 -999.25   -999.25   -999.25 100.0000      0.0 0.0 -999.25 -999.25 -999.25                                         -999.25             
2515.6 "6407_2-2" 55.53000 -999.25   -999.25   -999.25 100.0000      0.0 0.0 -999.25 -999.25 -999.25                                         -999.25             
2515.7 "6407_2-2" 55.51000 -999.25   -999.25   -999.25 100.0000      0.0 0.0 -999.25 -999.25 -999.25                                         -999.25             
2515.8 "6407_2-2" 55.00000 -999.25   -999.25   -999.25 100.0000      0.0 0.0 -999.25 -999.25 -999.25                                         -999.25             
2515.9 "6407_2-2" 53.90000 -999.25   -999.25   -999.25 100.0000      0.0 0.0 -999.25 -999.25 -999.25                                         -999.25             
2516.0 "6407_2-2" 52.12000 -999.25   -999.25   -999.25 100.0000      0.0 0.0 -999.25 -999.25 -999.25                                         -999.25             
2516.1 "6407_2-2" 50.87000 -999.25   -999.25   -999.25 100.0000      0.0 0.0 -999.25 -999.25 -999.25                                         -999.25             
2516.2 "6407_2-2" 47.42000 -999.25   -999.25   -999.25 100.0000      0.0 0.0 -999.25 -999.25 -999.25                                         -999.25             
2516.3 "6407_2-2" 45.61000 -999.25   -999.25   -999.25 100.0000      0.0 0.0 -999.25 -999.25 -999.25                                         -999.25             
2516.4 "6407_2-2" 41.33000 -999.25   -999.25   -999.25 100.0000      0.0 0.0 -999.25 -999.25 -999.25                                         -999.25             
2516.5 "6407_2-2" 38.07000 -999.25   -999.25   -999.25 100.0000      0.0 0.0 -999.25 -999.25 -999.25                                         -999.25             
2516.6 "6407_2-2" 36.78000 -999.25   -999.25   -999.25 100.0000      0.0 0.0 -999.25 -999.25 -999.25                                         -999.25             
2516.7 "6407_2-2" 34.45000 -999.25   -999.25   -999.25 100.0000      0.0 0.0 -999.25 -999.25 -999.25                                         -999.25             
2516.8 "6407_2-2" 32.72000 -999.25   -999.25   -999.25 100.0000      0.0 0.0 -999.25 -999.25 -999.25                                         -999.25             
2516.9 "6407_2-2" 32.52000 -999.25   -999.25   -999.25 100.0000      0.0 0.0 -999.25 -999.25 -999.25                                         -999.25             
2517.0 "6407_2-2" 33.00000 -999.25   -999.25   -999.25 100.0000      0.0 0.0 -999.25 -999.25 -999.25                                         -999.25             
2517.1 "6407_2-2" 34.29000 -999.25   -999.25   -999.25 100.0000      0.0 0.0 -999.25 -999.25 -999.25                                         -999.25             
2517.2 "6407_2-2" 36.23000 -999.25   -999.25   -999.25 100.0000      0.0 0.0 -999.25 -999.25 -999.25                                         -999.25             
2517.3 "6407_2-2" 38.26000 -999.25   -999.25   -999.25 100.0000      0.0 0.0 -999.25 -999.25 -999.25                                         -999.25             
2517.4 "6407_2-2" 40.30000 -999.25   -999.25   -999.25 100.0000      0.0 0.0 -999.25 -999.25 -999.25                                         -999.25             
2517.5 "6407_2-2" 41.73000 -999.25   -999.25   -999.25 100.0000      0.0 0.0 -999.25 -999.25 -999.25                                         -999.25             
2517.6 "6407_2-2" 42.77000 -999.25   -999.25   -999.25 100.0000      0.0 0.0 -999.25 -999.25 -999.25                                         -999.25             
2517.7 "6407_2-2" 43.44000 -999.25   -999.25   -999.25 100.0000      0.0 0.0 -999.25 -999.25 -999.25                                         -999.25             
2517.8 "6407_2-2" 43.70000 -999.25   -999.25   -999.25 100.0000      0.0 0.0 -999.25 -999.25 -999.25                                         -999.25             
2517.9 "6407_2-2" 43.95000 -999.25   -999.25   -999.25 100.0000      0.0 0.0 -999.25 -999.25 -999.25                                         -999.25             
2518.0 "6407_2-2" 44.21000 -999.25   -999.25   -999.25 100.0000      0.0 0.0 -999.25 -999.25 "REGRESSION"                                    "PRODELTA"          
2518.1 "6407_2-2" 44.51000 "Sandstone" -999.25   -999.25 100.0000      0.0 0.0 "m"     "m/c"   "REGRESSION"                                    "PRODELTA"          
2518.2 "6407_2-2" 44.86000 "Sandstone" -999.25   -999.25 100.0000      0.0 0.0 "m"     "m/c"   "REGRESSION"                                    "PRODELTA"          
2518.3 "6407_2-2" 45.23000 "Sandstone" -999.25   -999.25 100.0000      0.0 0.0 "m"     "m/c"   "REGRESSION"                                    "PRODELTA"          
2518.4 "6407_2-2" 45.72000 "Sandstone" -999.25   -999.25 100.0000      0.0 0.0 "m"     "m/c"   "REGRESSION"                                    "PRODELTA"          
2518.5 "6407_2-2" 46.21000 "Sandstone" -999.25   -999.25 100.0000      0.0 0.0 "m"     "m/c"   "REGRESSION"                                    "PRODELTA"          
2518.6 "6407_2-2" 46.88000 "Sandstone" -999.25   -999.25 100.0000      0.0 0.0 "m"     "m/c"   "REGRESSION"                                    "PRODELTA"          
2518.7 "6407_2-2" 47.94000 "Sandstone" -999.25   -999.25 100.0000      0.0 0.0 "m"     "m/c"   "REGRESSION"                                    "PRODELTA"          
2518.8 "6407_2-2" 48.56000 "Sandstone" -999.25   -999.25 100.0000      0.0 0.0 "m"     "m/c"   "REGRESSION"                                    "PRODELTA"          
2518.9 "6407_2-2" 48.75000 "Sandstone" -999.25   -999.25 100.0000      0.0 0.0 "m"     "m/c"   "REGRESSION"                                    "PRODELTA"          
2519.0 "6407_2-2" 48.73000 "Sandstone" -999.25   -999.25 100.0000      0.0 0.0 "m"     "m/c"   "REGRESSION"                                    "PRODELTA"          
2519.1 "6407_2-2" 48.65000 "Sandstone" -999.25   -999.25 100.0000      0.0 0.0 "m"     "m/c"   "REGRESSION"                                    "PRODELTA"          
2519.2 "6407_2-2" 48.18000 "Sandstone" "Shale"   -999.25  70.0000 30.00000 0.0 "vf/f"  "vf"    "REGRESSION"                                    "PRODELTA"          
2519.3 "6407_2-2" 47.67000 "Sandstone" "Shale"   -999.25  70.0000 30.00000 0.0 "vf/f"  "vf"    "REGRESSION"                                    "PRODELTA"          
2519.4 "6407_2-2" 46.75000 "Sandstone" "Shale"   -999.25  70.0000 30.00000 0.0 "vf/f"  "vf"    "REGRESSION"                                    "PRODELTA"          
2519.5 "6407_2-2" 45.82000 "Sandstone" "Shale"   -999.25  70.0000 30.00000 0.0 "vf/f"  "vf"    "REGRESSION"                                    "PRODELTA"          
2519.6 "6407_2-2" 44.87000 "Sandstone" "Shale"   -999.25  70.0000 30.00000 0.0 "vf/f"  "vf"    "REGRESSION"                                    "PRODELTA"          
2519.7 "6407_2-2" 43.88000 "Sandstone" "Shale"   -999.25  70.0000 30.00000 0.0 "vf/f"  "vf"    "REGRESSION"                                    "PRODELTA"          
2519.8 "6407_2-2" 42.86000 "Sandstone" "Shale"   -999.25  70.0000 30.00000 0.0 "vf/f"  "vf"    "REGRESSION"                                    "PRODELTA"          
2519.9 "6407_2-2" 41.81000 "Sandstone" "Shale"   -999.25  70.0000 30.00000 0.0 "vf/f"  "vf"    "REGRESSION"                                    "PRODELTA"          
2520.0 "6407_2-2" 40.59000 "Sandstone" "Shale"   -999.25  70.0000 30.00000 0.0 "vf/f"  "vf"    "REGRESSION"                                    "PRODELTA"          
2520.1 "6407_2-2" 38.54000 "Sandstone" "Limestone" -999.25  30.0000 70.00000 0.0 "f/m"   "vf/f"  "REGRESSION"                                    "PRODELTA"          
2520.2 "6407_2-2" 38.17000 "Sandstone" "Limestone" -999.25  30.0000 70.00000 0.0 "f/m"   "vf/f"  "REGRESSION"                                    "PRODELTA"          
