~Version
VERS  .                                 3.0 : CWLS LAS ASCII Standard - Version 3.0
WRAP  . NO                                  : One line per depth step
DLM   . SPACE                               : Column data section delimiter
SOURCE. Converted to LAS by Log Studio 4.76 : GeoProvider

~Well
STRT.         2461.3 : Start depth
STOP.         2583.2 : Stop depth
STEP.              1 : Step
NULL.        -999.25 : No-value
COMP.                : Company
WELL. 6407/2-2       : Well
FLD .                : Field
LOC .                : Location
LATI.                : Latitude
LONG.                : Longitude
GDAT.                : Geodetic datum
CNTY.                : County
STAT.                : State
CTRY.                : Country
SRVC. GeoProvider AS : Service company
DATE.                : Date
API .                : API number
RUN .                : Run number

~Parameters
WellboreName.  : Wellbore name
RigName     .  : Rig name
StartDate   .  : Start date

~Curves
DEPTH.m            .  : null {F}Depth mMD
Hole_ID.-          .  : null {S}Hole ID
GR.API             .  : null {F}Gamma Ray
Lithology1.-       .  : null {S}Lithology 1
Lithology2.-       .  : null {S}Lithology 2
Lithology3.-       .  : null {S}Lithology 3
Lithology1.%       .  : null {F}Lithology 1 percentage
Lithology2.%       .  : null {F}Lithology 2 percentage
Lithology3.%       .  : null {F}Lithology 3 percentage
Grain_size_Top.-   .  : null {S}Grain size at the top 
Grain_size_Base.-  .  : null {S}Grain size at the bottom
Sub_Environment.-  .  : null {S}Sub Environment
Gross_Environment.-.  : null {S}Gross Environment

~Ascii
# ...
2476.1 "6407_2-2" 28.29000 "Sandstone" "Shale"   -999.25  97.0000  3.00000 0.0 "vf/f"  "vf/f"  "TRANSGRESSION"                                 "DELTA_FRONT"       
2476.2 "6407_2-2" 25.68000 "Sandstone" "Shale"   -999.25  97.0000  3.00000 0.0 "vf/f"  "vf/f"  "TRANSGRESSION"                                 "DELTA_FRONT"       
2476.3 "6407_2-2" 22.95000 -999.25   -999.25   -999.25 100.0000      0.0 0.0 -999.25 -999.25 -999.25                                         -999.25             
2476.4 "6407_2-2" 21.32000 -999.25   -999.25   -999.25 100.0000      0.0 0.0 -999.25 -999.25 -999.25                                         -999.25             
2476.5 "6407_2-2" 20.53000 -999.25   -999.25   -999.25 100.0000      0.0 0.0 -999.25 -999.25 -999.25                                         -999.25             
2476.6 "6407_2-2" 20.17000 -999.25   -999.25   -999.25 100.0000      0.0 0.0 -999.25 -999.25 -999.25                                         -999.25             
2476.7 "6407_2-2" 19.97000 -999.25   -999.25   -999.25 100.0000      0.0 0.0 -999.25 -999.25 -999.25                                         -999.25             
2476.8 "6407_2-2" 19.76000 -999.25   -999.25   -999.25 100.0000      0.0 0.0 -999.25 -999.25 -999.25                                         -999.25             
2476.9 "6407_2-2" 19.60000 -999.25   -999.25   -999.25 100.0000      0.0 0.0 -999.25 -999.25 -999.25                                         -999.25             
2477.0 "6407_2-2" 19.51000 -999.25   -999.25   -999.25 100.0000      0.0 0.0 -999.25 -999.25 -999.25                                         -999.25             
2477.1 "6407_2-2" 19.42000 -999.25   -999.25   -999.25 100.0000      0.0 0.0 -999.25 -999.25 -999.25                                         -999.25             
2477.2 "6407_2-2" 19.34000 -999.25   -999.25   -999.25 100.0000      0.0 0.0 -999.25 -999.25 -999.25                                         -999.25             
2477.3 "6407_2-2" 19.23000 -999.25   -999.25   -999.25 100.0000      0.0 0.0 -999.25 -999.25 -999.25                                         -999.25             
2477.4 "6407_2-2" 19.07000 -999.25   -999.25   -999.25 100.0000      0.0 0.0 -999.25 -999.25 -999.25                                         -999.25             
2477.5 "6407_2-2" 18.90000 "Sandstone" -999.25   -999.25 100.0000      0.0 0.0 "f/m"   "f/m"   "Hovedsaklig_ovre_stranskraning"                "PROXIMAL_DELTA_FRONT"
2477.6 "6407_2-2" 18.73000 "Sandstone" -999.25   -999.25 100.0000      0.0 0.0 "f/m"   "f/m"   "Hovedsaklig_ovre_stranskraning"                "PROXIMAL_DELTA_FRONT"
2477.7 "6407_2-2" 18.52000 "Sandstone" -999.25   -999.25 100.0000      0.0 0.0 "f/m"   "f/m"   "Hovedsaklig_ovre_stranskraning"                "PROXIMAL_DELTA_FRONT"
2477.8 "6407_2-2" 18.31000 "Sandstone" -999.25   -999.25 100.0000      0.0 0.0 "f/m"   "f/m"   "Hovedsaklig_ovre_stranskraning"                "PROXIMAL_DELTA_FRONT"
2477.9 "6407_2-2" 18.39000 "Sandstone" -999.25   -999.25 100.0000      0.0 0.0 "f/m"   "f/m"   "Hovedsaklig_ovre_stranskraning"                "PROXIMAL_DELTA_FRONT"
2478.0 "6407_2-2" 18.51000 "Sandstone" -999.25   -999.25 100.0000      0.0 0.0 "f/m"   "f/m"   "Hovedsaklig_ovre_stranskraning"                "PROXIMAL_DELTA_FRONT"
2478.1 "6407_2-2" 18.62000 "Sandstone" -999.25   -999.25 100.0000      0.0 0.0 "f/m"   "f/m"   "Hovedsaklig_ovre_stranskraning"                "PROXIMAL_DELTA_FRONT"
2478.2 "6407_2-2" 18.74000 "Sandstone" -999.25   -999.25 100.0000      0.0 0.0 "f/m"   "f/m"   "Hovedsaklig_ovre_stranskraning"                "PROXIMAL_DELTA_FRONT"
2478.3 "6407_2-2" 18.65000 "Sandstone" -999.25   -999.25 100.0000      0.0 0.0 "f/m"   "f/m"   "Hovedsaklig_ovre_stranskraning"                "PROXIMAL_DELTA_FRONT"
2478.4 "6407_2-2" 18.56000 "Sandstone" -999.25   -999.25 100.0000      0.0 0.0 "f/m"   "f/m"   "Hovedsaklig_ovre_stranskraning"                "PROXIMAL_DELTA_FRONT"
2478.5 "6407_2-2" 18.51000 "Sandstone" -999.25   -999.25 100.0000      0.0 0.0 "f/m"   "f/m"   "Hovedsaklig_ovre_stranskraning"                "PROXIMAL_DELTA_FRONT"
2478.6 "6407_2-2" 18.69000 "Sandstone" -999.25   -999.25 100.0000      0.0 0.0 "f/m"   "f/m"   "Hovedsaklig_ovre_stranskraning"                "PROXIMAL_DELTA_FRONT"
2478.7 "6407_2-2" 18.96000 "Sandstone" -999.25   -999.25 100.0000      0.0 0.0 "f/m"   "f/m"   "Hovedsaklig_ovre_stranskraning"                "PROXIMAL_DELTA_FRONT"
2478.8 "6407_2-2" 19.33000 "Sandstone" -999.25   -999.25 100.0000      0.0 0.0 "f/m"   "f/m"   "Hovedsaklig_ovre_stranskraning"                "PROXIMAL_DELTA_FRONT"
2478.9 "6407_2-2" 19.71000 "Sandstone" -999.25   -999.25 100.0000      0.0 0.0 "f/m"   "f/m"   "Hovedsaklig_ovre_stranskraning"                "PROXIMAL_DELTA_FRONT"
2479.0 "6407_2-2" 20.07000 "Sandstone" -999.25   -999.25 100.0000      0.0 0.0 "f/m"   "f/m"   "Hovedsaklig_ovre_stranskraning"                "PROXIMAL_DELTA_FRONT"
2479.1 "6407_2-2" 20.11000 "Sandstone" -999.25   -999.25 100.0000      0.0 0.0 "f/m"   "f/m"   "Hovedsaklig_ovre_stranskraning"                "PROXIMAL_DELTA_FRONT"
2479.2 "6407_2-2" 20.14000 "Sandstone" -999.25   -999.25 100.0000      0.0 0.0 "f/m"   "f/m"   "Hovedsaklig_ovre_stranskraning"                "PROXIMAL_DELTA_FRONT"
2479.3 "6407_2-2" 20.05000 "Sandstone" -999.25   -999.25 100.0000      0.0 0.0 "f/m"   "f/m"   "Hovedsaklig_ovre_stranskraning"                "PROXIMAL_DELTA_FRONT"
2479.4 "6407_2-2" 19.99000 "Sandstone" -999.25   -999.25 100.0000      0.0 0.0 "f/m"   "f/m"   "Hovedsaklig_ovre_stranskraning"                "PROXIMAL_DELTA_FRONT"
2479.5 "6407_2-2" 20.19000 "Sandstone" -999.25   -999.25 100.0000      0.0 0.0 "f/m"   "f/m"   "Hovedsaklig_ovre_stranskraning"                "PROXIMAL_DELTA_FRONT"
2479.6 "6407_2-2" 20.32000 "Sandstone" -999.25   -999.25 100.0000      0.0 0.0 "f/m"   "f/m"   "Hovedsaklig_ovre_stranskraning"                "PROXIMAL_DELTA_FRONT"
2479.7 "6407_2-2" 20.01000 "Sandstone" -999.25   -999.25 100.0000      0.0 0.0 "f/m"   "f/m"   "Hovedsaklig_ovre_stranskraning"                "PROXIMAL_DELTA_FRONT"
2479.8 "6407_2-2" 19.70000 "Sandstone" -999.25   -999.25 100.0000      0.0 0.0 "f/m"   "f/m"   "Hovedsaklig_ovre_stranskraning"                "PROXIMAL_DELTA_FRONT"
2479.9 "6407_2-2" 19.39000 "Sandstone" -999.25   -999.25 100.0000      0.0 0.0 "f/m"   "f/m"   "Hovedsaklig_ovre_stranskraning"                "PROXIMAL_DELTA_FRONT"
2480.0 "6407_2-2" 19.07000 "Sandstone" -999.25   -999.25 100.0000      0.0 0.0 "f/m"   "f/m"   "Hovedsaklig_ovre_stranskraning"                "PROXIMAL_DELTA_FRONT"
2480.1 "6407_2-2" 18.76000 "Sandstone" -999.25   -999.25 100.0000      0.0 0.0 "f/m"   "f/m"   "Hovedsaklig_ovre_stranskraning"                "PROXIMAL_DELTA_FRONT"
2480.2 "6407_2-2" 18.54000 "Sandstone" -999.25   -999.25 100.0000      0.0 0.0 "f/m"   "f/m"   "Hovedsaklig_ovre_stranskraning"                "PROXIMAL_DELTA_FRONT"
2480.3 "6407_2-2" 18.34000 "Sandstone" -999.25   -999.25 100.0000      0.0 0.0 "f/m"   "f/m"   "Hovedsaklig_ovre_stranskraning"                "PROXIMAL_DELTA_FRONT"
2480.4 "6407_2-2" 18.15000 "Sandstone" -999.25   -999.25 100.0000      0.0 0.0 "f/m"   "f/m"   "Hovedsaklig_ovre_stranskraning"                "PROXIMAL_DELTA_FRONT"
2480.5 "6407_2-2" 17.95000 "Sandstone" -999.25   -999.25 100.0000      0.0 0.0 "f/m"   "f/m"   "Hovedsaklig_ovre_stranskraning"                "PROXIMAL_DELTA_FRONT"
2480.6 "6407_2-2" 17.75000 "Sandstone" -999.25   -999.25 100.0000      0.0 0.0 "f/m"   "f/m"   "Hovedsaklig_ovre_stranskraning"                "PROXIMAL_DELTA_FRONT"
2480.7 "6407_2-2" 17.67000 "Sandstone" -999.25   -999.25 100.0000      0.0 0.0 "f/m"   "f/m"   "Hovedsaklig_ovre_stranskraning"                "PROXIMAL_DELTA_FRONT"
2480.8 "6407_2-2" 17.63000 "Sandstone" -999.25   -999.25 100.0000      0.0 0.0 "f/m"   "f/m"   "Hovedsaklig_ovre_stranskraning"                "PROXIMAL_DELTA_FRONT"
2480.9 "6407_2-2" 17.60000 "Sandstone" -999.25   -999.25 100.0000      0.0 0.0 "f/m"   "f/m"   "Hovedsaklig_ovre_stranskraning"                "PROXIMAL_DELTA_FRONT"
