~Version
VERS  .                                 3.0 : CWLS LAS ASCII Standard - Version 3.0
WRAP  . NO                                  : One line per depth step
DLM   . SPACE                               : Column data section delimiter
SOURCE. Converted to LAS by Log Studio 4.76 : GeoProvider

~Well
STRT.         1653.5 : Start depth
STOP.         1706.2 : Stop depth
STEP.              1 : Step
NULL.        -999.25 : No-value
COMP.                : Company
WELL. 6407/9-2       : Well
FLD .                : Field
LOC .                : Location
LATI.                : Latitude
LONG.                : Longitude
GDAT.                : Geodetic datum
CNTY.                : County
STAT.                : State
CTRY.                : Country
SRVC. GeoProvider AS : Service company
DATE.                : Date
API .                : API number
RUN .                : Run number

~Parameters
WellboreName.  : Wellbore name
RigName     .  : Rig name
StartDate   .  : Start date

~Curves
DEPTH.m            .  : null {F}Depth mMD
Hole_ID.-          .  : null {S}Hole ID
GR.API             .  : null {F}Gamma Ray
Lithology1.-       .  : null {S}Lithology 1
Lithology2.-       .  : null {S}Lithology 2
Lithology3.-       .  : null {S}Lithology 3
Lithology1.%       .  : null {F}Lithology 1 percentage
Lithology2.%       .  : null {F}Lithology 2 percentage
Lithology3.%       .  : null {F}Lithology 3 percentage
Grain_size_Top.-   .  : null {S}Grain size at the top 
Grain_size_Base.-  .  : null {S}Grain size at the bottom
Sub_Environment.-  .  : null {S}Sub Environment
Gross_Environment.-.  : null {S}Gross Environment

~Ascii
# ...
1693.1 "6407_9-2"  99.5200 "Sandstone" "Clay"  -999.25    60.0000 40.00000      0.0 "silt/vf" "vf"      "Stormtilforte_sedimenter_til_''offshore''"                                                      "Oppbygning_av_sandbanke_pa_hoyenergi_sokkel"
1693.2 "6407_9-2"  99.5200 "Sandstone" "Clay"  -999.25    60.0000 40.00000      0.0 "silt/vf" "vf"      "Stormtilforte_sedimenter_til_''offshore''"                                                      "Oppbygning_av_sandbanke_pa_hoyenergi_sokkel"
1693.3 "6407_9-2"  99.5200 "Sandstone" "Clay"  -999.25    60.0000 40.00000      0.0 "silt/vf" "vf"      "Stormtilforte_sedimenter_til_''offshore''"                                                      "Oppbygning_av_sandbanke_pa_hoyenergi_sokkel"
1693.4 "6407_9-2"  99.5200 "Sandstone" "Clay"  -999.25    60.0000 40.00000      0.0 "silt/vf" "vf"      "Stormtilforte_sedimenter_til_''offshore''"                                                      "Oppbygning_av_sandbanke_pa_hoyenergi_sokkel"
1693.5 "6407_9-2"  98.8000 "Sandstone" "Clay"  -999.25    60.0000 40.00000      0.0 "silt/vf" "vf"      "Stormtilforte_sedimenter_til_''offshore''"                                                      "Oppbygning_av_sandbanke_pa_hoyenergi_sokkel"
1693.6 "6407_9-2"  93.1300 "Sandstone" "Clay"  -999.25    60.0000 40.00000      0.0 "silt/vf" "vf"      "Stormtilforte_sedimenter_til_''offshore''"                                                      "Oppbygning_av_sandbanke_pa_hoyenergi_sokkel"
1693.7 "6407_9-2"  88.3600 "Sandstone" "Clay"  -999.25    60.0000 40.00000      0.0 "silt/vf" "vf"      "Stormtilforte_sedimenter_til_''offshore''"                                                      "Oppbygning_av_sandbanke_pa_hoyenergi_sokkel"
1693.8 "6407_9-2"  85.0800 "Sandstone" "Clay"  -999.25    60.0000 40.00000      0.0 "silt/vf" "vf"      "Stormtilforte_sedimenter_til_''offshore''"                                                      "Oppbygning_av_sandbanke_pa_hoyenergi_sokkel"
1693.9 "6407_9-2"  85.0800 -999.25   -999.25 -999.25   100.0000      0.0      0.0 -999.25 -999.25   -999.25                                                                                          "Oppbygning_av_sandbanke_pa_hoyenergi_sokkel"
1694.0 "6407_9-2"  85.0800 -999.25   -999.25 -999.25   100.0000      0.0      0.0 -999.25 -999.25   -999.25                                                                                          "Oppbygning_av_sandbanke_pa_hoyenergi_sokkel"
1694.1 "6407_9-2"  86.3800 -999.25   -999.25 -999.25   100.0000      0.0      0.0 -999.25 -999.25   -999.25                                                                                          "Oppbygning_av_sandbanke_pa_hoyenergi_sokkel"
1694.2 "6407_9-2"  89.0600 -999.25   -999.25 -999.25   100.0000      0.0      0.0 -999.25 -999.25   -999.25                                                                                          "Oppbygning_av_sandbanke_pa_hoyenergi_sokkel"
1694.3 "6407_9-2"  89.1700 -999.25   -999.25 -999.25   100.0000      0.0      0.0 -999.25 -999.25   -999.25                                                                                          "Oppbygning_av_sandbanke_pa_hoyenergi_sokkel"
1694.4 "6407_9-2"  89.2700 -999.25   -999.25 -999.25   100.0000      0.0      0.0 -999.25 -999.25   -999.25                                                                                          "Oppbygning_av_sandbanke_pa_hoyenergi_sokkel"
1694.5 "6407_9-2"  89.3800 -999.25   -999.25 -999.25   100.0000      0.0      0.0 -999.25 -999.25   -999.25                                                                                          "Oppbygning_av_sandbanke_pa_hoyenergi_sokkel"
1694.6 "6407_9-2"  89.4800 -999.25   -999.25 -999.25   100.0000      0.0      0.0 -999.25 -999.25   -999.25                                                                                          "Oppbygning_av_sandbanke_pa_hoyenergi_sokkel"
1694.7 "6407_9-2"  89.5900 -999.25   -999.25 -999.25   100.0000      0.0      0.0 -999.25 -999.25   -999.25                                                                                          "Oppbygning_av_sandbanke_pa_hoyenergi_sokkel"
1694.8 "6407_9-2"  89.8500 -999.25   -999.25 -999.25   100.0000      0.0      0.0 -999.25 -999.25   -999.25                                                                                          "Oppbygning_av_sandbanke_pa_hoyenergi_sokkel"
1694.9 "6407_9-2"  91.1300 -999.25   -999.25 -999.25   100.0000      0.0      0.0 -999.25 -999.25   -999.25                                                                                          "Oppbygning_av_sandbanke_pa_hoyenergi_sokkel"
1695.0 "6407_9-2"  92.4000 -999.25   -999.25 -999.25   100.0000      0.0      0.0 -999.25 -999.25   -999.25                                                                                          "Oppbygning_av_sandbanke_pa_hoyenergi_sokkel"
1695.1 "6407_9-2"  93.6700 -999.25   -999.25 -999.25   100.0000      0.0      0.0 -999.25 -999.25   -999.25                                                                                          "Oppbygning_av_sandbanke_pa_hoyenergi_sokkel"
1695.2 "6407_9-2"  94.5600 -999.25   -999.25 -999.25   100.0000      0.0      0.0 -999.25 -999.25   -999.25                                                                                          "Oppbygning_av_sandbanke_pa_hoyenergi_sokkel"
1695.3 "6407_9-2"  94.7600 -999.25   -999.25 -999.25   100.0000      0.0      0.0 -999.25 -999.25   -999.25                                                                                          "Oppbygning_av_sandbanke_pa_hoyenergi_sokkel"
1695.4 "6407_9-2"  94.9500 -999.25   -999.25 -999.25   100.0000      0.0      0.0 -999.25 -999.25   -999.25                                                                                          "Oppbygning_av_sandbanke_pa_hoyenergi_sokkel"
1695.5 "6407_9-2"  95.1400 -999.25   -999.25 -999.25   100.0000      0.0      0.0 -999.25 -999.25   -999.25                                                                                          "Oppbygning_av_sandbanke_pa_hoyenergi_sokkel"
1695.6 "6407_9-2"  95.3400 -999.25   -999.25 -999.25   100.0000      0.0      0.0 -999.25 -999.25   -999.25                                                                                          "Oppbygning_av_sandbanke_pa_hoyenergi_sokkel"
1695.7 "6407_9-2"  95.5300 -999.25   -999.25 -999.25   100.0000      0.0      0.0 -999.25 -999.25   -999.25                                                                                          "Oppbygning_av_sandbanke_pa_hoyenergi_sokkel"
1695.8 "6407_9-2"  94.6500 -999.25   -999.25 -999.25   100.0000      0.0      0.0 -999.25 -999.25   -999.25                                                                                          "Oppbygning_av_sandbanke_pa_hoyenergi_sokkel"
1695.9 "6407_9-2"  93.6900 -999.25   -999.25 -999.25   100.0000      0.0      0.0 -999.25 -999.25   -999.25                                                                                          "Oppbygning_av_sandbanke_pa_hoyenergi_sokkel"
1696.0 "6407_9-2"  92.7400 -999.25   -999.25 -999.25   100.0000      0.0      0.0 -999.25 -999.25   -999.25                                                                                          "Oppbygning_av_sandbanke_pa_hoyenergi_sokkel"
1696.1 "6407_9-2"  91.7800 -999.25   -999.25 -999.25   100.0000      0.0      0.0 -999.25 -999.25   -999.25                                                                                          "Oppbygning_av_sandbanke_pa_hoyenergi_sokkel"
1696.2 "6407_9-2"  90.5400 -999.25   -999.25 -999.25   100.0000      0.0      0.0 -999.25 -999.25   -999.25                                                                                          "Oppbygning_av_sandbanke_pa_hoyenergi_sokkel"
1696.3 "6407_9-2"  88.7400 -999.25   -999.25 -999.25   100.0000      0.0      0.0 -999.25 -999.25   -999.25                                                                                          "Oppbygning_av_sandbanke_pa_hoyenergi_sokkel"
