~Version
VERS  .                                 3.0 : CWLS LAS ASCII Standard - Version 3.0
WRAP  . NO                                  : One line per depth step
DLM   . SPACE                               : Column data section delimiter
SOURCE. Converted to LAS by Log Studio 4.76 : GeoProvider

~Well
STRT.         1653.5 : Start depth
STOP.         1706.2 : Stop depth
STEP.              1 : Step
NULL.        -999.25 : No-value
COMP.                : Company
WELL. 6407/9-2       : Well
FLD .                : Field
LOC .                : Location
LATI.                : Latitude
LONG.                : Longitude
GDAT.                : Geodetic datum
CNTY.                : County
STAT.                : State
CTRY.                : Country
SRVC. GeoProvider AS : Service company
DATE.                : Date
API .                : API number
RUN .                : Run number

~Parameters
WellboreName.  : Wellbore name
RigName     .  : Rig name
StartDate   .  : Start date

~Curves
DEPTH.m            .  : null {F}Depth mMD
Hole_ID.-          .  : null {S}Hole ID
GR.API             .  : null {F}Gamma Ray
Lithology1.-       .  : null {S}Lithology 1
Lithology2.-       .  : null {S}Lithology 2
Lithology3.-       .  : null {S}Lithology 3
Lithology1.%       .  : null {F}Lithology 1 percentage
Lithology2.%       .  : null {F}Lithology 2 percentage
Lithology3.%       .  : null {F}Lithology 3 percentage
Grain_size_Top.-   .  : null {S}Grain size at the top 
Grain_size_Base.-  .  : null {S}Grain size at the bottom
Sub_Environment.-  .  : null {S}Sub Environment
Gross_Environment.-.  : null {S}Gross Environment

~Ascii
# ...
1689.8 "6407_9-2"  87.1700 "Sandstone" "Clay"  -999.25    60.0000 40.00000      0.0 "silt/vf" "vf"      "Stormtilforte_sedimenter_til_''offshore''"                                                      "Oppbygning_av_sandbanke_pa_hoyenergi_sokkel"
1689.9 "6407_9-2"  87.1700 "Sandstone" "Clay"  -999.25    60.0000 40.00000      0.0 "silt/vf" "vf"      "Stormtilforte_sedimenter_til_''offshore''"                                                      "Oppbygning_av_sandbanke_pa_hoyenergi_sokkel"
1690.0 "6407_9-2"  87.1700 "Sandstone" "Clay"  -999.25    60.0000 40.00000      0.0 "silt/vf" "vf"      "Stormtilforte_sedimenter_til_''offshore''"                                                      "Oppbygning_av_sandbanke_pa_hoyenergi_sokkel"
1690.1 "6407_9-2"  87.1700 "Sandstone" "Clay"  -999.25    60.0000 40.00000      0.0 "silt/vf" "vf"      "Stormtilforte_sedimenter_til_''offshore''"                                                      "Oppbygning_av_sandbanke_pa_hoyenergi_sokkel"
1690.2 "6407_9-2"  87.3000 "Sandstone" "Clay"  -999.25    60.0000 40.00000      0.0 "silt/vf" "vf"      "Stormtilforte_sedimenter_til_''offshore''"                                                      "Oppbygning_av_sandbanke_pa_hoyenergi_sokkel"
1690.3 "6407_9-2"  87.4400 "Sandstone" "Clay"  -999.25    60.0000 40.00000      0.0 "silt/vf" "vf"      "Stormtilforte_sedimenter_til_''offshore''"                                                      "Oppbygning_av_sandbanke_pa_hoyenergi_sokkel"
1690.4 "6407_9-2"  87.5800 "Sandstone" "Clay"  -999.25    60.0000 40.00000      0.0 "silt/vf" "vf"      "Stormtilforte_sedimenter_til_''offshore''"                                                      "Oppbygning_av_sandbanke_pa_hoyenergi_sokkel"
1690.5 "6407_9-2"  88.2600 "Sandstone" "Clay"  -999.25    60.0000 40.00000      0.0 "silt/vf" "vf"      "Stormtilforte_sedimenter_til_''offshore''"                                                      "Oppbygning_av_sandbanke_pa_hoyenergi_sokkel"
1690.6 "6407_9-2"  88.9400 "Sandstone" "Clay"  -999.25    60.0000 40.00000      0.0 "silt/vf" "vf"      "Stormtilforte_sedimenter_til_''offshore''"                                                      "Oppbygning_av_sandbanke_pa_hoyenergi_sokkel"
1690.7 "6407_9-2"  89.6300 "Sandstone" "Clay"  -999.25    60.0000 40.00000      0.0 "silt/vf" "vf"      "Stormtilforte_sedimenter_til_''offshore''"                                                      "Oppbygning_av_sandbanke_pa_hoyenergi_sokkel"
1690.8 "6407_9-2"  90.3100 "Sandstone" "Clay"  -999.25    60.0000 40.00000      0.0 "silt/vf" "vf"      "Stormtilforte_sedimenter_til_''offshore''"                                                      "Oppbygning_av_sandbanke_pa_hoyenergi_sokkel"
1690.9 "6407_9-2"  91.0000 "Sandstone" "Clay"  -999.25    60.0000 40.00000      0.0 "silt/vf" "vf"      "Stormtilforte_sedimenter_til_''offshore''"                                                      "Oppbygning_av_sandbanke_pa_hoyenergi_sokkel"
1691.0 "6407_9-2"  91.6800 "Sandstone" "Clay"  -999.25    60.0000 40.00000      0.0 "silt/vf" "vf"      "Stormtilforte_sedimenter_til_''offshore''"                                                      "Oppbygning_av_sandbanke_pa_hoyenergi_sokkel"
1691.1 "6407_9-2"  92.3700 "Sandstone" "Clay"  -999.25    60.0000 40.00000      0.0 "silt/vf" "vf"      "Stormtilforte_sedimenter_til_''offshore''"                                                      "Oppbygning_av_sandbanke_pa_hoyenergi_sokkel"
1691.2 "6407_9-2"  93.0500 "Sandstone" "Clay"  -999.25    60.0000 40.00000      0.0 "silt/vf" "vf"      "Stormtilforte_sedimenter_til_''offshore''"                                                      "Oppbygning_av_sandbanke_pa_hoyenergi_sokkel"
1691.3 "6407_9-2"  93.7400 "Sandstone" "Clay"  -999.25    60.0000 40.00000      0.0 "silt/vf" "vf"      "Stormtilforte_sedimenter_til_''offshore''"                                                      "Oppbygning_av_sandbanke_pa_hoyenergi_sokkel"
1691.4 "6407_9-2"  93.5100 "Sandstone" "Clay"  -999.25    60.0000 40.00000      0.0 "silt/vf" "vf"      "Stormtilforte_sedimenter_til_''offshore''"                                                      "Oppbygning_av_sandbanke_pa_hoyenergi_sokkel"
1691.5 "6407_9-2"  92.3900 "Sandstone" "Clay"  -999.25    60.0000 40.00000      0.0 "silt/vf" "vf"      "Stormtilforte_sedimenter_til_''offshore''"                                                      "Oppbygning_av_sandbanke_pa_hoyenergi_sokkel"
1691.6 "6407_9-2"  91.2700 "Sandstone" "Clay"  -999.25    60.0000 40.00000      0.0 "silt/vf" "vf"      "Stormtilforte_sedimenter_til_''offshore''"                                                      "Oppbygning_av_sandbanke_pa_hoyenergi_sokkel"
1691.7 "6407_9-2"  90.1400 "Sandstone" "Clay"  -999.25    60.0000 40.00000      0.0 "silt/vf" "vf"      "Stormtilforte_sedimenter_til_''offshore''"                                                      "Oppbygning_av_sandbanke_pa_hoyenergi_sokkel"
1691.8 "6407_9-2"  89.0200 "Sandstone" "Clay"  -999.25    60.0000 40.00000      0.0 "silt/vf" "vf"      "Stormtilforte_sedimenter_til_''offshore''"                                                      "Oppbygning_av_sandbanke_pa_hoyenergi_sokkel"
1691.9 "6407_9-2"  88.0400 "Sandstone" "Clay"  -999.25    60.0000 40.00000      0.0 "silt/vf" "vf"      "Stormtilforte_sedimenter_til_''offshore''"                                                      "Oppbygning_av_sandbanke_pa_hoyenergi_sokkel"
1692.0 "6407_9-2"  88.4500 "Sandstone" "Clay"  -999.25    60.0000 40.00000      0.0 "silt/vf" "vf"      "Stormtilforte_sedimenter_til_''offshore''"                                                      "Oppbygning_av_sandbanke_pa_hoyenergi_sokkel"
1692.1 "6407_9-2"  88.8600 "Sandstone" "Clay"  -999.25    60.0000 40.00000      0.0 "silt/vf" "vf"      "Stormtilforte_sedimenter_til_''offshore''"                                                      "Oppbygning_av_sandbanke_pa_hoyenergi_sokkel"
1692.2 "6407_9-2"  89.2700 "Sandstone" "Clay"  -999.25    60.0000 40.00000      0.0 "silt/vf" "vf"      "Stormtilforte_sedimenter_til_''offshore''"                                                      "Oppbygning_av_sandbanke_pa_hoyenergi_sokkel"
1692.3 "6407_9-2"  89.6700 "Sandstone" "Clay"  -999.25    60.0000 40.00000      0.0 "silt/vf" "vf"      "Stormtilforte_sedimenter_til_''offshore''"                                                      "Oppbygning_av_sandbanke_pa_hoyenergi_sokkel"
1692.4 "6407_9-2"  90.0800 "Sandstone" "Clay"  -999.25    60.0000 40.00000      0.0 "silt/vf" "vf"      "Stormtilforte_sedimenter_til_''offshore''"                                                      "Oppbygning_av_sandbanke_pa_hoyenergi_sokkel"
1692.5 "6407_9-2"  92.6500 "Sandstone" "Clay"  -999.25    60.0000 40.00000      0.0 "silt/vf" "vf"      "Stormtilforte_sedimenter_til_''offshore''"                                                      "Oppbygning_av_sandbanke_pa_hoyenergi_sokkel"
1692.6 "6407_9-2"  95.3200 "Sandstone" "Clay"  -999.25    60.0000 40.00000      0.0 "silt/vf" "vf"      "Stormtilforte_sedimenter_til_''offshore''"                                                      "Oppbygning_av_sandbanke_pa_hoyenergi_sokkel"
1692.7 "6407_9-2"  98.0000 "Sandstone" "Clay"  -999.25    60.0000 40.00000      0.0 "silt/vf" "vf"      "Stormtilforte_sedimenter_til_''offshore''"                                                      "Oppbygning_av_sandbanke_pa_hoyenergi_sokkel"
1692.8 "6407_9-2"  99.5200 "Sandstone" "Clay"  -999.25    60.0000 40.00000      0.0 "silt/vf" "vf"      "Stormtilforte_sedimenter_til_''offshore''"                                                      "Oppbygning_av_sandbanke_pa_hoyenergi_sokkel"
1692.9 "6407_9-2"  99.5200 "Sandstone" "Clay"  -999.25    60.0000 40.00000      0.0 "silt/vf" "vf"      "Stormtilforte_sedimenter_til_''offshore''"                                                      "Oppbygning_av_sandbanke_pa_hoyenergi_sokkel"
1693.0 "6407_9-2"  99.5200 "Sandstone" "Clay"  -999.25    60.0000 40.00000      0.0 "silt/vf" "vf"      "Stormtilforte_sedimenter_til_''offshore''"                                                      "Oppbygning_av_sandbanke_pa_hoyenergi_sokkel"
