~Version
VERS  .                                 3.0 : CWLS LAS ASCII Standard - Version 3.0
WRAP  . NO                                  : One line per depth step
DLM   . SPACE                               : Column data section delimiter
SOURCE. Converted to LAS by Log Studio 4.76 : GeoProvider

~Well
STRT.         1653.5 : Start depth
STOP.         1706.2 : Stop depth
STEP.              1 : Step
NULL.        -999.25 : No-value
COMP.                : Company
WELL. 6407/9-2       : Well
FLD .                : Field
LOC .                : Location
LATI.                : Latitude
LONG.                : Longitude
GDAT.                : Geodetic datum
CNTY.                : County
STAT.                : State
CTRY.                : Country
SRVC. GeoProvider AS : Service company
DATE.                : Date
API .                : API number
RUN .                : Run number

~Parameters
WellboreName.  : Wellbore name
RigName     .  : Rig name
StartDate   .  : Start date

~Curves
DEPTH.m            .  : null {F}Depth mMD
Hole_ID.-          .  : null {S}Hole ID
GR.API             .  : null {F}Gamma Ray
Lithology1.-       .  : null {S}Lithology 1
Lithology2.-       .  : null {S}Lithology 2
Lithology3.-       .  : null {S}Lithology 3
Lithology1.%       .  : null {F}Lithology 1 percentage
Lithology2.%       .  : null {F}Lithology 2 percentage
Lithology3.%       .  : null {F}Lithology 3 percentage
Grain_size_Top.-   .  : null {S}Grain size at the top 
Grain_size_Base.-  .  : null {S}Grain size at the bottom
Sub_Environment.-  .  : null {S}Sub Environment
Gross_Environment.-.  : null {S}Gross Environment

~Ascii
1653.5 "6407_9-2"  72.4400 "Sandstone" -999.25 -999.25   100.0000      0.0      0.0 "m/c"   "f"       "Sentral_del_av_sokkelsand-banke,_sand_trolig_tilfort_vod_stormer_eller_avboyning_av_kyststrommer" "Oppbygning_av_sandbanke_pa_hoyenergi_sokkel"
1653.6 "6407_9-2"  72.4700 "Sandstone" -999.25 -999.25   100.0000      0.0      0.0 "m/c"   "f"       "Sentral_del_av_sokkelsand-banke,_sand_trolig_tilfort_vod_stormer_eller_avboyning_av_kyststrommer" "Oppbygning_av_sandbanke_pa_hoyenergi_sokkel"
1653.7 "6407_9-2"  72.4900 "Sandstone" -999.25 -999.25   100.0000      0.0      0.0 "m/c"   "f"       "Sentral_del_av_sokkelsand-banke,_sand_trolig_tilfort_vod_stormer_eller_avboyning_av_kyststrommer" "Oppbygning_av_sandbanke_pa_hoyenergi_sokkel"
1653.8 "6407_9-2"  72.5100 "Sandstone" -999.25 -999.25   100.0000      0.0      0.0 "m/c"   "f"       "Sentral_del_av_sokkelsand-banke,_sand_trolig_tilfort_vod_stormer_eller_avboyning_av_kyststrommer" "Oppbygning_av_sandbanke_pa_hoyenergi_sokkel"
1653.9 "6407_9-2"  72.4100 "Sandstone" -999.25 -999.25   100.0000      0.0      0.0 "m/c"   "f"       "Sentral_del_av_sokkelsand-banke,_sand_trolig_tilfort_vod_stormer_eller_avboyning_av_kyststrommer" "Oppbygning_av_sandbanke_pa_hoyenergi_sokkel"
1654.0 "6407_9-2"  72.3100 "Sandstone" -999.25 -999.25   100.0000      0.0      0.0 "m/c"   "f"       "Sentral_del_av_sokkelsand-banke,_sand_trolig_tilfort_vod_stormer_eller_avboyning_av_kyststrommer" "Oppbygning_av_sandbanke_pa_hoyenergi_sokkel"
1654.1 "6407_9-2"  72.2200 "Sandstone" -999.25 -999.25   100.0000      0.0      0.0 "m/c"   "f"       "Sentral_del_av_sokkelsand-banke,_sand_trolig_tilfort_vod_stormer_eller_avboyning_av_kyststrommer" "Oppbygning_av_sandbanke_pa_hoyenergi_sokkel"
1654.2 "6407_9-2"  72.1200 "Sandstone" -999.25 -999.25   100.0000      0.0      0.0 "m/c"   "f"       "Sentral_del_av_sokkelsand-banke,_sand_trolig_tilfort_vod_stormer_eller_avboyning_av_kyststrommer" "Oppbygning_av_sandbanke_pa_hoyenergi_sokkel"
1654.3 "6407_9-2"  72.0200 "Sandstone" -999.25 -999.25   100.0000      0.0      0.0 "m/c"   "f"       "Sentral_del_av_sokkelsand-banke,_sand_trolig_tilfort_vod_stormer_eller_avboyning_av_kyststrommer" "Oppbygning_av_sandbanke_pa_hoyenergi_sokkel"
1654.4 "6407_9-2"  71.9300 "Sandstone" -999.25 -999.25   100.0000      0.0      0.0 "m/c"   "f"       "Sentral_del_av_sokkelsand-banke,_sand_trolig_tilfort_vod_stormer_eller_avboyning_av_kyststrommer" "Oppbygning_av_sandbanke_pa_hoyenergi_sokkel"
1654.5 "6407_9-2"  71.7700 "Sandstone" -999.25 -999.25   100.0000      0.0      0.0 "m/c"   "f"       "Sentral_del_av_sokkelsand-banke,_sand_trolig_tilfort_vod_stormer_eller_avboyning_av_kyststrommer" "Oppbygning_av_sandbanke_pa_hoyenergi_sokkel"
1654.6 "6407_9-2"  71.5900 "Sandstone" -999.25 -999.25   100.0000      0.0      0.0 "m/c"   "f"       "Sentral_del_av_sokkelsand-banke,_sand_trolig_tilfort_vod_stormer_eller_avboyning_av_kyststrommer" "Oppbygning_av_sandbanke_pa_hoyenergi_sokkel"
1654.7 "6407_9-2"  71.4100 "Sandstone" -999.25 -999.25   100.0000      0.0      0.0 "m/c"   "f"       "Sentral_del_av_sokkelsand-banke,_sand_trolig_tilfort_vod_stormer_eller_avboyning_av_kyststrommer" "Oppbygning_av_sandbanke_pa_hoyenergi_sokkel"
1654.8 "6407_9-2"  71.2200 "Sandstone" -999.25 -999.25   100.0000      0.0      0.0 "m/c"   "f"       "Sentral_del_av_sokkelsand-banke,_sand_trolig_tilfort_vod_stormer_eller_avboyning_av_kyststrommer" "Oppbygning_av_sandbanke_pa_hoyenergi_sokkel"
1654.9 "6407_9-2"  71.0400 "Sandstone" -999.25 -999.25   100.0000      0.0      0.0 "m/c"   "f"       "Sentral_del_av_sokkelsand-banke,_sand_trolig_tilfort_vod_stormer_eller_avboyning_av_kyststrommer" "Oppbygning_av_sandbanke_pa_hoyenergi_sokkel"
1655.0 "6407_9-2"  70.8500 "Sandstone" -999.25 -999.25   100.0000      0.0      0.0 "m/c"   "f"       "Sentral_del_av_sokkelsand-banke,_sand_trolig_tilfort_vod_stormer_eller_avboyning_av_kyststrommer" "Oppbygning_av_sandbanke_pa_hoyenergi_sokkel"
1655.1 "6407_9-2"  70.7800 "Sandstone" -999.25 -999.25   100.0000      0.0      0.0 "m/c"   "f"       "Sentral_del_av_sokkelsand-banke,_sand_trolig_tilfort_vod_stormer_eller_avboyning_av_kyststrommer" "Oppbygning_av_sandbanke_pa_hoyenergi_sokkel"
1655.2 "6407_9-2"  70.7100 "Sandstone" -999.25 -999.25   100.0000      0.0      0.0 "m/c"   "f"       "Sentral_del_av_sokkelsand-banke,_sand_trolig_tilfort_vod_stormer_eller_avboyning_av_kyststrommer" "Oppbygning_av_sandbanke_pa_hoyenergi_sokkel"
1655.3 "6407_9-2"  70.6400 "Sandstone" -999.25 -999.25   100.0000      0.0      0.0 "m/c"   "f"       "Sentral_del_av_sokkelsand-banke,_sand_trolig_tilfort_vod_stormer_eller_avboyning_av_kyststrommer" "Oppbygning_av_sandbanke_pa_hoyenergi_sokkel"
1655.4 "6407_9-2"  72.2100 "Sandstone" -999.25 -999.25   100.0000      0.0      0.0 "m/c"   "f"       "Sentral_del_av_sokkelsand-banke,_sand_trolig_tilfort_vod_stormer_eller_avboyning_av_kyststrommer" "Oppbygning_av_sandbanke_pa_hoyenergi_sokkel"
1655.5 "6407_9-2"  73.8500 "Sandstone" -999.25 -999.25   100.0000      0.0      0.0 "m/c"   "f"       "Sentral_del_av_sokkelsand-banke,_sand_trolig_tilfort_vod_stormer_eller_avboyning_av_kyststrommer" "Oppbygning_av_sandbanke_pa_hoyenergi_sokkel"
1655.6 "6407_9-2"  74.4000 "Sandstone" -999.25 -999.25   100.0000      0.0      0.0 "m/c"   "f"       "Sentral_del_av_sokkelsand-banke,_sand_trolig_tilfort_vod_stormer_eller_avboyning_av_kyststrommer" "Oppbygning_av_sandbanke_pa_hoyenergi_sokkel"
1655.7 "6407_9-2"  74.0200 "Sandstone" -999.25 -999.25   100.0000      0.0      0.0 "m/c"   "f"       "Sentral_del_av_sokkelsand-banke,_sand_trolig_tilfort_vod_stormer_eller_avboyning_av_kyststrommer" "Oppbygning_av_sandbanke_pa_hoyenergi_sokkel"
1655.8 "6407_9-2"  73.2100 "Sandstone" -999.25 -999.25   100.0000      0.0      0.0 "m/c"   "f"       "Sentral_del_av_sokkelsand-banke,_sand_trolig_tilfort_vod_stormer_eller_avboyning_av_kyststrommer" "Oppbygning_av_sandbanke_pa_hoyenergi_sokkel"
1655.9 "6407_9-2"  72.3500 "Sandstone" -999.25 -999.25   100.0000      0.0      0.0 "m/c"   "f"       "Sentral_del_av_sokkelsand-banke,_sand_trolig_tilfort_vod_stormer_eller_avboyning_av_kyststrommer" "Oppbygning_av_sandbanke_pa_hoyenergi_sokkel"
1656.0 "6407_9-2"  71.5000 "Sandstone" -999.25 -999.25   100.0000      0.0      0.0 "m/c"   "f"       "Sentral_del_av_sokkelsand-banke,_sand_trolig_tilfort_vod_stormer_eller_avboyning_av_kyststrommer" "Oppbygning_av_sandbanke_pa_hoyenergi_sokkel"
1656.1 "6407_9-2"  70.6400 "Sandstone" -999.25 -999.25   100.0000      0.0      0.0 "m/c"   "f"       "Sentral_del_av_sokkelsand-banke,_sand_trolig_tilfort_vod_stormer_eller_avboyning_av_kyststrommer" "Oppbygning_av_sandbanke_pa_hoyenergi_sokkel"
1656.2 "6407_9-2"  69.7900 "Sandstone" -999.25 -999.25   100.0000      0.0      0.0 "m/c"   "f"       "Sentral_del_av_sokkelsand-banke,_sand_trolig_tilfort_vod_stormer_eller_avboyning_av_kyststrommer" "Oppbygning_av_sandbanke_pa_hoyenergi_sokkel"
1656.3 "6407_9-2"  69.5000 "Sandstone" -999.25 -999.25   100.0000      0.0      0.0 "m/c"   "f"       "Sentral_del_av_sokkelsand-banke,_sand_trolig_tilfort_vod_stormer_eller_avboyning_av_kyststrommer" "Oppbygning_av_sandbanke_pa_hoyenergi_sokkel"
1656.4 "6407_9-2"  69.4000 "Sandstone" -999.25 -999.25   100.0000      0.0      0.0 "m/c"   "f"       "Sentral_del_av_sokkelsand-banke,_sand_trolig_tilfort_vod_stormer_eller_avboyning_av_kyststrommer" "Oppbygning_av_sandbanke_pa_hoyenergi_sokkel"
1656.5 "6407_9-2"  69.2900 "Sandstone" -999.25 -999.25   100.0000      0.0      0.0 "m/c"   "f"       "Sentral_del_av_sokkelsand-banke,_sand_trolig_tilfort_vod_stormer_eller_avboyning_av_kyststrommer" "Oppbygning_av_sandbanke_pa_hoyenergi_sokkel"
1656.6 "6407_9-2"  69.1800 "Sandstone" -999.25 -999.25   100.0000      0.0      0.0 "m/c"   "f"       "Sentral_del_av_sokkelsand-banke,_sand_trolig_tilfort_vod_stormer_eller_avboyning_av_kyststrommer" "Oppbygning_av_sandbanke_pa_hoyenergi_sokkel"
1656.7 "6407_9-2"  69.0700 "Sandstone" -999.25 -999.25   100.0000      0.0      0.0 "m/c"   "f"       "Sentral_del_av_sokkelsand-banke,_sand_trolig_tilfort_vod_stormer_eller_avboyning_av_kyststrommer" "Oppbygning_av_sandbanke_pa_hoyenergi_sokkel"
