~Version
VERS  .                                 3.0 : CWLS LAS ASCII Standard - Version 3.0
WRAP  . NO                                  : One line per depth step
DLM   . SPACE                               : Column data section delimiter
SOURCE. Converted to LAS by Log Studio 4.76 : GeoProvider

~Well
STRT.         1653.5 : Start depth
STOP.         1706.2 : Stop depth
STEP.              1 : Step
NULL.        -999.25 : No-value
COMP.                : Company
WELL. 6407/9-2       : Well
FLD .                : Field
LOC .                : Location
LATI.                : Latitude
LONG.                : Longitude
GDAT.                : Geodetic datum
CNTY.                : County
STAT.                : State
CTRY.                : Country
SRVC. GeoProvider AS : Service company
DATE.                : Date
API .                : API number
RUN .                : Run number

~Parameters
WellboreName.  : Wellbore name
RigName     .  : Rig name
StartDate   .  : Start date

~Curves
DEPTH.m            .  : null {F}Depth mMD
Hole_ID.-          .  : null {S}Hole ID
GR.API             .  : null {F}Gamma Ray
Lithology1.-       .  : null {S}Lithology 1
Lithology2.-       .  : null {S}Lithology 2
Lithology3.-       .  : null {S}Lithology 3
Lithology1.%       .  : null {F}Lithology 1 percentage
Lithology2.%       .  : null {F}Lithology 2 percentage
Lithology3.%       .  : null {F}Lithology 3 percentage
Grain_size_Top.-   .  : null {S}Grain size at the top 
Grain_size_Base.-  .  : null {S}Grain size at the bottom
Sub_Environment.-  .  : null {S}Sub Environment
Gross_Environment.-.  : null {S}Gross Environment

~Ascii
# ...
1666.7 "6407_9-2"  62.0300 "Sandstone" -999.25 -999.25   100.0000      0.0      0.0 "m/c"   "f"       "Sentral_del_av_sokkelsand-banke,_sand_trolig_tilfort_vod_stormer_eller_avboyning_av_kyststrommer" "Oppbygning_av_sandbanke_pa_hoyenergi_sokkel"
1666.8 "6407_9-2"  62.3700 "Sandstone" -999.25 -999.25   100.0000      0.0      0.0 "m/c"   "f"       "Sentral_del_av_sokkelsand-banke,_sand_trolig_tilfort_vod_stormer_eller_avboyning_av_kyststrommer" "Oppbygning_av_sandbanke_pa_hoyenergi_sokkel"
1666.9 "6407_9-2"  62.7000 "Sandstone" -999.25 -999.25   100.0000      0.0      0.0 "m/c"   "f"       "Sentral_del_av_sokkelsand-banke,_sand_trolig_tilfort_vod_stormer_eller_avboyning_av_kyststrommer" "Oppbygning_av_sandbanke_pa_hoyenergi_sokkel"
1667.0 "6407_9-2"  63.0300 "Sandstone" -999.25 -999.25   100.0000      0.0      0.0 "m/c"   "f"       "Sentral_del_av_sokkelsand-banke,_sand_trolig_tilfort_vod_stormer_eller_avboyning_av_kyststrommer" "Oppbygning_av_sandbanke_pa_hoyenergi_sokkel"
1667.1 "6407_9-2"  62.7800 "Sandstone" -999.25 -999.25   100.0000      0.0      0.0 "m/c"   "f"       "Sentral_del_av_sokkelsand-banke,_sand_trolig_tilfort_vod_stormer_eller_avboyning_av_kyststrommer" "Oppbygning_av_sandbanke_pa_hoyenergi_sokkel"
1667.2 "6407_9-2"  62.3700 "Sandstone" -999.25 -999.25   100.0000      0.0      0.0 "m/c"   "f"       "Sentral_del_av_sokkelsand-banke,_sand_trolig_tilfort_vod_stormer_eller_avboyning_av_kyststrommer" "Oppbygning_av_sandbanke_pa_hoyenergi_sokkel"
1667.3 "6407_9-2"  61.9600 "Sandstone" -999.25 -999.25   100.0000      0.0      0.0 "m/c"   "f"       "Sentral_del_av_sokkelsand-banke,_sand_trolig_tilfort_vod_stormer_eller_avboyning_av_kyststrommer" "Oppbygning_av_sandbanke_pa_hoyenergi_sokkel"
1667.4 "6407_9-2"  61.5600 "Sandstone" -999.25 -999.25   100.0000      0.0      0.0 "m/c"   "f"       "Sentral_del_av_sokkelsand-banke,_sand_trolig_tilfort_vod_stormer_eller_avboyning_av_kyststrommer" "Oppbygning_av_sandbanke_pa_hoyenergi_sokkel"
1667.5 "6407_9-2"  61.1500 "Sandstone" -999.25 -999.25   100.0000      0.0      0.0 "m/c"   "f"       "Sentral_del_av_sokkelsand-banke,_sand_trolig_tilfort_vod_stormer_eller_avboyning_av_kyststrommer" "Oppbygning_av_sandbanke_pa_hoyenergi_sokkel"
1667.6 "6407_9-2"  60.9000 "Sandstone" -999.25 -999.25   100.0000      0.0      0.0 "m/c"   "f"       "Sentral_del_av_sokkelsand-banke,_sand_trolig_tilfort_vod_stormer_eller_avboyning_av_kyststrommer" "Oppbygning_av_sandbanke_pa_hoyenergi_sokkel"
1667.7 "6407_9-2"  60.7500 "Sandstone" -999.25 -999.25   100.0000      0.0      0.0 "m/c"   "f"       "Sentral_del_av_sokkelsand-banke,_sand_trolig_tilfort_vod_stormer_eller_avboyning_av_kyststrommer" "Oppbygning_av_sandbanke_pa_hoyenergi_sokkel"
1667.8 "6407_9-2"  60.6000 "Sandstone" -999.25 -999.25   100.0000      0.0      0.0 "m/c"   "f"       "Sentral_del_av_sokkelsand-banke,_sand_trolig_tilfort_vod_stormer_eller_avboyning_av_kyststrommer" "Oppbygning_av_sandbanke_pa_hoyenergi_sokkel"
1667.9 "6407_9-2"  60.4400 "Sandstone" -999.25 -999.25   100.0000      0.0      0.0 "m/c"   "f"       "Sentral_del_av_sokkelsand-banke,_sand_trolig_tilfort_vod_stormer_eller_avboyning_av_kyststrommer" "Oppbygning_av_sandbanke_pa_hoyenergi_sokkel"
1668.0 "6407_9-2"  60.2900 "Sandstone" -999.25 -999.25   100.0000      0.0      0.0 "m/c"   "f"       "Sentral_del_av_sokkelsand-banke,_sand_trolig_tilfort_vod_stormer_eller_avboyning_av_kyststrommer" "Oppbygning_av_sandbanke_pa_hoyenergi_sokkel"
1668.1 "6407_9-2"  60.1500 "Sandstone" -999.25 -999.25   100.0000      0.0      0.0 "m/c"   "f"       "Sentral_del_av_sokkelsand-banke,_sand_trolig_tilfort_vod_stormer_eller_avboyning_av_kyststrommer" "Oppbygning_av_sandbanke_pa_hoyenergi_sokkel"
1668.2 "6407_9-2"  60.0800 "Sandstone" -999.25 -999.25   100.0000      0.0      0.0 "m/c"   "f"       "Sentral_del_av_sokkelsand-banke,_sand_trolig_tilfort_vod_stormer_eller_avboyning_av_kyststrommer" "Oppbygning_av_sandbanke_pa_hoyenergi_sokkel"
1668.3 "6407_9-2"  60.0100 "Sandstone" -999.25 -999.25   100.0000      0.0      0.0 "m/c"   "f"       "Sentral_del_av_sokkelsand-banke,_sand_trolig_tilfort_vod_stormer_eller_avboyning_av_kyststrommer" "Oppbygning_av_sandbanke_pa_hoyenergi_sokkel"
1668.4 "6407_9-2"  59.6200 "Sandstone" -999.25 -999.25   100.0000      0.0      0.0 "m/c"   "f"       "Sentral_del_av_sokkelsand-banke,_sand_trolig_tilfort_vod_stormer_eller_avboyning_av_kyststrommer" "Oppbygning_av_sandbanke_pa_hoyenergi_sokkel"
1668.5 "6407_9-2"  58.3300 "Sandstone" -999.25 -999.25   100.0000      0.0      0.0 "m/c"   "f"       "Sentral_del_av_sokkelsand-banke,_sand_trolig_tilfort_vod_stormer_eller_avboyning_av_kyststrommer" "Oppbygning_av_sandbanke_pa_hoyenergi_sokkel"
1668.6 "6407_9-2"  57.0500 "Sandstone" -999.25 -999.25   100.0000      0.0      0.0 "m/c"   "f"       "Sentral_del_av_sokkelsand-banke,_sand_trolig_tilfort_vod_stormer_eller_avboyning_av_kyststrommer" "Oppbygning_av_sandbanke_pa_hoyenergi_sokkel"
1668.7 "6407_9-2"  55.2900 "Sandstone" -999.25 -999.25   100.0000      0.0      0.0 "m/c"   "f"       "Sentral_del_av_sokkelsand-banke,_sand_trolig_tilfort_vod_stormer_eller_avboyning_av_kyststrommer" "Oppbygning_av_sandbanke_pa_hoyenergi_sokkel"
1668.8 "6407_9-2"  54.2300 "Sandstone" -999.25 -999.25   100.0000      0.0      0.0 "m/c"   "f"       "Sentral_del_av_sokkelsand-banke,_sand_trolig_tilfort_vod_stormer_eller_avboyning_av_kyststrommer" "Oppbygning_av_sandbanke_pa_hoyenergi_sokkel"
1668.9 "6407_9-2"  54.0500 "Sandstone" -999.25 -999.25   100.0000      0.0      0.0 "m/c"   "f"       "Sentral_del_av_sokkelsand-banke,_sand_trolig_tilfort_vod_stormer_eller_avboyning_av_kyststrommer" "Oppbygning_av_sandbanke_pa_hoyenergi_sokkel"
1669.0 "6407_9-2"  53.9600 "Sandstone" -999.25 -999.25   100.0000      0.0      0.0 "m/c"   "f"       "Sentral_del_av_sokkelsand-banke,_sand_trolig_tilfort_vod_stormer_eller_avboyning_av_kyststrommer" "Oppbygning_av_sandbanke_pa_hoyenergi_sokkel"
1669.1 "6407_9-2"  55.9500 "Sandstone" -999.25 -999.25   100.0000      0.0      0.0 "m/c"   "f"       "Sentral_del_av_sokkelsand-banke,_sand_trolig_tilfort_vod_stormer_eller_avboyning_av_kyststrommer" "Oppbygning_av_sandbanke_pa_hoyenergi_sokkel"
1669.2 "6407_9-2"  57.6700 "Sandstone" -999.25 -999.25   100.0000      0.0      0.0 "m/c"   "f"       "Sentral_del_av_sokkelsand-banke,_sand_trolig_tilfort_vod_stormer_eller_avboyning_av_kyststrommer" "Oppbygning_av_sandbanke_pa_hoyenergi_sokkel"
1669.3 "6407_9-2"  57.7900 "Sandstone" -999.25 -999.25   100.0000      0.0      0.0 "m/c"   "f"       "Sentral_del_av_sokkelsand-banke,_sand_trolig_tilfort_vod_stormer_eller_avboyning_av_kyststrommer" "Oppbygning_av_sandbanke_pa_hoyenergi_sokkel"
1669.4 "6407_9-2"  57.9100 "Sandstone" -999.25 -999.25   100.0000      0.0      0.0 "m/c"   "f"       "Sentral_del_av_sokkelsand-banke,_sand_trolig_tilfort_vod_stormer_eller_avboyning_av_kyststrommer" "Oppbygning_av_sandbanke_pa_hoyenergi_sokkel"
1669.5 "6407_9-2"  58.0300 "Sandstone" -999.25 -999.25   100.0000      0.0      0.0 "m/c"   "f"       "Sentral_del_av_sokkelsand-banke,_sand_trolig_tilfort_vod_stormer_eller_avboyning_av_kyststrommer" "Oppbygning_av_sandbanke_pa_hoyenergi_sokkel"
1669.6 "6407_9-2"  58.1500 "Sandstone" -999.25 -999.25   100.0000      0.0      0.0 "m/c"   "f"       "Sentral_del_av_sokkelsand-banke,_sand_trolig_tilfort_vod_stormer_eller_avboyning_av_kyststrommer" "Oppbygning_av_sandbanke_pa_hoyenergi_sokkel"
1669.7 "6407_9-2"  58.2700 "Sandstone" -999.25 -999.25   100.0000      0.0      0.0 "m/c"   "f"       "Sentral_del_av_sokkelsand-banke,_sand_trolig_tilfort_vod_stormer_eller_avboyning_av_kyststrommer" "Oppbygning_av_sandbanke_pa_hoyenergi_sokkel"
1669.8 "6407_9-2"  58.3900 "Sandstone" -999.25 -999.25   100.0000      0.0      0.0 "m/c"   "f"       "Sentral_del_av_sokkelsand-banke,_sand_trolig_tilfort_vod_stormer_eller_avboyning_av_kyststrommer" "Oppbygning_av_sandbanke_pa_hoyenergi_sokkel"
1669.9 "6407_9-2"  58.5000 "Sandstone" -999.25 -999.25   100.0000      0.0      0.0 "m/c"   "f"       "Sentral_del_av_sokkelsand-banke,_sand_trolig_tilfort_vod_stormer_eller_avboyning_av_kyststrommer" "Oppbygning_av_sandbanke_pa_hoyenergi_sokkel"
