~Version
VERS  .                                 3.0 : CWLS LAS ASCII Standard - Version 3.0
WRAP  . NO                                  : One line per depth step
DLM   . SPACE                               : Column data section delimiter
SOURCE. Converted to LAS by Log Studio 4.76 : GeoProvider

~Well
STRT.         1653.5 : Start depth
STOP.         1706.2 : Stop depth
STEP.              1 : Step
NULL.        -999.25 : No-value
COMP.                : Company
WELL. 6407/9-2       : Well
FLD .                : Field
LOC .                : Location
LATI.                : Latitude
LONG.                : Longitude
GDAT.                : Geodetic datum
CNTY.                : County
STAT.                : State
CTRY.                : Country
SRVC. GeoProvider AS : Service company
DATE.                : Date
API .                : API number
RUN .                : Run number

~Parameters
WellboreName.  : Wellbore name
RigName     .  : Rig name
StartDate   .  : Start date

~Curves
DEPTH.m            .  : null {F}Depth mMD
Hole_ID.-          .  : null {S}Hole ID
GR.API             .  : null {F}Gamma Ray
Lithology1.-       .  : null {S}Lithology 1
Lithology2.-       .  : null {S}Lithology 2
Lithology3.-       .  : null {S}Lithology 3
Lithology1.%       .  : null {F}Lithology 1 percentage
Lithology2.%       .  : null {F}Lithology 2 percentage
Lithology3.%       .  : null {F}Lithology 3 percentage
Grain_size_Top.-   .  : null {S}Grain size at the top 
Grain_size_Base.-  .  : null {S}Grain size at the bottom
Sub_Environment.-  .  : null {S}Sub Environment
Gross_Environment.-.  : null {S}Gross Environment

~Ascii
# ...
1696.4 "6407_9-2"  88.2200 -999.25   -999.25 -999.25   100.0000      0.0      0.0 -999.25 -999.25   -999.25                                                                                          "Oppbygning_av_sandbanke_pa_hoyenergi_sokkel"
1696.5 "6407_9-2"  88.2200 -999.25   -999.25 -999.25   100.0000      0.0      0.0 -999.25 -999.25   -999.25                                                                                          "Oppbygning_av_sandbanke_pa_hoyenergi_sokkel"
1696.6 "6407_9-2"  88.6100 -999.25   -999.25 -999.25   100.0000      0.0      0.0 -999.25 -999.25   -999.25                                                                                          "Oppbygning_av_sandbanke_pa_hoyenergi_sokkel"
1696.7 "6407_9-2"  90.0500 -999.25   -999.25 -999.25   100.0000      0.0      0.0 -999.25 -999.25   -999.25                                                                                          "Oppbygning_av_sandbanke_pa_hoyenergi_sokkel"
1696.8 "6407_9-2"  90.5200 -999.25   -999.25 -999.25   100.0000      0.0      0.0 -999.25 -999.25   -999.25                                                                                          "Oppbygning_av_sandbanke_pa_hoyenergi_sokkel"
1696.9 "6407_9-2"  89.4200 -999.25   -999.25 -999.25   100.0000      0.0      0.0 -999.25 -999.25   -999.25                                                                                          "Oppbygning_av_sandbanke_pa_hoyenergi_sokkel"
1697.0 "6407_9-2"  88.3300 -999.25   -999.25 -999.25   100.0000      0.0      0.0 -999.25 -999.25   -999.25                                                                                          "Oppbygning_av_sandbanke_pa_hoyenergi_sokkel"
1697.1 "6407_9-2"  86.8600 -999.25   -999.25 -999.25   100.0000      0.0      0.0 -999.25 -999.25   -999.25                                                                                          "Oppbygning_av_sandbanke_pa_hoyenergi_sokkel"
1697.2 "6407_9-2"  83.2700 -999.25   -999.25 -999.25   100.0000      0.0      0.0 -999.25 -999.25   -999.25                                                                                          "Oppbygning_av_sandbanke_pa_hoyenergi_sokkel"
1697.3 "6407_9-2"  84.7000 -999.25   -999.25 -999.25   100.0000      0.0      0.0 -999.25 -999.25   -999.25                                                                                          "Oppbygning_av_sandbanke_pa_hoyenergi_sokkel"
1697.4 "6407_9-2"  86.3700 -999.25   -999.25 -999.25   100.0000      0.0      0.0 -999.25 -999.25   -999.25                                                                                          "Oppbygning_av_sandbanke_pa_hoyenergi_sokkel"
1697.5 "6407_9-2"  89.2400 -999.25   -999.25 -999.25   100.0000      0.0      0.0 -999.25 -999.25   -999.25                                                                                          "Oppbygning_av_sandbanke_pa_hoyenergi_sokkel"
1697.6 "6407_9-2"  91.2800 -999.25   -999.25 -999.25   100.0000      0.0      0.0 -999.25 -999.25   -999.25                                                                                          "Oppbygning_av_sandbanke_pa_hoyenergi_sokkel"
1697.7 "6407_9-2"  90.9700 -999.25   -999.25 -999.25   100.0000      0.0      0.0 -999.25 -999.25   -999.25                                                                                          "Oppbygning_av_sandbanke_pa_hoyenergi_sokkel"
1697.8 "6407_9-2"  90.6700 -999.25   -999.25 -999.25   100.0000      0.0      0.0 -999.25 -999.25   -999.25                                                                                          "Oppbygning_av_sandbanke_pa_hoyenergi_sokkel"
1697.9 "6407_9-2"  90.3700 -999.25   -999.25 -999.25   100.0000      0.0      0.0 -999.25 -999.25   -999.25                                                                                          "Oppbygning_av_sandbanke_pa_hoyenergi_sokkel"
1698.0 "6407_9-2"  90.0700 -999.25   -999.25 -999.25   100.0000      0.0      0.0 -999.25 -999.25   -999.25                                                                                          "Oppbygning_av_sandbanke_pa_hoyenergi_sokkel"
1698.1 "6407_9-2"  90.0900 -999.25   -999.25 -999.25   100.0000      0.0      0.0 -999.25 -999.25   -999.25                                                                                          "Oppbygning_av_sandbanke_pa_hoyenergi_sokkel"
1698.2 "6407_9-2"  90.6100 -999.25   -999.25 -999.25   100.0000      0.0      0.0 -999.25 -999.25   -999.25                                                                                          "Oppbygning_av_sandbanke_pa_hoyenergi_sokkel"
1698.3 "6407_9-2"  91.1200 -999.25   -999.25 -999.25   100.0000      0.0      0.0 -999.25 -999.25   -999.25                                                                                          "Oppbygning_av_sandbanke_pa_hoyenergi_sokkel"
1698.4 "6407_9-2"  91.6400 -999.25   -999.25 -999.25   100.0000      0.0      0.0 -999.25 -999.25   -999.25                                                                                          "Oppbygning_av_sandbanke_pa_hoyenergi_sokkel"
1698.5 "6407_9-2"  92.1500 -999.25   -999.25 -999.25   100.0000      0.0      0.0 -999.25 -999.25   -999.25                                                                                          "Oppbygning_av_sandbanke_pa_hoyenergi_sokkel"
1698.6 "6407_9-2"  92.6700 -999.25   -999.25 -999.25   100.0000      0.0      0.0 -999.25 -999.25   -999.25                                                                                          "Oppbygning_av_sandbanke_pa_hoyenergi_sokkel"
1698.7 "6407_9-2"  93.1900 -999.25   -999.25 -999.25   100.0000      0.0      0.0 -999.25 -999.25   -999.25                                                                                          "Oppbygning_av_sandbanke_pa_hoyenergi_sokkel"
1698.8 "6407_9-2"  93.8800 -999.25   -999.25 -999.25   100.0000      0.0      0.0 -999.25 -999.25   -999.25                                                                                          "Oppbygning_av_sandbanke_pa_hoyenergi_sokkel"
1698.9 "6407_9-2"  94.5800 -999.25   -999.25 -999.25   100.0000      0.0      0.0 -999.25 -999.25   -999.25                                                                                          "Oppbygning_av_sandbanke_pa_hoyenergi_sokkel"
1699.0 "6407_9-2"  95.2900 -999.25   -999.25 -999.25   100.0000      0.0      0.0 -999.25 -999.25   -999.25                                                                                          "Oppbygning_av_sandbanke_pa_hoyenergi_sokkel"
1699.1 "6407_9-2"  96.0000 -999.25   -999.25 -999.25   100.0000      0.0      0.0 -999.25 -999.25   -999.25                                                                                          "Oppbygning_av_sandbanke_pa_hoyenergi_sokkel"
1699.2 "6407_9-2"  96.7100 -999.25   -999.25 -999.25   100.0000      0.0      0.0 -999.25 -999.25   -999.25                                                                                          "Oppbygning_av_sandbanke_pa_hoyenergi_sokkel"
1699.3 "6407_9-2"  97.4200 -999.25   -999.25 -999.25   100.0000      0.0      0.0 -999.25 -999.25   -999.25                                                                                          "Oppbygning_av_sandbanke_pa_hoyenergi_sokkel"
1699.4 "6407_9-2" 102.8800 -999.25   -999.25 -999.25   100.0000      0.0      0.0 -999.25 -999.25   -999.25                                                                                          "Oppbygning_av_sandbanke_pa_hoyenergi_sokkel"
1699.5 "6407_9-2" 110.3100 -999.25   -999.25 -999.25   100.0000      0.0      0.0 -999.25 -999.25   -999.25                                                                                          "Oppbygning_av_sandbanke_pa_hoyenergi_sokkel"
1699.6 "6407_9-2" 136.3300 -999.25   -999.25 -999.25   100.0000      0.0      0.0 -999.25 -999.25   -999.25                                                                                          "Oppbygning_av_sandbanke_pa_hoyenergi_sokkel"
