~Version
VERS  .                                 3.0 : CWLS LAS ASCII Standard - Version 3.0
WRAP  . NO                                  : One line per depth step
DLM   . SPACE                               : Column data section delimiter
SOURCE. Converted to LAS by Log Studio 4.76 : GeoProvider

~Well
STRT.         1653.5 : Start depth
STOP.         1706.2 : Stop depth
STEP.              1 : Step
NULL.        -999.25 : No-value
COMP.                : Company
WELL. 6407/9-2       : Well
FLD .                : Field
LOC .                : Location
LATI.                : Latitude
LONG.                : Longitude
GDAT.                : Geodetic datum
CNTY.                : County
STAT.                : State
CTRY.                : Country
SRVC. GeoProvider AS : Service company
DATE.                : Date
API .                : API number
RUN .                : Run number

~Parameters
WellboreName.  : Wellbore name
RigName     .  : Rig name
StartDate   .  : Start date

~Curves
DEPTH.m            .  : null {F}Depth mMD
Hole_ID.-          .  : null {S}Hole ID
GR.API             .  : null {F}Gamma Ray
Lithology1.-       .  : null {S}Lithology 1
Lithology2.-       .  : null {S}Lithology 2
Lithology3.-       .  : null {S}Lithology 3
Lithology1.%       .  : null {F}Lithology 1 percentage
Lithology2.%       .  : null {F}Lithology 2 percentage
Lithology3.%       .  : null {F}Lithology 3 percentage
Grain_size_Top.-   .  : null {S}Grain size at the top 
Grain_size_Base.-  .  : null {S}Grain size at the bottom
Sub_Environment.-  .  : null {S}Sub Environment
Gross_Environment.-.  : null {S}Gross Environment

~Ascii
# ...
1703.0 "6407_9-2"  75.0600 "Limestone" "Clay"  "Sandstone"  45.0000 45.00000 10.00000 "vf/f"  "clay/silt" "Marin_''hardground''"                                                                           "Marin_''hardground''"                     
1703.1 "6407_9-2"  74.5500 "Limestone" "Clay"  "Sandstone"  45.0000 45.00000 10.00000 "vf/f"  "clay/silt" "Marin_''hardground''"                                                                           "Marin_''hardground''"                     
1703.2 "6407_9-2"  73.7300 "Sandstone" -999.25 -999.25   100.0000      0.0      0.0 "f"     "vf/f"    "Marin_''hardground''"                                                                           "Marin_''hardground''"                     
1703.3 "6407_9-2"  72.9100 "Sandstone" -999.25 -999.25   100.0000      0.0      0.0 "f"     "vf/f"    "Marin_''hardground''"                                                                           "Marin_''hardground''"                     
1703.4 "6407_9-2"  72.0800 "Sandstone" -999.25 -999.25   100.0000      0.0      0.0 "f"     "vf/f"    "Marin_''hardground''"                                                                           "Marin_''hardground''"                     
1703.5 "6407_9-2"  71.2600 "Sandstone" -999.25 -999.25   100.0000      0.0      0.0 "f"     "vf/f"    "Ovre_strandskraning_forstrand"                                                                  "Ovre_strandskraning_forstrand"            
1703.6 "6407_9-2"  71.6900 "Sandstone" -999.25 -999.25   100.0000      0.0      0.0 "f"     "vf/f"    "Ovre_strandskraning_forstrand"                                                                  "Ovre_strandskraning_forstrand"            
1703.7 "6407_9-2"  72.1100 "Sandstone" -999.25 -999.25   100.0000      0.0      0.0 "f"     "vf/f"    "Ovre_strandskraning_forstrand"                                                                  "Ovre_strandskraning_forstrand"            
1703.8 "6407_9-2"  72.5400 "Sandstone" -999.25 -999.25   100.0000      0.0      0.0 "f"     "vf/f"    "Ovre_strandskraning_forstrand"                                                                  "Ovre_strandskraning_forstrand"            
1703.9 "6407_9-2"  72.9600 "Sandstone" -999.25 -999.25   100.0000      0.0      0.0 "f"     "vf/f"    "Ovre_strandskraning_forstrand"                                                                  "Ovre_strandskraning_forstrand"            
1704.0 "6407_9-2"  73.3900 "Sandstone" -999.25 -999.25   100.0000      0.0      0.0 "f"     "vf/f"    "Ovre_strandskraning_forstrand"                                                                  "Ovre_strandskraning_forstrand"            
1704.1 "6407_9-2"  73.0600 "Sandstone" -999.25 -999.25   100.0000      0.0      0.0 "f"     "vf/f"    "Ovre_strandskraning_forstrand"                                                                  "Ovre_strandskraning_forstrand"            
1704.2 "6407_9-2"  72.2100 "Sandstone" -999.25 -999.25   100.0000      0.0      0.0 "f"     "vf/f"    "Ovre_strandskraning_forstrand"                                                                  "Ovre_strandskraning_forstrand"            
1704.3 "6407_9-2"  71.3500 "Sandstone" -999.25 -999.25   100.0000      0.0      0.0 "f"     "vf/f"    "Ovre_strandskraning_forstrand"                                                                  "Ovre_strandskraning_forstrand"            
1704.4 "6407_9-2"  70.5000 "Sandstone" -999.25 -999.25   100.0000      0.0      0.0 "f"     "vf/f"    "Ovre_strandskraning_forstrand"                                                                  "Ovre_strandskraning_forstrand"            
1704.5 "6407_9-2"  69.6400 "Sandstone" -999.25 -999.25   100.0000      0.0      0.0 "f"     "vf/f"    "Ovre_strandskraning_forstrand"                                                                  "Ovre_strandskraning_forstrand"            
1704.6 "6407_9-2"  69.4500 "Sandstone" -999.25 -999.25   100.0000      0.0      0.0 "f"     "vf/f"    "Ovre_strandskraning_forstrand"                                                                  "Ovre_strandskraning_forstrand"            
1704.7 "6407_9-2"  70.0900 "Sandstone" -999.25 -999.25   100.0000      0.0      0.0 "f"     "vf/f"    "Ovre_strandskraning_forstrand"                                                                  "Ovre_strandskraning_forstrand"            
1704.8 "6407_9-2"  70.7300 "Sandstone" -999.25 -999.25   100.0000      0.0      0.0 "f"     "vf/f"    "Ovre_strandskraning_forstrand"                                                                  "Ovre_strandskraning_forstrand"            
1704.9 "6407_9-2"  71.3700 "Sandstone" -999.25 -999.25   100.0000      0.0      0.0 "f"     "vf/f"    "Ovre_strandskraning_forstrand"                                                                  "Ovre_strandskraning_forstrand"            
1705.0 "6407_9-2"  72.0100 "Sandstone" -999.25 -999.25   100.0000      0.0      0.0 "f"     "vf/f"    "Ovre_strandskraning_forstrand"                                                                  "Ovre_strandskraning_forstrand"            
1705.1 "6407_9-2"  72.6500 "Sandstone" -999.25 -999.25   100.0000      0.0      0.0 "f"     "vf/f"    "Ovre_strandskraning_forstrand"                                                                  "Ovre_strandskraning_forstrand"            
1705.2 "6407_9-2"  73.2900 "Sandstone" -999.25 -999.25   100.0000      0.0      0.0 "f"     "vf/f"    "Ovre_strandskraning_forstrand"                                                                  "Ovre_strandskraning_forstrand"            
1705.3 "6407_9-2"  73.9300 "Sandstone" -999.25 -999.25   100.0000      0.0      0.0 "f"     "vf/f"    "Ovre_strandskraning_forstrand"                                                                  "Ovre_strandskraning_forstrand"            
1705.4 "6407_9-2"  74.0600 "Sandstone" -999.25 -999.25   100.0000      0.0      0.0 "f"     "vf/f"    "Ovre_strandskraning_forstrand"                                                                  "Ovre_strandskraning_forstrand"            
1705.5 "6407_9-2"  73.8400 "Sandstone" -999.25 -999.25   100.0000      0.0      0.0 "f"     "vf/f"    "Ovre_strandskraning_forstrand"                                                                  "Ovre_strandskraning_forstrand"            
1705.6 "6407_9-2"  73.6200 "Sandstone" -999.25 -999.25   100.0000      0.0      0.0 "f"     "vf/f"    "Ovre_strandskraning_forstrand"                                                                  "Ovre_strandskraning_forstrand"            
1705.7 "6407_9-2"  73.4000 "Sandstone" -999.25 -999.25   100.0000      0.0      0.0 "f"     "vf/f"    "Ovre_strandskraning_forstrand"                                                                  "Ovre_strandskraning_forstrand"            
1705.8 "6407_9-2"  73.2000 "Sandstone" -999.25 -999.25   100.0000      0.0      0.0 "f"     "vf/f"    "Ovre_strandskraning_forstrand"                                                                  "Ovre_strandskraning_forstrand"            
1705.9 "6407_9-2"  73.0000 "Sandstone" -999.25 -999.25   100.0000      0.0      0.0 "f"     "vf/f"    "Ovre_strandskraning_forstrand"                                                                  "Ovre_strandskraning_forstrand"            
1706.0 "6407_9-2"  72.8100 "Sandstone" -999.25 -999.25   100.0000      0.0      0.0 "f"     "vf/f"    "Ovre_strandskraning_forstrand"                                                                  "Ovre_strandskraning_forstrand"            
1706.1 "6407_9-2"   2.7300 "Sandstone" -999.25 -999.25   100.0000      0.0      0.0 "f"     "vf/f"    "Ovre_strandskraning_forstrand"                                                                  "Ovre_strandskraning_forstrand"            
1706.2 "6407_9-2"   2.7300 "Sandstone" -999.25 -999.25   100.0000      0.0      0.0 "f"     "vf/f"    "Ovre_strandskraning_forstrand"                                                                  "Ovre_strandskraning_forstrand"            
