~Version
VERS  .                                 3.0 : CWLS LAS ASCII Standard - Version 3.0
WRAP  . NO                                  : One line per depth step
DLM   . SPACE                               : Column data section delimiter
SOURCE. Converted to LAS by Log Studio 4.76 : GeoProvider

~Well
STRT.         1653.5 : Start depth
STOP.         1706.2 : Stop depth
STEP.              1 : Step
NULL.        -999.25 : No-value
COMP.                : Company
WELL. 6407/9-2       : Well
FLD .                : Field
LOC .                : Location
LATI.                : Latitude
LONG.                : Longitude
GDAT.                : Geodetic datum
CNTY.                : County
STAT.                : State
CTRY.                : Country
SRVC. GeoProvider AS : Service company
DATE.                : Date
API .                : API number
RUN .                : Run number

~Parameters
WellboreName.  : Wellbore name
RigName     .  : Rig name
StartDate   .  : Start date

~Curves
DEPTH.m            .  : null {F}Depth mMD
Hole_ID.-          .  : null {S}Hole ID
GR.API             .  : null {F}Gamma Ray
Lithology1.-       .  : null {S}Lithology 1
Lithology2.-       .  : null {S}Lithology 2
Lithology3.-       .  : null {S}Lithology 3
Lithology1.%       .  : null {F}Lithology 1 percentage
Lithology2.%       .  : null {F}Lithology 2 percentage
Lithology3.%       .  : null {F}Lithology 3 percentage
Grain_size_Top.-   .  : null {S}Grain size at the top 
Grain_size_Base.-  .  : null {S}Grain size at the bottom
Sub_Environment.-  .  : null {S}Sub Environment
Gross_Environment.-.  : null {S}Gross Environment

~Ascii
# ...
1679.9 "6407_9-2"  72.2600 "Sandstone" "Clay"  -999.25    80.0000 20.00000      0.0 "f"     "vf"      "Marginale_deler_av_sokkelsand-banke,_stormdominert"                                             "Oppbygning_av_sandbanke_pa_hoyenergi_sokkel"
1680.0 "6407_9-2"  72.9300 "Sandstone" "Clay"  -999.25    80.0000 20.00000      0.0 "f"     "vf"      "Marginale_deler_av_sokkelsand-banke,_stormdominert"                                             "Oppbygning_av_sandbanke_pa_hoyenergi_sokkel"
1680.1 "6407_9-2"  73.6000 "Sandstone" "Clay"  -999.25    80.0000 20.00000      0.0 "f"     "vf"      "Marginale_deler_av_sokkelsand-banke,_stormdominert"                                             "Oppbygning_av_sandbanke_pa_hoyenergi_sokkel"
1680.2 "6407_9-2"  74.2800 "Sandstone" "Clay"  -999.25    80.0000 20.00000      0.0 "f"     "vf"      "Marginale_deler_av_sokkelsand-banke,_stormdominert"                                             "Oppbygning_av_sandbanke_pa_hoyenergi_sokkel"
1680.3 "6407_9-2"  74.9500 "Sandstone" "Clay"  -999.25    80.0000 20.00000      0.0 "f"     "vf"      "Marginale_deler_av_sokkelsand-banke,_stormdominert"                                             "Oppbygning_av_sandbanke_pa_hoyenergi_sokkel"
1680.4 "6407_9-2"  75.6200 "Sandstone" "Clay"  -999.25    80.0000 20.00000      0.0 "f"     "vf"      "Marginale_deler_av_sokkelsand-banke,_stormdominert"                                             "Oppbygning_av_sandbanke_pa_hoyenergi_sokkel"
1680.5 "6407_9-2"  76.2900 "Sandstone" "Clay"  -999.25    80.0000 20.00000      0.0 "f"     "vf"      "Marginale_deler_av_sokkelsand-banke,_stormdominert"                                             "Oppbygning_av_sandbanke_pa_hoyenergi_sokkel"
1680.6 "6407_9-2"  76.9600 "Sandstone" "Clay"  -999.25    80.0000 20.00000      0.0 "f"     "vf"      "Marginale_deler_av_sokkelsand-banke,_stormdominert"                                             "Oppbygning_av_sandbanke_pa_hoyenergi_sokkel"
1680.7 "6407_9-2"  77.6600 "Sandstone" "Clay"  -999.25    80.0000 20.00000      0.0 "f"     "vf"      "Marginale_deler_av_sokkelsand-banke,_stormdominert"                                             "Oppbygning_av_sandbanke_pa_hoyenergi_sokkel"
1680.8 "6407_9-2"  78.5700 "Sandstone" "Clay"  -999.25    80.0000 20.00000      0.0 "f"     "vf"      "Marginale_deler_av_sokkelsand-banke,_stormdominert"                                             "Oppbygning_av_sandbanke_pa_hoyenergi_sokkel"
1680.9 "6407_9-2"  79.4900 "Sandstone" "Clay"  -999.25    80.0000 20.00000      0.0 "f"     "vf"      "Marginale_deler_av_sokkelsand-banke,_stormdominert"                                             "Oppbygning_av_sandbanke_pa_hoyenergi_sokkel"
1681.0 "6407_9-2"  80.4000 "Sandstone" "Clay"  -999.25    80.0000 20.00000      0.0 "f"     "vf"      "Marginale_deler_av_sokkelsand-banke,_stormdominert"                                             "Oppbygning_av_sandbanke_pa_hoyenergi_sokkel"
1681.1 "6407_9-2"  81.3100 "Sandstone" "Clay"  -999.25    80.0000 20.00000      0.0 "f"     "vf"      "Marginale_deler_av_sokkelsand-banke,_stormdominert"                                             "Oppbygning_av_sandbanke_pa_hoyenergi_sokkel"
1681.2 "6407_9-2"  82.2300 "Sandstone" "Clay"  -999.25    80.0000 20.00000      0.0 "f"     "vf"      "Marginale_deler_av_sokkelsand-banke,_stormdominert"                                             "Oppbygning_av_sandbanke_pa_hoyenergi_sokkel"
1681.3 "6407_9-2"  82.8100 "Sandstone" "Clay"  -999.25    80.0000 20.00000      0.0 "f"     "vf"      "Marginale_deler_av_sokkelsand-banke,_stormdominert"                                             "Oppbygning_av_sandbanke_pa_hoyenergi_sokkel"
1681.4 "6407_9-2"  81.8500 "Sandstone" "Clay"  -999.25    80.0000 20.00000      0.0 "f"     "vf"      "Marginale_deler_av_sokkelsand-banke,_stormdominert"                                             "Oppbygning_av_sandbanke_pa_hoyenergi_sokkel"
1681.5 "6407_9-2"  80.8900 "Sandstone" "Clay"  -999.25    80.0000 20.00000      0.0 "f"     "vf"      "Marginale_deler_av_sokkelsand-banke,_stormdominert"                                             "Oppbygning_av_sandbanke_pa_hoyenergi_sokkel"
1681.6 "6407_9-2"  80.6800 "Sandstone" "Clay"  -999.25    80.0000 20.00000      0.0 "f"     "vf"      "Marginale_deler_av_sokkelsand-banke,_stormdominert"                                             "Oppbygning_av_sandbanke_pa_hoyenergi_sokkel"
1681.7 "6407_9-2"  80.4700 "Sandstone" "Clay"  -999.25    80.0000 20.00000      0.0 "f"     "vf"      "Marginale_deler_av_sokkelsand-banke,_stormdominert"                                             "Oppbygning_av_sandbanke_pa_hoyenergi_sokkel"
1681.8 "6407_9-2"  80.2700 "Sandstone" "Clay"  -999.25    80.0000 20.00000      0.0 "f"     "vf"      "Marginale_deler_av_sokkelsand-banke,_stormdominert"                                             "Oppbygning_av_sandbanke_pa_hoyenergi_sokkel"
1681.9 "6407_9-2"  80.0600 "Sandstone" "Clay"  -999.25    80.0000 20.00000      0.0 "f"     "vf"      "Marginale_deler_av_sokkelsand-banke,_stormdominert"                                             "Oppbygning_av_sandbanke_pa_hoyenergi_sokkel"
1682.0 "6407_9-2"  80.7900 "Sandstone" "Clay"  -999.25    80.0000 20.00000      0.0 "f"     "vf"      "Marginale_deler_av_sokkelsand-banke,_stormdominert"                                             "Oppbygning_av_sandbanke_pa_hoyenergi_sokkel"
1682.1 "6407_9-2"  81.5600 "Sandstone" "Clay"  -999.25    80.0000 20.00000      0.0 "f"     "vf"      "Marginale_deler_av_sokkelsand-banke,_stormdominert"                                             "Oppbygning_av_sandbanke_pa_hoyenergi_sokkel"
1682.2 "6407_9-2"  82.3300 "Sandstone" "Clay"  -999.25    80.0000 20.00000      0.0 "f"     "vf"      "Marginale_deler_av_sokkelsand-banke,_stormdominert"                                             "Oppbygning_av_sandbanke_pa_hoyenergi_sokkel"
1682.3 "6407_9-2"  83.1100 "Sandstone" "Clay"  -999.25    80.0000 20.00000      0.0 "f"     "vf"      "Marginale_deler_av_sokkelsand-banke,_stormdominert"                                             "Oppbygning_av_sandbanke_pa_hoyenergi_sokkel"
1682.4 "6407_9-2"  83.8800 "Sandstone" "Clay"  -999.25    80.0000 20.00000      0.0 "f"     "vf"      "Marginale_deler_av_sokkelsand-banke,_stormdominert"                                             "Oppbygning_av_sandbanke_pa_hoyenergi_sokkel"
1682.5 "6407_9-2"  84.4600 "Sandstone" "Clay"  -999.25    80.0000 20.00000      0.0 "f"     "vf"      "Marginale_deler_av_sokkelsand-banke,_stormdominert"                                             "Oppbygning_av_sandbanke_pa_hoyenergi_sokkel"
1682.6 "6407_9-2"  84.8800 "Sandstone" "Clay"  -999.25    80.0000 20.00000      0.0 "f"     "vf"      "Marginale_deler_av_sokkelsand-banke,_stormdominert"                                             "Oppbygning_av_sandbanke_pa_hoyenergi_sokkel"
1682.7 "6407_9-2"  85.3000 "Sandstone" "Clay"  -999.25    80.0000 20.00000      0.0 "f"     "vf"      "Marginale_deler_av_sokkelsand-banke,_stormdominert"                                             "Oppbygning_av_sandbanke_pa_hoyenergi_sokkel"
1682.8 "6407_9-2"  85.7000 "Sandstone" "Clay"  -999.25    80.0000 20.00000      0.0 "f"     "vf"      "Marginale_deler_av_sokkelsand-banke,_stormdominert"                                             "Oppbygning_av_sandbanke_pa_hoyenergi_sokkel"
1682.9 "6407_9-2"  85.7000 "Sandstone" "Clay"  -999.25    80.0000 20.00000      0.0 "f"     "vf"      "Marginale_deler_av_sokkelsand-banke,_stormdominert"                                             "Oppbygning_av_sandbanke_pa_hoyenergi_sokkel"
1683.0 "6407_9-2"  85.7000 "Sandstone" "Clay"  -999.25    80.0000 20.00000      0.0 "f"     "vf"      "Marginale_deler_av_sokkelsand-banke,_stormdominert"                                             "Oppbygning_av_sandbanke_pa_hoyenergi_sokkel"
1683.1 "6407_9-2"  85.7000 "Sandstone" "Clay"  -999.25    80.0000 20.00000      0.0 "f"     "vf"      "Marginale_deler_av_sokkelsand-banke,_stormdominert"                                             "Oppbygning_av_sandbanke_pa_hoyenergi_sokkel"
