~Version
VERS  .                                 3.0 : CWLS LAS ASCII Standard - Version 3.0
WRAP  . NO                                  : One line per depth step
DLM   . SPACE                               : Column data section delimiter
SOURCE. Converted to LAS by Log Studio 4.76 : GeoProvider

~Well
STRT.         1653.5 : Start depth
STOP.         1706.2 : Stop depth
STEP.              1 : Step
NULL.        -999.25 : No-value
COMP.                : Company
WELL. 6407/9-2       : Well
FLD .                : Field
LOC .                : Location
LATI.                : Latitude
LONG.                : Longitude
GDAT.                : Geodetic datum
CNTY.                : County
STAT.                : State
CTRY.                : Country
SRVC. GeoProvider AS : Service company
DATE.                : Date
API .                : API number
RUN .                : Run number

~Parameters
WellboreName.  : Wellbore name
RigName     .  : Rig name
StartDate   .  : Start date

~Curves
DEPTH.m            .  : null {F}Depth mMD
Hole_ID.-          .  : null {S}Hole ID
GR.API             .  : null {F}Gamma Ray
Lithology1.-       .  : null {S}Lithology 1
Lithology2.-       .  : null {S}Lithology 2
Lithology3.-       .  : null {S}Lithology 3
Lithology1.%       .  : null {F}Lithology 1 percentage
Lithology2.%       .  : null {F}Lithology 2 percentage
Lithology3.%       .  : null {F}Lithology 3 percentage
Grain_size_Top.-   .  : null {S}Grain size at the top 
Grain_size_Base.-  .  : null {S}Grain size at the bottom
Sub_Environment.-  .  : null {S}Sub Environment
Gross_Environment.-.  : null {S}Gross Environment

~Ascii
# ...
1686.5 "6407_9-2"  80.3100 "Sandstone" "Clay"  -999.25    60.0000 40.00000      0.0 "vf"    "vf"      "Marginale_deler_av_sokkelsand-banke,_stormdominert"                                             "Oppbygning_av_sandbanke_pa_hoyenergi_sokkel"
1686.6 "6407_9-2"  74.1000 "Sandstone" "Clay"  -999.25    60.0000 40.00000      0.0 "vf"    "vf"      "Marginale_deler_av_sokkelsand-banke,_stormdominert"                                             "Oppbygning_av_sandbanke_pa_hoyenergi_sokkel"
1686.7 "6407_9-2"  74.4000 "Sandstone" "Clay"  -999.25    60.0000 40.00000      0.0 "vf"    "vf"      "Marginale_deler_av_sokkelsand-banke,_stormdominert"                                             "Oppbygning_av_sandbanke_pa_hoyenergi_sokkel"
1686.8 "6407_9-2"  74.7000 "Sandstone" "Clay"  -999.25    60.0000 40.00000      0.0 "vf"    "vf"      "Marginale_deler_av_sokkelsand-banke,_stormdominert"                                             "Oppbygning_av_sandbanke_pa_hoyenergi_sokkel"
1686.9 "6407_9-2"  75.0000 -999.25   "Clay"  -999.25   100.0000      0.0      0.0 -999.25 -999.25   "Marginale_deler_av_sokkelsand-banke,_stormdominert"                                             "Oppbygning_av_sandbanke_pa_hoyenergi_sokkel"
1687.0 "6407_9-2"  82.9100 -999.25   "Clay"  -999.25   100.0000      0.0      0.0 -999.25 -999.25   "Marginale_deler_av_sokkelsand-banke,_stormdominert"                                             "Oppbygning_av_sandbanke_pa_hoyenergi_sokkel"
1687.1 "6407_9-2"  85.4100 -999.25   "Clay"  -999.25   100.0000      0.0      0.0 -999.25 -999.25   "Marginale_deler_av_sokkelsand-banke,_stormdominert"                                             "Oppbygning_av_sandbanke_pa_hoyenergi_sokkel"
1687.2 "6407_9-2"  86.3600 -999.25   "Clay"  -999.25   100.0000      0.0      0.0 -999.25 -999.25   "Marginale_deler_av_sokkelsand-banke,_stormdominert"                                             "Oppbygning_av_sandbanke_pa_hoyenergi_sokkel"
1687.3 "6407_9-2"  87.3000 -999.25   "Clay"  -999.25   100.0000      0.0      0.0 -999.25 -999.25   "Marginale_deler_av_sokkelsand-banke,_stormdominert"                                             "Oppbygning_av_sandbanke_pa_hoyenergi_sokkel"
1687.4 "6407_9-2"  88.2400 -999.25   "Clay"  -999.25   100.0000      0.0      0.0 -999.25 -999.25   "Marginale_deler_av_sokkelsand-banke,_stormdominert"                                             "Oppbygning_av_sandbanke_pa_hoyenergi_sokkel"
1687.5 "6407_9-2"  89.1800 -999.25   "Clay"  -999.25   100.0000      0.0      0.0 -999.25 -999.25   "Marginale_deler_av_sokkelsand-banke,_stormdominert"                                             "Oppbygning_av_sandbanke_pa_hoyenergi_sokkel"
1687.6 "6407_9-2"  90.1200 -999.25   "Clay"  -999.25   100.0000      0.0      0.0 -999.25 -999.25   "Marginale_deler_av_sokkelsand-banke,_stormdominert"                                             "Oppbygning_av_sandbanke_pa_hoyenergi_sokkel"
1687.7 "6407_9-2"  90.5200 -999.25   "Clay"  -999.25   100.0000      0.0      0.0 -999.25 -999.25   "Marginale_deler_av_sokkelsand-banke,_stormdominert"                                             "Oppbygning_av_sandbanke_pa_hoyenergi_sokkel"
1687.8 "6407_9-2"  90.5200 -999.25   "Clay"  -999.25   100.0000      0.0      0.0 -999.25 -999.25   "Marginale_deler_av_sokkelsand-banke,_stormdominert"                                             "Oppbygning_av_sandbanke_pa_hoyenergi_sokkel"
1687.9 "6407_9-2"  90.5200 -999.25   "Clay"  -999.25   100.0000      0.0      0.0 -999.25 -999.25   "Marginale_deler_av_sokkelsand-banke,_stormdominert"                                             "Oppbygning_av_sandbanke_pa_hoyenergi_sokkel"
1688.0 "6407_9-2"  90.5200 -999.25   "Clay"  -999.25   100.0000      0.0      0.0 -999.25 -999.25   "Marginale_deler_av_sokkelsand-banke,_stormdominert"                                             "Oppbygning_av_sandbanke_pa_hoyenergi_sokkel"
1688.1 "6407_9-2"  90.5200 "Sandstone" "Clay"  -999.25    60.0000 40.00000      0.0 "silt/vf" "vf"      "Marginale_deler_av_sokkelsand-banke,_stormdominert"                                             "Oppbygning_av_sandbanke_pa_hoyenergi_sokkel"
1688.2 "6407_9-2"  90.4100 "Sandstone" "Clay"  -999.25    60.0000 40.00000      0.0 "silt/vf" "vf"      "Marginale_deler_av_sokkelsand-banke,_stormdominert"                                             "Oppbygning_av_sandbanke_pa_hoyenergi_sokkel"
1688.3 "6407_9-2"  90.1700 "Sandstone" "Clay"  -999.25    60.0000 40.00000      0.0 "silt/vf" "vf"      "Stormtilforte_sedimenter_til_''offshore''"                                                      "Oppbygning_av_sandbanke_pa_hoyenergi_sokkel"
1688.4 "6407_9-2"  89.9200 "Sandstone" "Clay"  -999.25    60.0000 40.00000      0.0 "silt/vf" "vf"      "Stormtilforte_sedimenter_til_''offshore''"                                                      "Oppbygning_av_sandbanke_pa_hoyenergi_sokkel"
1688.5 "6407_9-2"  89.6800 "Sandstone" "Clay"  -999.25    60.0000 40.00000      0.0 "silt/vf" "vf"      "Stormtilforte_sedimenter_til_''offshore''"                                                      "Oppbygning_av_sandbanke_pa_hoyenergi_sokkel"
1688.6 "6407_9-2"  89.4300 "Sandstone" "Clay"  -999.25    60.0000 40.00000      0.0 "silt/vf" "vf"      "Stormtilforte_sedimenter_til_''offshore''"                                                      "Oppbygning_av_sandbanke_pa_hoyenergi_sokkel"
1688.7 "6407_9-2"  89.0000 "Sandstone" "Clay"  -999.25    60.0000 40.00000      0.0 "silt/vf" "vf"      "Stormtilforte_sedimenter_til_''offshore''"                                                      "Oppbygning_av_sandbanke_pa_hoyenergi_sokkel"
1688.8 "6407_9-2"  88.1100 "Sandstone" "Clay"  -999.25    60.0000 40.00000      0.0 "silt/vf" "vf"      "Stormtilforte_sedimenter_til_''offshore''"                                                      "Oppbygning_av_sandbanke_pa_hoyenergi_sokkel"
1688.9 "6407_9-2"  87.2200 "Sandstone" "Clay"  -999.25    60.0000 40.00000      0.0 "silt/vf" "vf"      "Stormtilforte_sedimenter_til_''offshore''"                                                      "Oppbygning_av_sandbanke_pa_hoyenergi_sokkel"
1689.0 "6407_9-2"  86.3300 "Sandstone" "Clay"  -999.25    60.0000 40.00000      0.0 "silt/vf" "vf"      "Stormtilforte_sedimenter_til_''offshore''"                                                      "Oppbygning_av_sandbanke_pa_hoyenergi_sokkel"
1689.1 "6407_9-2"  85.4400 "Sandstone" "Clay"  -999.25    60.0000 40.00000      0.0 "silt/vf" "vf"      "Stormtilforte_sedimenter_til_''offshore''"                                                      "Oppbygning_av_sandbanke_pa_hoyenergi_sokkel"
1689.2 "6407_9-2"  84.5500 "Sandstone" "Clay"  -999.25    60.0000 40.00000      0.0 "silt/vf" "vf"      "Stormtilforte_sedimenter_til_''offshore''"                                                      "Oppbygning_av_sandbanke_pa_hoyenergi_sokkel"
1689.3 "6407_9-2"  85.4400 "Sandstone" "Clay"  -999.25    60.0000 40.00000      0.0 "silt/vf" "vf"      "Stormtilforte_sedimenter_til_''offshore''"                                                      "Oppbygning_av_sandbanke_pa_hoyenergi_sokkel"
1689.4 "6407_9-2"  86.5500 "Sandstone" "Clay"  -999.25    60.0000 40.00000      0.0 "silt/vf" "vf"      "Stormtilforte_sedimenter_til_''offshore''"                                                      "Oppbygning_av_sandbanke_pa_hoyenergi_sokkel"
1689.5 "6407_9-2"  87.1700 "Sandstone" "Clay"  -999.25    60.0000 40.00000      0.0 "silt/vf" "vf"      "Stormtilforte_sedimenter_til_''offshore''"                                                      "Oppbygning_av_sandbanke_pa_hoyenergi_sokkel"
1689.6 "6407_9-2"  87.1700 "Sandstone" "Clay"  -999.25    60.0000 40.00000      0.0 "silt/vf" "vf"      "Stormtilforte_sedimenter_til_''offshore''"                                                      "Oppbygning_av_sandbanke_pa_hoyenergi_sokkel"
1689.7 "6407_9-2"  87.1700 "Sandstone" "Clay"  -999.25    60.0000 40.00000      0.0 "silt/vf" "vf"      "Stormtilforte_sedimenter_til_''offshore''"                                                      "Oppbygning_av_sandbanke_pa_hoyenergi_sokkel"
