~Version
VERS  .                                 3.0 : CWLS LAS ASCII Standard - Version 3.0
WRAP  . NO                                  : One line per depth step
DLM   . SPACE                               : Column data section delimiter
SOURCE. Converted to LAS by Log Studio 4.76 : GeoProvider

~Well
STRT.         1653.5 : Start depth
STOP.         1706.2 : Stop depth
STEP.              1 : Step
NULL.        -999.25 : No-value
COMP.                : Company
WELL. 6407/9-2       : Well
FLD .                : Field
LOC .                : Location
LATI.                : Latitude
LONG.                : Longitude
GDAT.                : Geodetic datum
CNTY.                : County
STAT.                : State
CTRY.                : Country
SRVC. GeoProvider AS : Service company
DATE.                : Date
API .                : API number
RUN .                : Run number

~Parameters
WellboreName.  : Wellbore name
RigName     .  : Rig name
StartDate   .  : Start date

~Curves
DEPTH.m            .  : null {F}Depth mMD
Hole_ID.-          .  : null {S}Hole ID
GR.API             .  : null {F}Gamma Ray
Lithology1.-       .  : null {S}Lithology 1
Lithology2.-       .  : null {S}Lithology 2
Lithology3.-       .  : null {S}Lithology 3
Lithology1.%       .  : null {F}Lithology 1 percentage
Lithology2.%       .  : null {F}Lithology 2 percentage
Lithology3.%       .  : null {F}Lithology 3 percentage
Grain_size_Top.-   .  : null {S}Grain size at the top 
Grain_size_Base.-  .  : null {S}Grain size at the bottom
Sub_Environment.-  .  : null {S}Sub Environment
Gross_Environment.-.  : null {S}Gross Environment

~Ascii
# ...
1673.3 "6407_9-2"  61.4200 "Sandstone" -999.25 -999.25    93.0000  7.00000      0.0 "vf"    "c/vc"    "Sentral_del_av_sokkelsand-banke,_sand_trolig_tilfort_vod_stormer_eller_avboyning_av_kyststrommer" "Oppbygning_av_sandbanke_pa_hoyenergi_sokkel"
1673.4 "6407_9-2"  60.7300 "Sandstone" -999.25 -999.25    93.0000  7.00000      0.0 "vf"    "c/vc"    "Marginale_deler_av_sokkelsand-banke,_stormdominert"                                             "Oppbygning_av_sandbanke_pa_hoyenergi_sokkel"
1673.5 "6407_9-2"  60.0400 "Sandstone" -999.25 -999.25    93.0000  7.00000      0.0 "vf"    "c/vc"    "Marginale_deler_av_sokkelsand-banke,_stormdominert"                                             "Oppbygning_av_sandbanke_pa_hoyenergi_sokkel"
1673.6 "6407_9-2"  60.3100 "Sandstone" "Clay"  -999.25    93.0000  7.00000      0.0 "vf"    "c/vc"    "Marginale_deler_av_sokkelsand-banke,_stormdominert"                                             "Oppbygning_av_sandbanke_pa_hoyenergi_sokkel"
1673.7 "6407_9-2"  61.3000 "Sandstone" "Clay"  -999.25    93.0000  7.00000      0.0 "vf"    "c/vc"    "Marginale_deler_av_sokkelsand-banke,_stormdominert"                                             "Oppbygning_av_sandbanke_pa_hoyenergi_sokkel"
1673.8 "6407_9-2"  62.2800 "Sandstone" "Clay"  -999.25    93.0000  7.00000      0.0 "vf"    "c/vc"    "Marginale_deler_av_sokkelsand-banke,_stormdominert"                                             "Oppbygning_av_sandbanke_pa_hoyenergi_sokkel"
1673.9 "6407_9-2"  62.3800 "Sandstone" "Clay"  -999.25    93.0000  7.00000      0.0 "vf"    "c/vc"    "Marginale_deler_av_sokkelsand-banke,_stormdominert"                                             "Oppbygning_av_sandbanke_pa_hoyenergi_sokkel"
1674.0 "6407_9-2"  61.8900 "Sandstone" "Clay"  -999.25    93.0000  7.00000      0.0 "vf"    "c/vc"    "Marginale_deler_av_sokkelsand-banke,_stormdominert"                                             "Oppbygning_av_sandbanke_pa_hoyenergi_sokkel"
1674.1 "6407_9-2"  61.3900 "Sandstone" "Clay"  -999.25    93.0000  7.00000      0.0 "vf"    "c/vc"    "Marginale_deler_av_sokkelsand-banke,_stormdominert"                                             "Oppbygning_av_sandbanke_pa_hoyenergi_sokkel"
1674.2 "6407_9-2"  60.8900 "Sandstone" "Clay"  -999.25    93.0000  7.00000      0.0 "vf"    "c/vc"    "Marginale_deler_av_sokkelsand-banke,_stormdominert"                                             "Oppbygning_av_sandbanke_pa_hoyenergi_sokkel"
1674.3 "6407_9-2"  60.3900 "Sandstone" "Clay"  -999.25    93.0000  7.00000      0.0 "vf"    "c/vc"    "Marginale_deler_av_sokkelsand-banke,_stormdominert"                                             "Oppbygning_av_sandbanke_pa_hoyenergi_sokkel"
1674.4 "6407_9-2"  59.9000 "Sandstone" "Clay"  -999.25    93.0000  7.00000      0.0 "vf"    "c/vc"    "Marginale_deler_av_sokkelsand-banke,_stormdominert"                                             "Oppbygning_av_sandbanke_pa_hoyenergi_sokkel"
1674.5 "6407_9-2"  59.4000 "Sandstone" "Clay"  -999.25    93.0000  7.00000      0.0 "vf"    "c/vc"    "Marginale_deler_av_sokkelsand-banke,_stormdominert"                                             "Oppbygning_av_sandbanke_pa_hoyenergi_sokkel"
1674.6 "6407_9-2"  58.9100 "Sandstone" "Clay"  -999.25    93.0000  7.00000      0.0 "vf"    "c/vc"    "Marginale_deler_av_sokkelsand-banke,_stormdominert"                                             "Oppbygning_av_sandbanke_pa_hoyenergi_sokkel"
1674.7 "6407_9-2"  59.0500 "Sandstone" "Clay"  -999.25    93.0000  7.00000      0.0 "vf"    "c/vc"    "Marginale_deler_av_sokkelsand-banke,_stormdominert"                                             "Oppbygning_av_sandbanke_pa_hoyenergi_sokkel"
1674.8 "6407_9-2"  59.1800 "Sandstone" "Clay"  -999.25    93.0000  7.00000      0.0 "vf"    "c/vc"    "Marginale_deler_av_sokkelsand-banke,_stormdominert"                                             "Oppbygning_av_sandbanke_pa_hoyenergi_sokkel"
1674.9 "6407_9-2"  59.3100 "Sandstone" "Clay"  -999.25    93.0000  7.00000      0.0 "vf"    "c/vc"    "Marginale_deler_av_sokkelsand-banke,_stormdominert"                                             "Oppbygning_av_sandbanke_pa_hoyenergi_sokkel"
1675.0 "6407_9-2"  59.4500 "Sandstone" "Clay"  -999.25    93.0000  7.00000      0.0 "vf"    "c/vc"    "Marginale_deler_av_sokkelsand-banke,_stormdominert"                                             "Oppbygning_av_sandbanke_pa_hoyenergi_sokkel"
1675.1 "6407_9-2"  59.5800 "Sandstone" "Clay"  -999.25    93.0000  7.00000      0.0 "vf"    "c/vc"    "Marginale_deler_av_sokkelsand-banke,_stormdominert"                                             "Oppbygning_av_sandbanke_pa_hoyenergi_sokkel"
1675.2 "6407_9-2"  59.7100 "Sandstone" "Clay"  -999.25    93.0000  7.00000      0.0 "vf"    "c/vc"    "Marginale_deler_av_sokkelsand-banke,_stormdominert"                                             "Oppbygning_av_sandbanke_pa_hoyenergi_sokkel"
1675.3 "6407_9-2"  59.8500 "Sandstone" "Clay"  -999.25    93.0000  7.00000      0.0 "vf"    "c/vc"    "Marginale_deler_av_sokkelsand-banke,_stormdominert"                                             "Oppbygning_av_sandbanke_pa_hoyenergi_sokkel"
1675.4 "6407_9-2"  60.1500 "Sandstone" "Clay"  -999.25    93.0000  7.00000      0.0 "vf"    "c/vc"    "Marginale_deler_av_sokkelsand-banke,_stormdominert"                                             "Oppbygning_av_sandbanke_pa_hoyenergi_sokkel"
1675.5 "6407_9-2"  61.2700 "Sandstone" "Clay"  -999.25    93.0000  7.00000      0.0 "vf"    "c/vc"    "Marginale_deler_av_sokkelsand-banke,_stormdominert"                                             "Oppbygning_av_sandbanke_pa_hoyenergi_sokkel"
1675.6 "6407_9-2"  62.4000 "Sandstone" "Clay"  -999.25    93.0000  7.00000      0.0 "vf"    "c/vc"    "Marginale_deler_av_sokkelsand-banke,_stormdominert"                                             "Oppbygning_av_sandbanke_pa_hoyenergi_sokkel"
1675.7 "6407_9-2"  70.0700 "Sandstone" "Clay"  -999.25    93.0000  7.00000      0.0 "vf"    "c/vc"    "Marginale_deler_av_sokkelsand-banke,_stormdominert"                                             "Oppbygning_av_sandbanke_pa_hoyenergi_sokkel"
1675.8 "6407_9-2"  71.6500 "Sandstone" "Clay"  -999.25    93.0000  7.00000      0.0 "vf"    "c/vc"    "Marginale_deler_av_sokkelsand-banke,_stormdominert"                                             "Oppbygning_av_sandbanke_pa_hoyenergi_sokkel"
1675.9 "6407_9-2"  71.3900 "Sandstone" "Clay"  -999.25    93.0000  7.00000      0.0 "vf"    "c/vc"    "Marginale_deler_av_sokkelsand-banke,_stormdominert"                                             "Oppbygning_av_sandbanke_pa_hoyenergi_sokkel"
1676.0 "6407_9-2"  71.1400 "Sandstone" "Clay"  -999.25    93.0000  7.00000      0.0 "vf"    "c/vc"    "Marginale_deler_av_sokkelsand-banke,_stormdominert"                                             "Oppbygning_av_sandbanke_pa_hoyenergi_sokkel"
1676.1 "6407_9-2"  70.8800 "Sandstone" "Clay"  -999.25    93.0000  7.00000      0.0 "vf"    "c/vc"    "Marginale_deler_av_sokkelsand-banke,_stormdominert"                                             "Oppbygning_av_sandbanke_pa_hoyenergi_sokkel"
1676.2 "6407_9-2"  71.2700 "Sandstone" "Clay"  -999.25    93.0000  7.00000      0.0 "vf"    "c/vc"    "Marginale_deler_av_sokkelsand-banke,_stormdominert"                                             "Oppbygning_av_sandbanke_pa_hoyenergi_sokkel"
1676.3 "6407_9-2"  71.7600 "Sandstone" "Clay"  -999.25    93.0000  7.00000      0.0 "vf"    "c/vc"    "Marginale_deler_av_sokkelsand-banke,_stormdominert"                                             "Oppbygning_av_sandbanke_pa_hoyenergi_sokkel"
1676.4 "6407_9-2"  72.2500 "Sandstone" "Clay"  -999.25    93.0000  7.00000      0.0 "vf"    "c/vc"    "Marginale_deler_av_sokkelsand-banke,_stormdominert"                                             "Oppbygning_av_sandbanke_pa_hoyenergi_sokkel"
1676.5 "6407_9-2"  72.1700 "Sandstone" "Clay"  -999.25    93.0000  7.00000      0.0 "vf"    "c/vc"    "Marginale_deler_av_sokkelsand-banke,_stormdominert"                                             "Oppbygning_av_sandbanke_pa_hoyenergi_sokkel"
