~Version
VERS  .                                 3.0 : CWLS LAS ASCII Standard - Version 3.0
WRAP  . NO                                  : One line per depth step
DLM   . SPACE                               : Column data section delimiter
SOURCE. Converted to LAS by Log Studio 4.76 : GeoProvider

~Well
STRT.         1653.5 : Start depth
STOP.         1706.2 : Stop depth
STEP.              1 : Step
NULL.        -999.25 : No-value
COMP.                : Company
WELL. 6407/9-2       : Well
FLD .                : Field
LOC .                : Location
LATI.                : Latitude
LONG.                : Longitude
GDAT.                : Geodetic datum
CNTY.                : County
STAT.                : State
CTRY.                : Country
SRVC. GeoProvider AS : Service company
DATE.                : Date
API .                : API number
RUN .                : Run number

~Parameters
WellboreName.  : Wellbore name
RigName     .  : Rig name
StartDate   .  : Start date

~Curves
DEPTH.m            .  : null {F}Depth mMD
Hole_ID.-          .  : null {S}Hole ID
GR.API             .  : null {F}Gamma Ray
Lithology1.-       .  : null {S}Lithology 1
Lithology2.-       .  : null {S}Lithology 2
Lithology3.-       .  : null {S}Lithology 3
Lithology1.%       .  : null {F}Lithology 1 percentage
Lithology2.%       .  : null {F}Lithology 2 percentage
Lithology3.%       .  : null {F}Lithology 3 percentage
Grain_size_Top.-   .  : null {S}Grain size at the top 
Grain_size_Base.-  .  : null {S}Grain size at the bottom
Sub_Environment.-  .  : null {S}Sub Environment
Gross_Environment.-.  : null {S}Gross Environment

~Ascii
# ...
1656.8 "6407_9-2"  68.9600 "Sandstone" -999.25 -999.25   100.0000      0.0      0.0 "m/c"   "f"       "Sentral_del_av_sokkelsand-banke,_sand_trolig_tilfort_vod_stormer_eller_avboyning_av_kyststrommer" "Oppbygning_av_sandbanke_pa_hoyenergi_sokkel"
1656.9 "6407_9-2"  68.8600 "Sandstone" -999.25 -999.25   100.0000      0.0      0.0 "m/c"   "f"       "Sentral_del_av_sokkelsand-banke,_sand_trolig_tilfort_vod_stormer_eller_avboyning_av_kyststrommer" "Oppbygning_av_sandbanke_pa_hoyenergi_sokkel"
1657.0 "6407_9-2"  68.7500 "Sandstone" -999.25 -999.25   100.0000      0.0      0.0 "m/c"   "f"       "Sentral_del_av_sokkelsand-banke,_sand_trolig_tilfort_vod_stormer_eller_avboyning_av_kyststrommer" "Oppbygning_av_sandbanke_pa_hoyenergi_sokkel"
1657.1 "6407_9-2"  68.6400 "Sandstone" -999.25 -999.25   100.0000      0.0      0.0 "m/c"   "f"       "Sentral_del_av_sokkelsand-banke,_sand_trolig_tilfort_vod_stormer_eller_avboyning_av_kyststrommer" "Oppbygning_av_sandbanke_pa_hoyenergi_sokkel"
1657.2 "6407_9-2"  68.5300 "Sandstone" -999.25 -999.25   100.0000      0.0      0.0 "m/c"   "f"       "Sentral_del_av_sokkelsand-banke,_sand_trolig_tilfort_vod_stormer_eller_avboyning_av_kyststrommer" "Oppbygning_av_sandbanke_pa_hoyenergi_sokkel"
1657.3 "6407_9-2"  68.4200 "Sandstone" -999.25 -999.25   100.0000      0.0      0.0 "m/c"   "f"       "Sentral_del_av_sokkelsand-banke,_sand_trolig_tilfort_vod_stormer_eller_avboyning_av_kyststrommer" "Oppbygning_av_sandbanke_pa_hoyenergi_sokkel"
1657.4 "6407_9-2"  68.2600 "Sandstone" -999.25 -999.25   100.0000      0.0      0.0 "m/c"   "f"       "Sentral_del_av_sokkelsand-banke,_sand_trolig_tilfort_vod_stormer_eller_avboyning_av_kyststrommer" "Oppbygning_av_sandbanke_pa_hoyenergi_sokkel"
1657.5 "6407_9-2"  67.6800 "Sandstone" -999.25 -999.25   100.0000      0.0      0.0 "m/c"   "f"       "Sentral_del_av_sokkelsand-banke,_sand_trolig_tilfort_vod_stormer_eller_avboyning_av_kyststrommer" "Oppbygning_av_sandbanke_pa_hoyenergi_sokkel"
1657.6 "6407_9-2"  67.1100 "Sandstone" -999.25 -999.25   100.0000      0.0      0.0 "m/c"   "f"       "Sentral_del_av_sokkelsand-banke,_sand_trolig_tilfort_vod_stormer_eller_avboyning_av_kyststrommer" "Oppbygning_av_sandbanke_pa_hoyenergi_sokkel"
1657.7 "6407_9-2"  66.5400 "Sandstone" -999.25 -999.25   100.0000      0.0      0.0 "m/c"   "f"       "Sentral_del_av_sokkelsand-banke,_sand_trolig_tilfort_vod_stormer_eller_avboyning_av_kyststrommer" "Oppbygning_av_sandbanke_pa_hoyenergi_sokkel"
1657.8 "6407_9-2"  65.9700 "Sandstone" -999.25 -999.25   100.0000      0.0      0.0 "m/c"   "f"       "Sentral_del_av_sokkelsand-banke,_sand_trolig_tilfort_vod_stormer_eller_avboyning_av_kyststrommer" "Oppbygning_av_sandbanke_pa_hoyenergi_sokkel"
1657.9 "6407_9-2"  65.4000 "Sandstone" -999.25 -999.25   100.0000      0.0      0.0 "m/c"   "f"       "Sentral_del_av_sokkelsand-banke,_sand_trolig_tilfort_vod_stormer_eller_avboyning_av_kyststrommer" "Oppbygning_av_sandbanke_pa_hoyenergi_sokkel"
1658.0 "6407_9-2"  64.8300 "Sandstone" -999.25 -999.25   100.0000      0.0      0.0 "m/c"   "f"       "Sentral_del_av_sokkelsand-banke,_sand_trolig_tilfort_vod_stormer_eller_avboyning_av_kyststrommer" "Oppbygning_av_sandbanke_pa_hoyenergi_sokkel"
1658.1 "6407_9-2"  63.5000 "Sandstone" -999.25 -999.25   100.0000      0.0      0.0 "m/c"   "f"       "Sentral_del_av_sokkelsand-banke,_sand_trolig_tilfort_vod_stormer_eller_avboyning_av_kyststrommer" "Oppbygning_av_sandbanke_pa_hoyenergi_sokkel"
1658.2 "6407_9-2"  62.0800 "Sandstone" -999.25 -999.25   100.0000      0.0      0.0 "m/c"   "f"       "Sentral_del_av_sokkelsand-banke,_sand_trolig_tilfort_vod_stormer_eller_avboyning_av_kyststrommer" "Oppbygning_av_sandbanke_pa_hoyenergi_sokkel"
1658.3 "6407_9-2"  60.6700 "Sandstone" -999.25 -999.25   100.0000      0.0      0.0 "m/c"   "f"       "Sentral_del_av_sokkelsand-banke,_sand_trolig_tilfort_vod_stormer_eller_avboyning_av_kyststrommer" "Oppbygning_av_sandbanke_pa_hoyenergi_sokkel"
1658.4 "6407_9-2"  59.2600 "Sandstone" -999.25 -999.25   100.0000      0.0      0.0 "m/c"   "f"       "Sentral_del_av_sokkelsand-banke,_sand_trolig_tilfort_vod_stormer_eller_avboyning_av_kyststrommer" "Oppbygning_av_sandbanke_pa_hoyenergi_sokkel"
1658.5 "6407_9-2"  58.3300 "Sandstone" -999.25 -999.25   100.0000      0.0      0.0 "m/c"   "f"       "Sentral_del_av_sokkelsand-banke,_sand_trolig_tilfort_vod_stormer_eller_avboyning_av_kyststrommer" "Oppbygning_av_sandbanke_pa_hoyenergi_sokkel"
1658.6 "6407_9-2"  58.4600 "Sandstone" -999.25 -999.25   100.0000      0.0      0.0 "m/c"   "f"       "Sentral_del_av_sokkelsand-banke,_sand_trolig_tilfort_vod_stormer_eller_avboyning_av_kyststrommer" "Oppbygning_av_sandbanke_pa_hoyenergi_sokkel"
1658.7 "6407_9-2"  58.6000 "Sandstone" -999.25 -999.25   100.0000      0.0      0.0 "m/c"   "f"       "Sentral_del_av_sokkelsand-banke,_sand_trolig_tilfort_vod_stormer_eller_avboyning_av_kyststrommer" "Oppbygning_av_sandbanke_pa_hoyenergi_sokkel"
1658.8 "6407_9-2"  58.7400 "Sandstone" -999.25 -999.25   100.0000      0.0      0.0 "m/c"   "f"       "Sentral_del_av_sokkelsand-banke,_sand_trolig_tilfort_vod_stormer_eller_avboyning_av_kyststrommer" "Oppbygning_av_sandbanke_pa_hoyenergi_sokkel"
1658.9 "6407_9-2"  58.8700 "Sandstone" -999.25 -999.25   100.0000      0.0      0.0 "m/c"   "f"       "Sentral_del_av_sokkelsand-banke,_sand_trolig_tilfort_vod_stormer_eller_avboyning_av_kyststrommer" "Oppbygning_av_sandbanke_pa_hoyenergi_sokkel"
1659.0 "6407_9-2"  59.5400 "Sandstone" -999.25 -999.25   100.0000      0.0      0.0 "m/c"   "f"       "Sentral_del_av_sokkelsand-banke,_sand_trolig_tilfort_vod_stormer_eller_avboyning_av_kyststrommer" "Oppbygning_av_sandbanke_pa_hoyenergi_sokkel"
1659.1 "6407_9-2"  60.4300 "Sandstone" -999.25 -999.25   100.0000      0.0      0.0 "m/c"   "f"       "Sentral_del_av_sokkelsand-banke,_sand_trolig_tilfort_vod_stormer_eller_avboyning_av_kyststrommer" "Oppbygning_av_sandbanke_pa_hoyenergi_sokkel"
1659.2 "6407_9-2"  61.3300 "Sandstone" -999.25 -999.25   100.0000      0.0      0.0 "m/c"   "f"       "Sentral_del_av_sokkelsand-banke,_sand_trolig_tilfort_vod_stormer_eller_avboyning_av_kyststrommer" "Oppbygning_av_sandbanke_pa_hoyenergi_sokkel"
1659.3 "6407_9-2"  62.0200 "Sandstone" -999.25 -999.25   100.0000      0.0      0.0 "m/c"   "f"       "Sentral_del_av_sokkelsand-banke,_sand_trolig_tilfort_vod_stormer_eller_avboyning_av_kyststrommer" "Oppbygning_av_sandbanke_pa_hoyenergi_sokkel"
1659.4 "6407_9-2"  61.8600 "Sandstone" -999.25 -999.25   100.0000      0.0      0.0 "m/c"   "f"       "Sentral_del_av_sokkelsand-banke,_sand_trolig_tilfort_vod_stormer_eller_avboyning_av_kyststrommer" "Oppbygning_av_sandbanke_pa_hoyenergi_sokkel"
1659.5 "6407_9-2"  61.7000 "Sandstone" -999.25 -999.25   100.0000      0.0      0.0 "m/c"   "f"       "Sentral_del_av_sokkelsand-banke,_sand_trolig_tilfort_vod_stormer_eller_avboyning_av_kyststrommer" "Oppbygning_av_sandbanke_pa_hoyenergi_sokkel"
1659.6 "6407_9-2"  61.5400 "Sandstone" -999.25 -999.25   100.0000      0.0      0.0 "m/c"   "f"       "Sentral_del_av_sokkelsand-banke,_sand_trolig_tilfort_vod_stormer_eller_avboyning_av_kyststrommer" "Oppbygning_av_sandbanke_pa_hoyenergi_sokkel"
1659.7 "6407_9-2"  61.3800 "Sandstone" -999.25 -999.25   100.0000      0.0      0.0 "m/c"   "f"       "Sentral_del_av_sokkelsand-banke,_sand_trolig_tilfort_vod_stormer_eller_avboyning_av_kyststrommer" "Oppbygning_av_sandbanke_pa_hoyenergi_sokkel"
1659.8 "6407_9-2"  61.2300 "Sandstone" -999.25 -999.25   100.0000      0.0      0.0 "m/c"   "f"       "Sentral_del_av_sokkelsand-banke,_sand_trolig_tilfort_vod_stormer_eller_avboyning_av_kyststrommer" "Oppbygning_av_sandbanke_pa_hoyenergi_sokkel"
1659.9 "6407_9-2"  61.0700 "Sandstone" -999.25 -999.25   100.0000      0.0      0.0 "m/c"   "f"       "Sentral_del_av_sokkelsand-banke,_sand_trolig_tilfort_vod_stormer_eller_avboyning_av_kyststrommer" "Oppbygning_av_sandbanke_pa_hoyenergi_sokkel"
1660.0 "6407_9-2"  60.9100 "Sandstone" -999.25 -999.25   100.0000      0.0      0.0 "m/c"   "f"       "Sentral_del_av_sokkelsand-banke,_sand_trolig_tilfort_vod_stormer_eller_avboyning_av_kyststrommer" "Oppbygning_av_sandbanke_pa_hoyenergi_sokkel"
