~Version
VERS  .                                 3.0 : CWLS LAS ASCII Standard - Version 3.0
WRAP  . NO                                  : One line per depth step
DLM   . SPACE                               : Column data section delimiter
SOURCE. Converted to LAS by Log Studio 4.76 : GeoProvider

~Well
STRT.         1653.5 : Start depth
STOP.         1706.2 : Stop depth
STEP.              1 : Step
NULL.        -999.25 : No-value
COMP.                : Company
WELL. 6407/9-2       : Well
FLD .                : Field
LOC .                : Location
LATI.                : Latitude
LONG.                : Longitude
GDAT.                : Geodetic datum
CNTY.                : County
STAT.                : State
CTRY.                : Country
SRVC. GeoProvider AS : Service company
DATE.                : Date
API .                : API number
RUN .                : Run number

~Parameters
WellboreName.  : Wellbore name
RigName     .  : Rig name
StartDate   .  : Start date

~Curves
DEPTH.m            .  : null {F}Depth mMD
Hole_ID.-          .  : null {S}Hole ID
GR.API             .  : null {F}Gamma Ray
Lithology1.-       .  : null {S}Lithology 1
Lithology2.-       .  : null {S}Lithology 2
Lithology3.-       .  : null {S}Lithology 3
Lithology1.%       .  : null {F}Lithology 1 percentage
Lithology2.%       .  : null {F}Lithology 2 percentage
Lithology3.%       .  : null {F}Lithology 3 percentage
Grain_size_Top.-   .  : null {S}Grain size at the top 
Grain_size_Base.-  .  : null {S}Grain size at the bottom
Sub_Environment.-  .  : null {S}Sub Environment
Gross_Environment.-.  : null {S}Gross Environment

~Ascii
# ...
1676.6 "6407_9-2"  72.0200 "Sandstone" "Clay"  -999.25    93.0000  7.00000      0.0 "vf"    "c/vc"    "Marginale_deler_av_sokkelsand-banke,_stormdominert"                                             "Oppbygning_av_sandbanke_pa_hoyenergi_sokkel"
1676.7 "6407_9-2"  71.5400 "Sandstone" "Clay"  -999.25    93.0000  7.00000      0.0 "vf"    "c/vc"    "Marginale_deler_av_sokkelsand-banke,_stormdominert"                                             "Oppbygning_av_sandbanke_pa_hoyenergi_sokkel"
1676.8 "6407_9-2"  69.6100 "Sandstone" "Clay"  -999.25    93.0000  7.00000      0.0 "vf"    "c/vc"    "Marginale_deler_av_sokkelsand-banke,_stormdominert"                                             "Oppbygning_av_sandbanke_pa_hoyenergi_sokkel"
1676.9 "6407_9-2"  67.6700 "Sandstone" "Clay"  -999.25    93.0000  7.00000      0.0 "vf"    "c/vc"    "Marginale_deler_av_sokkelsand-banke,_stormdominert"                                             "Oppbygning_av_sandbanke_pa_hoyenergi_sokkel"
1677.0 "6407_9-2"  66.6200 "Sandstone" "Clay"  -999.25    93.0000  7.00000      0.0 "vf"    "c/vc"    "Marginale_deler_av_sokkelsand-banke,_stormdominert"                                             "Oppbygning_av_sandbanke_pa_hoyenergi_sokkel"
1677.1 "6407_9-2"  66.5300 "Sandstone" "Clay"  -999.25    93.0000  7.00000      0.0 "vf"    "c/vc"    "Marginale_deler_av_sokkelsand-banke,_stormdominert"                                             "Oppbygning_av_sandbanke_pa_hoyenergi_sokkel"
1677.2 "6407_9-2"  66.4800 "Sandstone" "Clay"  -999.25    93.0000  7.00000      0.0 "vf"    "c/vc"    "Marginale_deler_av_sokkelsand-banke,_stormdominert"                                             "Oppbygning_av_sandbanke_pa_hoyenergi_sokkel"
1677.3 "6407_9-2"  67.4100 "Sandstone" "Clay"  -999.25    93.0000  7.00000      0.0 "vf"    "c/vc"    "Marginale_deler_av_sokkelsand-banke,_stormdominert"                                             "Oppbygning_av_sandbanke_pa_hoyenergi_sokkel"
1677.4 "6407_9-2"  68.3400 "Sandstone" "Clay"  -999.25    93.0000  7.00000      0.0 "vf"    "c/vc"    "Marginale_deler_av_sokkelsand-banke,_stormdominert"                                             "Oppbygning_av_sandbanke_pa_hoyenergi_sokkel"
1677.5 "6407_9-2"  69.2700 "Sandstone" "Clay"  -999.25    93.0000  7.00000      0.0 "vf"    "c/vc"    "Marginale_deler_av_sokkelsand-banke,_stormdominert"                                             "Oppbygning_av_sandbanke_pa_hoyenergi_sokkel"
1677.6 "6407_9-2"  70.2000 "Sandstone" "Clay"  -999.25    93.0000  7.00000      0.0 "vf"    "c/vc"    "Marginale_deler_av_sokkelsand-banke,_stormdominert"                                             "Oppbygning_av_sandbanke_pa_hoyenergi_sokkel"
1677.7 "6407_9-2"  71.1200 "Sandstone" "Clay"  -999.25    93.0000  7.00000      0.0 "vf"    "c/vc"    "Marginale_deler_av_sokkelsand-banke,_stormdominert"                                             "Oppbygning_av_sandbanke_pa_hoyenergi_sokkel"
1677.8 "6407_9-2"  72.0500 "Sandstone" "Clay"  -999.25    93.0000  7.00000      0.0 "vf"    "c/vc"    "Marginale_deler_av_sokkelsand-banke,_stormdominert"                                             "Oppbygning_av_sandbanke_pa_hoyenergi_sokkel"
1677.9 "6407_9-2"  72.9800 "Sandstone" "Clay"  -999.25    93.0000  7.00000      0.0 "vf"    "c/vc"    "Marginale_deler_av_sokkelsand-banke,_stormdominert"                                             "Oppbygning_av_sandbanke_pa_hoyenergi_sokkel"
1678.0 "6407_9-2"  73.9100 "Sandstone" "Clay"  -999.25    93.0000  7.00000      0.0 "vf"    "c/vc"    "Marginale_deler_av_sokkelsand-banke,_stormdominert"                                             "Oppbygning_av_sandbanke_pa_hoyenergi_sokkel"
1678.1 "6407_9-2"  74.8400 "Limestone" "Clay"  -999.25    90.0000 10.00000      0.0 "f"     "f"       "Marginale_deler_av_sokkelsand-banke,_stormdominert"                                             "Oppbygning_av_sandbanke_pa_hoyenergi_sokkel"
1678.2 "6407_9-2"  74.7300 "Limestone" "Clay"  -999.25    90.0000 10.00000      0.0 "f"     "f"       "Marginale_deler_av_sokkelsand-banke,_stormdominert"                                             "Oppbygning_av_sandbanke_pa_hoyenergi_sokkel"
1678.3 "6407_9-2"  73.8200 "Limestone" "Clay"  -999.25    90.0000 10.00000      0.0 "f"     "f"       "Marginale_deler_av_sokkelsand-banke,_stormdominert"                                             "Oppbygning_av_sandbanke_pa_hoyenergi_sokkel"
1678.4 "6407_9-2"  72.9200 "Limestone" "Clay"  -999.25    90.0000 10.00000      0.0 "f"     "f"       "Marginale_deler_av_sokkelsand-banke,_stormdominert"                                             "Oppbygning_av_sandbanke_pa_hoyenergi_sokkel"
1678.5 "6407_9-2"  72.2400 "Limestone" "Clay"  -999.25    90.0000 10.00000      0.0 "f"     "f"       "Marginale_deler_av_sokkelsand-banke,_stormdominert"                                             "Oppbygning_av_sandbanke_pa_hoyenergi_sokkel"
1678.6 "6407_9-2"  72.0100 "Limestone" "Clay"  -999.25    90.0000 10.00000      0.0 "f"     "f"       "Marginale_deler_av_sokkelsand-banke,_stormdominert"                                             "Oppbygning_av_sandbanke_pa_hoyenergi_sokkel"
1678.7 "6407_9-2"  71.7800 "Limestone" "Clay"  -999.25    90.0000 10.00000      0.0 "f"     "f"       "Marginale_deler_av_sokkelsand-banke,_stormdominert"                                             "Oppbygning_av_sandbanke_pa_hoyenergi_sokkel"
1678.8 "6407_9-2"  71.5500 "Limestone" "Clay"  -999.25    90.0000 10.00000      0.0 "f"     "f"       "Marginale_deler_av_sokkelsand-banke,_stormdominert"                                             "Oppbygning_av_sandbanke_pa_hoyenergi_sokkel"
1678.9 "6407_9-2"  71.3300 "Limestone" "Clay"  -999.25    90.0000 10.00000      0.0 "f"     "f"       "Marginale_deler_av_sokkelsand-banke,_stormdominert"                                             "Oppbygning_av_sandbanke_pa_hoyenergi_sokkel"
1679.0 "6407_9-2"  71.3200 "Sandstone" "Clay"  -999.25    80.0000 20.00000      0.0 "f"     "vf"      "Marginale_deler_av_sokkelsand-banke,_stormdominert"                                             "Oppbygning_av_sandbanke_pa_hoyenergi_sokkel"
1679.1 "6407_9-2"  71.4100 "Sandstone" "Clay"  -999.25    80.0000 20.00000      0.0 "f"     "vf"      "Marginale_deler_av_sokkelsand-banke,_stormdominert"                                             "Oppbygning_av_sandbanke_pa_hoyenergi_sokkel"
1679.2 "6407_9-2"  71.5000 "Sandstone" "Clay"  -999.25    80.0000 20.00000      0.0 "f"     "vf"      "Marginale_deler_av_sokkelsand-banke,_stormdominert"                                             "Oppbygning_av_sandbanke_pa_hoyenergi_sokkel"
1679.3 "6407_9-2"  71.5900 "Sandstone" "Clay"  -999.25    80.0000 20.00000      0.0 "f"     "vf"      "Marginale_deler_av_sokkelsand-banke,_stormdominert"                                             "Oppbygning_av_sandbanke_pa_hoyenergi_sokkel"
1679.4 "6407_9-2"  71.6800 "Sandstone" "Clay"  -999.25    80.0000 20.00000      0.0 "f"     "vf"      "Marginale_deler_av_sokkelsand-banke,_stormdominert"                                             "Oppbygning_av_sandbanke_pa_hoyenergi_sokkel"
1679.5 "6407_9-2"  71.7700 "Sandstone" "Clay"  -999.25    80.0000 20.00000      0.0 "f"     "vf"      "Marginale_deler_av_sokkelsand-banke,_stormdominert"                                             "Oppbygning_av_sandbanke_pa_hoyenergi_sokkel"
1679.6 "6407_9-2"  71.8600 "Sandstone" "Clay"  -999.25    80.0000 20.00000      0.0 "f"     "vf"      "Marginale_deler_av_sokkelsand-banke,_stormdominert"                                             "Oppbygning_av_sandbanke_pa_hoyenergi_sokkel"
1679.7 "6407_9-2"  71.9400 "Sandstone" "Clay"  -999.25    80.0000 20.00000      0.0 "f"     "vf"      "Marginale_deler_av_sokkelsand-banke,_stormdominert"                                             "Oppbygning_av_sandbanke_pa_hoyenergi_sokkel"
1679.8 "6407_9-2"  72.0300 "Sandstone" "Clay"  -999.25    80.0000 20.00000      0.0 "f"     "vf"      "Marginale_deler_av_sokkelsand-banke,_stormdominert"                                             "Oppbygning_av_sandbanke_pa_hoyenergi_sokkel"
