~Version
VERS  .                                 3.0 : CWLS LAS ASCII Standard - Version 3.0
WRAP  . NO                                  : One line per depth step
DLM   . SPACE                               : Column data section delimiter
SOURCE. Converted to LAS by Log Studio 4.76 : GeoProvider

~Well
STRT.         1653.5 : Start depth
STOP.         1706.2 : Stop depth
STEP.              1 : Step
NULL.        -999.25 : No-value
COMP.                : Company
WELL. 6407/9-2       : Well
FLD .                : Field
LOC .                : Location
LATI.                : Latitude
LONG.                : Longitude
GDAT.                : Geodetic datum
CNTY.                : County
STAT.                : State
CTRY.                : Country
SRVC. GeoProvider AS : Service company
DATE.                : Date
API .                : API number
RUN .                : Run number

~Parameters
WellboreName.  : Wellbore name
RigName     .  : Rig name
StartDate   .  : Start date

~Curves
DEPTH.m            .  : null {F}Depth mMD
Hole_ID.-          .  : null {S}Hole ID
GR.API             .  : null {F}Gamma Ray
Lithology1.-       .  : null {S}Lithology 1
Lithology2.-       .  : null {S}Lithology 2
Lithology3.-       .  : null {S}Lithology 3
Lithology1.%       .  : null {F}Lithology 1 percentage
Lithology2.%       .  : null {F}Lithology 2 percentage
Lithology3.%       .  : null {F}Lithology 3 percentage
Grain_size_Top.-   .  : null {S}Grain size at the top 
Grain_size_Base.-  .  : null {S}Grain size at the bottom
Sub_Environment.-  .  : null {S}Sub Environment
Gross_Environment.-.  : null {S}Gross Environment

~Ascii
# ...
1663.4 "6407_9-2"  63.2700 "Sandstone" -999.25 -999.25   100.0000      0.0      0.0 "m/c"   "f"       "Sentral_del_av_sokkelsand-banke,_sand_trolig_tilfort_vod_stormer_eller_avboyning_av_kyststrommer" "Oppbygning_av_sandbanke_pa_hoyenergi_sokkel"
1663.5 "6407_9-2"  62.7600 "Sandstone" -999.25 -999.25   100.0000      0.0      0.0 "m/c"   "f"       "Sentral_del_av_sokkelsand-banke,_sand_trolig_tilfort_vod_stormer_eller_avboyning_av_kyststrommer" "Oppbygning_av_sandbanke_pa_hoyenergi_sokkel"
1663.6 "6407_9-2"  62.0500 "Sandstone" -999.25 -999.25   100.0000      0.0      0.0 "m/c"   "f"       "Sentral_del_av_sokkelsand-banke,_sand_trolig_tilfort_vod_stormer_eller_avboyning_av_kyststrommer" "Oppbygning_av_sandbanke_pa_hoyenergi_sokkel"
1663.7 "6407_9-2"  61.3500 "Sandstone" -999.25 -999.25   100.0000      0.0      0.0 "m/c"   "f"       "Sentral_del_av_sokkelsand-banke,_sand_trolig_tilfort_vod_stormer_eller_avboyning_av_kyststrommer" "Oppbygning_av_sandbanke_pa_hoyenergi_sokkel"
1663.8 "6407_9-2"  61.3600 "Sandstone" -999.25 -999.25   100.0000      0.0      0.0 "m/c"   "f"       "Sentral_del_av_sokkelsand-banke,_sand_trolig_tilfort_vod_stormer_eller_avboyning_av_kyststrommer" "Oppbygning_av_sandbanke_pa_hoyenergi_sokkel"
1663.9 "6407_9-2"  61.5500 "Sandstone" -999.25 -999.25   100.0000      0.0      0.0 "m/c"   "f"       "Sentral_del_av_sokkelsand-banke,_sand_trolig_tilfort_vod_stormer_eller_avboyning_av_kyststrommer" "Oppbygning_av_sandbanke_pa_hoyenergi_sokkel"
1664.0 "6407_9-2"  61.7300 "Sandstone" -999.25 -999.25   100.0000      0.0      0.0 "m/c"   "f"       "Sentral_del_av_sokkelsand-banke,_sand_trolig_tilfort_vod_stormer_eller_avboyning_av_kyststrommer" "Oppbygning_av_sandbanke_pa_hoyenergi_sokkel"
1664.1 "6407_9-2"  61.9200 "Sandstone" -999.25 -999.25   100.0000      0.0      0.0 "m/c"   "f"       "Sentral_del_av_sokkelsand-banke,_sand_trolig_tilfort_vod_stormer_eller_avboyning_av_kyststrommer" "Oppbygning_av_sandbanke_pa_hoyenergi_sokkel"
1664.2 "6407_9-2"  62.1000 "Sandstone" -999.25 -999.25   100.0000      0.0      0.0 "m/c"   "f"       "Sentral_del_av_sokkelsand-banke,_sand_trolig_tilfort_vod_stormer_eller_avboyning_av_kyststrommer" "Oppbygning_av_sandbanke_pa_hoyenergi_sokkel"
1664.3 "6407_9-2"  62.2800 "Sandstone" -999.25 -999.25   100.0000      0.0      0.0 "m/c"   "f"       "Sentral_del_av_sokkelsand-banke,_sand_trolig_tilfort_vod_stormer_eller_avboyning_av_kyststrommer" "Oppbygning_av_sandbanke_pa_hoyenergi_sokkel"
1664.4 "6407_9-2"  62.4100 "Sandstone" -999.25 -999.25   100.0000      0.0      0.0 "m/c"   "f"       "Sentral_del_av_sokkelsand-banke,_sand_trolig_tilfort_vod_stormer_eller_avboyning_av_kyststrommer" "Oppbygning_av_sandbanke_pa_hoyenergi_sokkel"
1664.5 "6407_9-2"  62.5700 "Sandstone" -999.25 -999.25   100.0000      0.0      0.0 "m/c"   "f"       "Sentral_del_av_sokkelsand-banke,_sand_trolig_tilfort_vod_stormer_eller_avboyning_av_kyststrommer" "Oppbygning_av_sandbanke_pa_hoyenergi_sokkel"
1664.6 "6407_9-2"  62.5000 "Sandstone" -999.25 -999.25   100.0000      0.0      0.0 "m/c"   "f"       "Sentral_del_av_sokkelsand-banke,_sand_trolig_tilfort_vod_stormer_eller_avboyning_av_kyststrommer" "Oppbygning_av_sandbanke_pa_hoyenergi_sokkel"
1664.7 "6407_9-2"  62.0700 "Sandstone" -999.25 -999.25   100.0000      0.0      0.0 "m/c"   "f"       "Sentral_del_av_sokkelsand-banke,_sand_trolig_tilfort_vod_stormer_eller_avboyning_av_kyststrommer" "Oppbygning_av_sandbanke_pa_hoyenergi_sokkel"
1664.8 "6407_9-2"  61.6400 "Sandstone" -999.25 -999.25   100.0000      0.0      0.0 "m/c"   "f"       "Sentral_del_av_sokkelsand-banke,_sand_trolig_tilfort_vod_stormer_eller_avboyning_av_kyststrommer" "Oppbygning_av_sandbanke_pa_hoyenergi_sokkel"
1664.9 "6407_9-2"  61.6300 "Sandstone" -999.25 -999.25   100.0000      0.0      0.0 "m/c"   "f"       "Sentral_del_av_sokkelsand-banke,_sand_trolig_tilfort_vod_stormer_eller_avboyning_av_kyststrommer" "Oppbygning_av_sandbanke_pa_hoyenergi_sokkel"
1665.0 "6407_9-2"  61.6300 "Sandstone" -999.25 -999.25   100.0000      0.0      0.0 "m/c"   "f"       "Sentral_del_av_sokkelsand-banke,_sand_trolig_tilfort_vod_stormer_eller_avboyning_av_kyststrommer" "Oppbygning_av_sandbanke_pa_hoyenergi_sokkel"
1665.1 "6407_9-2"  61.6300 "Sandstone" -999.25 -999.25   100.0000      0.0      0.0 "m/c"   "f"       "Sentral_del_av_sokkelsand-banke,_sand_trolig_tilfort_vod_stormer_eller_avboyning_av_kyststrommer" "Oppbygning_av_sandbanke_pa_hoyenergi_sokkel"
1665.2 "6407_9-2"  61.6300 "Sandstone" -999.25 -999.25   100.0000      0.0      0.0 "m/c"   "f"       "Sentral_del_av_sokkelsand-banke,_sand_trolig_tilfort_vod_stormer_eller_avboyning_av_kyststrommer" "Oppbygning_av_sandbanke_pa_hoyenergi_sokkel"
1665.3 "6407_9-2"  61.7900 "Sandstone" -999.25 -999.25   100.0000      0.0      0.0 "m/c"   "f"       "Sentral_del_av_sokkelsand-banke,_sand_trolig_tilfort_vod_stormer_eller_avboyning_av_kyststrommer" "Oppbygning_av_sandbanke_pa_hoyenergi_sokkel"
1665.4 "6407_9-2"  62.2200 "Sandstone" -999.25 -999.25   100.0000      0.0      0.0 "m/c"   "f"       "Sentral_del_av_sokkelsand-banke,_sand_trolig_tilfort_vod_stormer_eller_avboyning_av_kyststrommer" "Oppbygning_av_sandbanke_pa_hoyenergi_sokkel"
1665.5 "6407_9-2"  62.6400 "Sandstone" -999.25 -999.25   100.0000      0.0      0.0 "m/c"   "f"       "Sentral_del_av_sokkelsand-banke,_sand_trolig_tilfort_vod_stormer_eller_avboyning_av_kyststrommer" "Oppbygning_av_sandbanke_pa_hoyenergi_sokkel"
1665.6 "6407_9-2"  62.7600 "Sandstone" -999.25 -999.25   100.0000      0.0      0.0 "m/c"   "f"       "Sentral_del_av_sokkelsand-banke,_sand_trolig_tilfort_vod_stormer_eller_avboyning_av_kyststrommer" "Oppbygning_av_sandbanke_pa_hoyenergi_sokkel"
1665.7 "6407_9-2"  62.4300 "Sandstone" -999.25 -999.25   100.0000      0.0      0.0 "m/c"   "f"       "Sentral_del_av_sokkelsand-banke,_sand_trolig_tilfort_vod_stormer_eller_avboyning_av_kyststrommer" "Oppbygning_av_sandbanke_pa_hoyenergi_sokkel"
1665.8 "6407_9-2"  62.1000 "Sandstone" -999.25 -999.25   100.0000      0.0      0.0 "m/c"   "f"       "Sentral_del_av_sokkelsand-banke,_sand_trolig_tilfort_vod_stormer_eller_avboyning_av_kyststrommer" "Oppbygning_av_sandbanke_pa_hoyenergi_sokkel"
1665.9 "6407_9-2"  61.7800 "Sandstone" -999.25 -999.25   100.0000      0.0      0.0 "m/c"   "f"       "Sentral_del_av_sokkelsand-banke,_sand_trolig_tilfort_vod_stormer_eller_avboyning_av_kyststrommer" "Oppbygning_av_sandbanke_pa_hoyenergi_sokkel"
1666.0 "6407_9-2"  61.4500 "Sandstone" -999.25 -999.25   100.0000      0.0      0.0 "m/c"   "f"       "Sentral_del_av_sokkelsand-banke,_sand_trolig_tilfort_vod_stormer_eller_avboyning_av_kyststrommer" "Oppbygning_av_sandbanke_pa_hoyenergi_sokkel"
1666.1 "6407_9-2"  61.1200 "Sandstone" -999.25 -999.25   100.0000      0.0      0.0 "m/c"   "f"       "Sentral_del_av_sokkelsand-banke,_sand_trolig_tilfort_vod_stormer_eller_avboyning_av_kyststrommer" "Oppbygning_av_sandbanke_pa_hoyenergi_sokkel"
1666.2 "6407_9-2"  60.7900 "Sandstone" -999.25 -999.25   100.0000      0.0      0.0 "m/c"   "f"       "Sentral_del_av_sokkelsand-banke,_sand_trolig_tilfort_vod_stormer_eller_avboyning_av_kyststrommer" "Oppbygning_av_sandbanke_pa_hoyenergi_sokkel"
1666.3 "6407_9-2"  60.7100 "Sandstone" -999.25 -999.25   100.0000      0.0      0.0 "m/c"   "f"       "Sentral_del_av_sokkelsand-banke,_sand_trolig_tilfort_vod_stormer_eller_avboyning_av_kyststrommer" "Oppbygning_av_sandbanke_pa_hoyenergi_sokkel"
1666.4 "6407_9-2"  61.0400 "Sandstone" -999.25 -999.25   100.0000      0.0      0.0 "m/c"   "f"       "Sentral_del_av_sokkelsand-banke,_sand_trolig_tilfort_vod_stormer_eller_avboyning_av_kyststrommer" "Oppbygning_av_sandbanke_pa_hoyenergi_sokkel"
1666.5 "6407_9-2"  61.3700 "Sandstone" -999.25 -999.25   100.0000      0.0      0.0 "m/c"   "f"       "Sentral_del_av_sokkelsand-banke,_sand_trolig_tilfort_vod_stormer_eller_avboyning_av_kyststrommer" "Oppbygning_av_sandbanke_pa_hoyenergi_sokkel"
1666.6 "6407_9-2"  61.7000 "Sandstone" -999.25 -999.25   100.0000      0.0      0.0 "m/c"   "f"       "Sentral_del_av_sokkelsand-banke,_sand_trolig_tilfort_vod_stormer_eller_avboyning_av_kyststrommer" "Oppbygning_av_sandbanke_pa_hoyenergi_sokkel"
