~Version
VERS  .                                 3.0 : CWLS LAS ASCII Standard - Version 3.0
WRAP  . NO                                  : One line per depth step
DLM   . SPACE                               : Column data section delimiter
SOURCE. Converted to LAS by Log Studio 4.76 : GeoProvider

~Well
STRT.         1653.5 : Start depth
STOP.         1706.2 : Stop depth
STEP.              1 : Step
NULL.        -999.25 : No-value
COMP.                : Company
WELL. 6407/9-2       : Well
FLD .                : Field
LOC .                : Location
LATI.                : Latitude
LONG.                : Longitude
GDAT.                : Geodetic datum
CNTY.                : County
STAT.                : State
CTRY.                : Country
SRVC. GeoProvider AS : Service company
DATE.                : Date
API .                : API number
RUN .                : Run number

~Parameters
WellboreName.  : Wellbore name
RigName     .  : Rig name
StartDate   .  : Start date

~Curves
DEPTH.m            .  : null {F}Depth mMD
Hole_ID.-          .  : null {S}Hole ID
GR.API             .  : null {F}Gamma Ray
Lithology1.-       .  : null {S}Lithology 1
Lithology2.-       .  : null {S}Lithology 2
Lithology3.-       .  : null {S}Lithology 3
Lithology1.%       .  : null {F}Lithology 1 percentage
Lithology2.%       .  : null {F}Lithology 2 percentage
Lithology3.%       .  : null {F}Lithology 3 percentage
Grain_size_Top.-   .  : null {S}Grain size at the top 
Grain_size_Base.-  .  : null {S}Grain size at the bottom
Sub_Environment.-  .  : null {S}Sub Environment
Gross_Environment.-.  : null {S}Gross Environment

~Ascii
# ...
1699.7 "6407_9-2" 151.2100 -999.25   -999.25 -999.25   100.0000      0.0      0.0 -999.25 -999.25   -999.25                                                                                          "Oppbygning_av_sandbanke_pa_hoyenergi_sokkel"
1699.8 "6407_9-2" 155.7700 -999.25   -999.25 -999.25   100.0000      0.0      0.0 -999.25 -999.25   -999.25                                                                                          "Oppbygning_av_sandbanke_pa_hoyenergi_sokkel"
1699.9 "6407_9-2" 160.3300 -999.25   -999.25 -999.25   100.0000      0.0      0.0 -999.25 -999.25   -999.25                                                                                          "Oppbygning_av_sandbanke_pa_hoyenergi_sokkel"
1700.0 "6407_9-2" 160.6300 -999.25   -999.25 -999.25   100.0000      0.0      0.0 -999.25 -999.25   -999.25                                                                                          "Oppbygning_av_sandbanke_pa_hoyenergi_sokkel"
1700.1 "6407_9-2" 159.1700 -999.25   -999.25 -999.25   100.0000      0.0      0.0 -999.25 -999.25   -999.25                                                                                          "Oppbygning_av_sandbanke_pa_hoyenergi_sokkel"
1700.2 "6407_9-2" 154.1600 -999.25   -999.25 -999.25   100.0000      0.0      0.0 -999.25 -999.25   -999.25                                                                                          "Oppbygning_av_sandbanke_pa_hoyenergi_sokkel"
1700.3 "6407_9-2" 148.4000 -999.25   -999.25 -999.25   100.0000      0.0      0.0 -999.25 -999.25   -999.25                                                                                          "Oppbygning_av_sandbanke_pa_hoyenergi_sokkel"
1700.4 "6407_9-2" 143.1800 -999.25   -999.25 -999.25   100.0000      0.0      0.0 -999.25 -999.25   -999.25                                                                                          "Oppbygning_av_sandbanke_pa_hoyenergi_sokkel"
1700.5 "6407_9-2" 138.8000 -999.25   -999.25 -999.25   100.0000      0.0      0.0 -999.25 -999.25   -999.25                                                                                          "Oppbygning_av_sandbanke_pa_hoyenergi_sokkel"
1700.6 "6407_9-2" 137.2500 -999.25   -999.25 -999.25   100.0000      0.0      0.0 -999.25 -999.25   -999.25                                                                                          "Oppbygning_av_sandbanke_pa_hoyenergi_sokkel"
1700.7 "6407_9-2" 136.5700 -999.25   -999.25 -999.25   100.0000      0.0      0.0 -999.25 -999.25   -999.25                                                                                          "Oppbygning_av_sandbanke_pa_hoyenergi_sokkel"
1700.8 "6407_9-2" 135.8800 -999.25   -999.25 -999.25   100.0000      0.0      0.0 -999.25 -999.25   -999.25                                                                                          "Oppbygning_av_sandbanke_pa_hoyenergi_sokkel"
1700.9 "6407_9-2" 135.2000 -999.25   -999.25 -999.25   100.0000      0.0      0.0 -999.25 -999.25   -999.25                                                                                          "Oppbygning_av_sandbanke_pa_hoyenergi_sokkel"
1701.0 "6407_9-2" 133.6800 -999.25   -999.25 -999.25   100.0000      0.0      0.0 -999.25 -999.25   -999.25                                                                                          "Oppbygning_av_sandbanke_pa_hoyenergi_sokkel"
1701.1 "6407_9-2" 127.9300 -999.25   -999.25 -999.25   100.0000      0.0      0.0 -999.25 -999.25   -999.25                                                                                          "Oppbygning_av_sandbanke_pa_hoyenergi_sokkel"
1701.2 "6407_9-2" 122.5900 -999.25   -999.25 -999.25   100.0000      0.0      0.0 -999.25 -999.25   -999.25                                                                                          "Oppbygning_av_sandbanke_pa_hoyenergi_sokkel"
1701.3 "6407_9-2" 118.3400 -999.25   -999.25 -999.25   100.0000      0.0      0.0 -999.25 -999.25   -999.25                                                                                          "Oppbygning_av_sandbanke_pa_hoyenergi_sokkel"
1701.4 "6407_9-2" 114.0900 -999.25   -999.25 -999.25   100.0000      0.0      0.0 -999.25 -999.25   -999.25                                                                                          "Oppbygning_av_sandbanke_pa_hoyenergi_sokkel"
1701.5 "6407_9-2" 109.8300 -999.25   -999.25 -999.25   100.0000      0.0      0.0 -999.25 -999.25   -999.25                                                                                          "Oppbygning_av_sandbanke_pa_hoyenergi_sokkel"
1701.6 "6407_9-2" 105.5800 -999.25   -999.25 -999.25   100.0000      0.0      0.0 -999.25 -999.25   -999.25                                                                                          "Oppbygning_av_sandbanke_pa_hoyenergi_sokkel"
1701.7 "6407_9-2" 101.3200 -999.25   -999.25 -999.25   100.0000      0.0      0.0 -999.25 -999.25   -999.25                                                                                          "Oppbygning_av_sandbanke_pa_hoyenergi_sokkel"
1701.8 "6407_9-2" 100.3900 -999.25   -999.25 -999.25   100.0000      0.0      0.0 -999.25 -999.25   -999.25                                                                                          "Oppbygning_av_sandbanke_pa_hoyenergi_sokkel"
1701.9 "6407_9-2"  98.2900 -999.25   -999.25 -999.25   100.0000      0.0      0.0 -999.25 -999.25   -999.25                                                                                          "Oppbygning_av_sandbanke_pa_hoyenergi_sokkel"
1702.0 "6407_9-2"  96.8900 -999.25   -999.25 -999.25   100.0000      0.0      0.0 -999.25 -999.25   "Apen_marin_sokkel"                                                                              "Apen_marin_sokkel"                        
1702.1 "6407_9-2"  94.5100 "Limestone" "Clay"  "Sandstone"  45.0000 45.00000 10.00000 "vf/f"  "clay/silt" "Apen_marin_sokkel"                                                                              "Apen_marin_sokkel"                        
1702.2 "6407_9-2"  90.2600 "Limestone" "Clay"  "Sandstone"  45.0000 45.00000 10.00000 "vf/f"  "clay/silt" "Apen_marin_sokkel"                                                                              "Apen_marin_sokkel"                        
1702.3 "6407_9-2"  86.0000 "Limestone" "Clay"  "Sandstone"  45.0000 45.00000 10.00000 "vf/f"  "clay/silt" "Apen_marin_sokkel"                                                                              "Apen_marin_sokkel"                        
1702.4 "6407_9-2"  81.7500 "Limestone" "Clay"  "Sandstone"  45.0000 45.00000 10.00000 "vf/f"  "clay/silt" "Apen_marin_sokkel"                                                                              "Apen_marin_sokkel"                        
1702.5 "6407_9-2"  78.7000 "Limestone" "Clay"  "Sandstone"  45.0000 45.00000 10.00000 "vf/f"  "clay/silt" "Apen_marin_sokkel"                                                                              "Apen_marin_sokkel"                        
1702.6 "6407_9-2"  76.6400 "Limestone" "Clay"  "Sandstone"  45.0000 45.00000 10.00000 "vf/f"  "clay/silt" "Apen_marin_sokkel"                                                                              "Apen_marin_sokkel"                        
1702.7 "6407_9-2"  76.1600 "Limestone" "Clay"  "Sandstone"  45.0000 45.00000 10.00000 "vf/f"  "clay/silt" "Apen_marin_sokkel"                                                                              "Apen_marin_sokkel"                        
1702.8 "6407_9-2"  75.7900 "Limestone" "Clay"  "Sandstone"  45.0000 45.00000 10.00000 "vf/f"  "clay/silt" "Apen_marin_sokkel"                                                                              "Apen_marin_sokkel"                        
1702.9 "6407_9-2"  75.4300 "Limestone" "Clay"  "Sandstone"  45.0000 45.00000 10.00000 "vf/f"  "clay/silt" "Marin_''hardground''"                                                                           "Marin_''hardground''"                     
