~Version
VERS  .                                 3.0 : CWLS LAS ASCII Standard - Version 3.0
WRAP  . NO                                  : One line per depth step
DLM   . SPACE                               : Column data section delimiter
SOURCE. Converted to LAS by Log Studio 4.76 : GeoProvider

~Well
STRT.         1653.5 : Start depth
STOP.         1706.2 : Stop depth
STEP.              1 : Step
NULL.        -999.25 : No-value
COMP.                : Company
WELL. 6407/9-2       : Well
FLD .                : Field
LOC .                : Location
LATI.                : Latitude
LONG.                : Longitude
GDAT.                : Geodetic datum
CNTY.                : County
STAT.                : State
CTRY.                : Country
SRVC. GeoProvider AS : Service company
DATE.                : Date
API .                : API number
RUN .                : Run number

~Parameters
WellboreName.  : Wellbore name
RigName     .  : Rig name
StartDate   .  : Start date

~Curves
DEPTH.m            .  : null {F}Depth mMD
Hole_ID.-          .  : null {S}Hole ID
GR.API             .  : null {F}Gamma Ray
Lithology1.-       .  : null {S}Lithology 1
Lithology2.-       .  : null {S}Lithology 2
Lithology3.-       .  : null {S}Lithology 3
Lithology1.%       .  : null {F}Lithology 1 percentage
Lithology2.%       .  : null {F}Lithology 2 percentage
Lithology3.%       .  : null {F}Lithology 3 percentage
Grain_size_Top.-   .  : null {S}Grain size at the top 
Grain_size_Base.-  .  : null {S}Grain size at the bottom
Sub_Environment.-  .  : null {S}Sub Environment
Gross_Environment.-.  : null {S}Gross Environment

~Ascii
# ...
1683.2 "6407_9-2"  85.7000 "Sandstone" "Clay"  -999.25    80.0000 20.00000      0.0 "f"     "vf"      "Marginale_deler_av_sokkelsand-banke,_stormdominert"                                             "Oppbygning_av_sandbanke_pa_hoyenergi_sokkel"
1683.3 "6407_9-2"  85.7000 "Sandstone" "Clay"  -999.25    80.0000 20.00000      0.0 "f"     "vf"      "Marginale_deler_av_sokkelsand-banke,_stormdominert"                                             "Oppbygning_av_sandbanke_pa_hoyenergi_sokkel"
1683.4 "6407_9-2"  85.6600 "Sandstone" "Clay"  -999.25    80.0000 20.00000      0.0 "f"     "vf"      "Marginale_deler_av_sokkelsand-banke,_stormdominert"                                             "Oppbygning_av_sandbanke_pa_hoyenergi_sokkel"
1683.5 "6407_9-2"  85.5200 "Sandstone" "Clay"  -999.25    80.0000 20.00000      0.0 "f"     "vf"      "Marginale_deler_av_sokkelsand-banke,_stormdominert"                                             "Oppbygning_av_sandbanke_pa_hoyenergi_sokkel"
1683.6 "6407_9-2"  85.3700 "Sandstone" "Clay"  -999.25    80.0000 20.00000      0.0 "f"     "vf"      "Marginale_deler_av_sokkelsand-banke,_stormdominert"                                             "Oppbygning_av_sandbanke_pa_hoyenergi_sokkel"
1683.7 "6407_9-2"  85.2300 "Sandstone" "Clay"  -999.25    80.0000 20.00000      0.0 "f"     "vf"      "Marginale_deler_av_sokkelsand-banke,_stormdominert"                                             "Oppbygning_av_sandbanke_pa_hoyenergi_sokkel"
1683.8 "6407_9-2"  85.0900 "Sandstone" "Clay"  -999.25    80.0000 20.00000      0.0 "f"     "vf"      "Marginale_deler_av_sokkelsand-banke,_stormdominert"                                             "Oppbygning_av_sandbanke_pa_hoyenergi_sokkel"
1683.9 "6407_9-2"  84.9500 -999.25   -999.25 -999.25   100.0000      0.0      0.0 -999.25 -999.25   "Marginale_deler_av_sokkelsand-banke,_stormdominert"                                             "Oppbygning_av_sandbanke_pa_hoyenergi_sokkel"
1684.0 "6407_9-2"  85.0600 -999.25   -999.25 -999.25   100.0000      0.0      0.0 -999.25 -999.25   "Marginale_deler_av_sokkelsand-banke,_stormdominert"                                             "Oppbygning_av_sandbanke_pa_hoyenergi_sokkel"
1684.1 "6407_9-2"  85.5800 "Sandstone" "Clay"  -999.25    60.0000 40.00000      0.0 "vf"    "vf"      "Marginale_deler_av_sokkelsand-banke,_stormdominert"                                             "Oppbygning_av_sandbanke_pa_hoyenergi_sokkel"
1684.2 "6407_9-2"  86.1000 "Sandstone" "Clay"  -999.25    60.0000 40.00000      0.0 "vf"    "vf"      "Marginale_deler_av_sokkelsand-banke,_stormdominert"                                             "Oppbygning_av_sandbanke_pa_hoyenergi_sokkel"
1684.3 "6407_9-2"  86.6100 "Sandstone" "Clay"  -999.25    60.0000 40.00000      0.0 "vf"    "vf"      "Marginale_deler_av_sokkelsand-banke,_stormdominert"                                             "Oppbygning_av_sandbanke_pa_hoyenergi_sokkel"
1684.4 "6407_9-2"  86.7200 "Sandstone" "Clay"  -999.25    60.0000 40.00000      0.0 "vf"    "vf"      "Marginale_deler_av_sokkelsand-banke,_stormdominert"                                             "Oppbygning_av_sandbanke_pa_hoyenergi_sokkel"
1684.5 "6407_9-2"  85.9900 "Sandstone" "Clay"  -999.25    60.0000 40.00000      0.0 "vf"    "vf"      "Marginale_deler_av_sokkelsand-banke,_stormdominert"                                             "Oppbygning_av_sandbanke_pa_hoyenergi_sokkel"
1684.6 "6407_9-2"  85.2600 "Sandstone" "Clay"  -999.25    60.0000 40.00000      0.0 "vf"    "vf"      "Marginale_deler_av_sokkelsand-banke,_stormdominert"                                             "Oppbygning_av_sandbanke_pa_hoyenergi_sokkel"
1684.7 "6407_9-2"  84.5200 "Sandstone" "Clay"  -999.25    60.0000 40.00000      0.0 "vf"    "vf"      "Marginale_deler_av_sokkelsand-banke,_stormdominert"                                             "Oppbygning_av_sandbanke_pa_hoyenergi_sokkel"
1684.8 "6407_9-2"  83.7900 "Sandstone" "Clay"  -999.25    60.0000 40.00000      0.0 "vf"    "vf"      "Marginale_deler_av_sokkelsand-banke,_stormdominert"                                             "Oppbygning_av_sandbanke_pa_hoyenergi_sokkel"
1684.9 "6407_9-2"  78.4500 "Sandstone" "Clay"  -999.25    60.0000 40.00000      0.0 "vf"    "vf"      "Marginale_deler_av_sokkelsand-banke,_stormdominert"                                             "Oppbygning_av_sandbanke_pa_hoyenergi_sokkel"
1685.0 "6407_9-2"  77.6700 "Sandstone" "Clay"  -999.25    60.0000 40.00000      0.0 "vf"    "vf"      "Marginale_deler_av_sokkelsand-banke,_stormdominert"                                             "Oppbygning_av_sandbanke_pa_hoyenergi_sokkel"
1685.1 "6407_9-2"  76.9200 "Sandstone" "Clay"  -999.25    60.0000 40.00000      0.0 "vf"    "vf"      "Marginale_deler_av_sokkelsand-banke,_stormdominert"                                             "Oppbygning_av_sandbanke_pa_hoyenergi_sokkel"
1685.2 "6407_9-2"  77.4600 "Sandstone" "Clay"  -999.25    60.0000 40.00000      0.0 "vf"    "vf"      "Marginale_deler_av_sokkelsand-banke,_stormdominert"                                             "Oppbygning_av_sandbanke_pa_hoyenergi_sokkel"
1685.3 "6407_9-2"  77.9900 "Sandstone" "Clay"  -999.25    60.0000 40.00000      0.0 "vf"    "vf"      "Marginale_deler_av_sokkelsand-banke,_stormdominert"                                             "Oppbygning_av_sandbanke_pa_hoyenergi_sokkel"
1685.4 "6407_9-2"  78.5300 "Sandstone" "Clay"  -999.25    60.0000 40.00000      0.0 "vf"    "vf"      "Marginale_deler_av_sokkelsand-banke,_stormdominert"                                             "Oppbygning_av_sandbanke_pa_hoyenergi_sokkel"
1685.5 "6407_9-2"  83.8700 "Sandstone" "Clay"  -999.25    60.0000 40.00000      0.0 "vf"    "vf"      "Marginale_deler_av_sokkelsand-banke,_stormdominert"                                             "Oppbygning_av_sandbanke_pa_hoyenergi_sokkel"
1685.6 "6407_9-2"  86.1200 "Sandstone" "Clay"  -999.25    60.0000 40.00000      0.0 "vf"    "vf"      "Marginale_deler_av_sokkelsand-banke,_stormdominert"                                             "Oppbygning_av_sandbanke_pa_hoyenergi_sokkel"
1685.7 "6407_9-2"  86.1200 "Sandstone" "Clay"  -999.25    60.0000 40.00000      0.0 "vf"    "vf"      "Marginale_deler_av_sokkelsand-banke,_stormdominert"                                             "Oppbygning_av_sandbanke_pa_hoyenergi_sokkel"
1685.8 "6407_9-2"  86.1200 "Sandstone" "Clay"  -999.25    60.0000 40.00000      0.0 "vf"    "vf"      "Marginale_deler_av_sokkelsand-banke,_stormdominert"                                             "Oppbygning_av_sandbanke_pa_hoyenergi_sokkel"
1685.9 "6407_9-2"  86.1200 "Sandstone" "Clay"  -999.25    60.0000 40.00000      0.0 "vf"    "vf"      "Marginale_deler_av_sokkelsand-banke,_stormdominert"                                             "Oppbygning_av_sandbanke_pa_hoyenergi_sokkel"
1686.0 "6407_9-2"  86.0200 "Sandstone" "Clay"  -999.25    60.0000 40.00000      0.0 "vf"    "vf"      "Marginale_deler_av_sokkelsand-banke,_stormdominert"                                             "Oppbygning_av_sandbanke_pa_hoyenergi_sokkel"
1686.1 "6407_9-2"  84.8800 "Sandstone" "Clay"  -999.25    60.0000 40.00000      0.0 "vf"    "vf"      "Marginale_deler_av_sokkelsand-banke,_stormdominert"                                             "Oppbygning_av_sandbanke_pa_hoyenergi_sokkel"
1686.2 "6407_9-2"  83.7400 "Sandstone" "Clay"  -999.25    60.0000 40.00000      0.0 "vf"    "vf"      "Marginale_deler_av_sokkelsand-banke,_stormdominert"                                             "Oppbygning_av_sandbanke_pa_hoyenergi_sokkel"
1686.3 "6407_9-2"  82.6000 "Sandstone" "Clay"  -999.25    60.0000 40.00000      0.0 "vf"    "vf"      "Marginale_deler_av_sokkelsand-banke,_stormdominert"                                             "Oppbygning_av_sandbanke_pa_hoyenergi_sokkel"
1686.4 "6407_9-2"  81.4600 "Sandstone" "Clay"  -999.25    60.0000 40.00000      0.0 "vf"    "vf"      "Marginale_deler_av_sokkelsand-banke,_stormdominert"                                             "Oppbygning_av_sandbanke_pa_hoyenergi_sokkel"
