~Version
VERS  .                                 3.0 : CWLS LAS ASCII Standard - Version 3.0
WRAP  . NO                                  : One line per depth step
DLM   . SPACE                               : Column data section delimiter
SOURCE. Converted to LAS by Log Studio 4.76 : GeoProvider

~Well
STRT.         1653.5 : Start depth
STOP.         1706.2 : Stop depth
STEP.              1 : Step
NULL.        -999.25 : No-value
COMP.                : Company
WELL. 6407/9-2       : Well
FLD .                : Field
LOC .                : Location
LATI.                : Latitude
LONG.                : Longitude
GDAT.                : Geodetic datum
CNTY.                : County
STAT.                : State
CTRY.                : Country
SRVC. GeoProvider AS : Service company
DATE.                : Date
API .                : API number
RUN .                : Run number

~Parameters
WellboreName.  : Wellbore name
RigName     .  : Rig name
StartDate   .  : Start date

~Curves
DEPTH.m            .  : null {F}Depth mMD
Hole_ID.-          .  : null {S}Hole ID
GR.API             .  : null {F}Gamma Ray
Lithology1.-       .  : null {S}Lithology 1
Lithology2.-       .  : null {S}Lithology 2
Lithology3.-       .  : null {S}Lithology 3
Lithology1.%       .  : null {F}Lithology 1 percentage
Lithology2.%       .  : null {F}Lithology 2 percentage
Lithology3.%       .  : null {F}Lithology 3 percentage
Grain_size_Top.-   .  : null {S}Grain size at the top 
Grain_size_Base.-  .  : null {S}Grain size at the bottom
Sub_Environment.-  .  : null {S}Sub Environment
Gross_Environment.-.  : null {S}Gross Environment

~Ascii
# ...
1670.0 "6407_9-2"  58.6000 "Sandstone" -999.25 -999.25   100.0000      0.0      0.0 "m/c"   "f"       "Sentral_del_av_sokkelsand-banke,_sand_trolig_tilfort_vod_stormer_eller_avboyning_av_kyststrommer" "Oppbygning_av_sandbanke_pa_hoyenergi_sokkel"
1670.1 "6407_9-2"  58.6900 -999.25   -999.25 -999.25   100.0000      0.0      0.0 -999.25 -999.25   "Sentral_del_av_sokkelsand-banke,_sand_trolig_tilfort_vod_stormer_eller_avboyning_av_kyststrommer" "Oppbygning_av_sandbanke_pa_hoyenergi_sokkel"
1670.2 "6407_9-2"  58.7800 -999.25   -999.25 -999.25   100.0000      0.0      0.0 -999.25 -999.25   "Sentral_del_av_sokkelsand-banke,_sand_trolig_tilfort_vod_stormer_eller_avboyning_av_kyststrommer" "Oppbygning_av_sandbanke_pa_hoyenergi_sokkel"
1670.3 "6407_9-2"  58.8700 -999.25   -999.25 -999.25   100.0000      0.0      0.0 -999.25 -999.25   "Sentral_del_av_sokkelsand-banke,_sand_trolig_tilfort_vod_stormer_eller_avboyning_av_kyststrommer" "Oppbygning_av_sandbanke_pa_hoyenergi_sokkel"
1670.4 "6407_9-2"  58.9700 -999.25   -999.25 -999.25   100.0000      0.0      0.0 -999.25 -999.25   "Sentral_del_av_sokkelsand-banke,_sand_trolig_tilfort_vod_stormer_eller_avboyning_av_kyststrommer" "Oppbygning_av_sandbanke_pa_hoyenergi_sokkel"
1670.5 "6407_9-2"  59.0600 -999.25   -999.25 -999.25   100.0000      0.0      0.0 -999.25 -999.25   "Sentral_del_av_sokkelsand-banke,_sand_trolig_tilfort_vod_stormer_eller_avboyning_av_kyststrommer" "Oppbygning_av_sandbanke_pa_hoyenergi_sokkel"
1670.6 "6407_9-2"  59.3300 -999.25   -999.25 -999.25   100.0000      0.0      0.0 -999.25 -999.25   "Sentral_del_av_sokkelsand-banke,_sand_trolig_tilfort_vod_stormer_eller_avboyning_av_kyststrommer" "Oppbygning_av_sandbanke_pa_hoyenergi_sokkel"
1670.7 "6407_9-2"  59.9300 -999.25   -999.25 -999.25   100.0000      0.0      0.0 -999.25 -999.25   "Sentral_del_av_sokkelsand-banke,_sand_trolig_tilfort_vod_stormer_eller_avboyning_av_kyststrommer" "Oppbygning_av_sandbanke_pa_hoyenergi_sokkel"
1670.8 "6407_9-2"  60.5400 -999.25   -999.25 -999.25   100.0000      0.0      0.0 -999.25 -999.25   "Sentral_del_av_sokkelsand-banke,_sand_trolig_tilfort_vod_stormer_eller_avboyning_av_kyststrommer" "Oppbygning_av_sandbanke_pa_hoyenergi_sokkel"
1670.9 "6407_9-2"  61.1400 -999.25   -999.25 -999.25   100.0000      0.0      0.0 -999.25 -999.25   "Sentral_del_av_sokkelsand-banke,_sand_trolig_tilfort_vod_stormer_eller_avboyning_av_kyststrommer" "Oppbygning_av_sandbanke_pa_hoyenergi_sokkel"
1671.0 "6407_9-2"  61.7500 -999.25   -999.25 -999.25   100.0000      0.0      0.0 -999.25 -999.25   "Sentral_del_av_sokkelsand-banke,_sand_trolig_tilfort_vod_stormer_eller_avboyning_av_kyststrommer" "Oppbygning_av_sandbanke_pa_hoyenergi_sokkel"
1671.1 "6407_9-2"  62.3500 -999.25   -999.25 -999.25   100.0000      0.0      0.0 -999.25 -999.25   "Sentral_del_av_sokkelsand-banke,_sand_trolig_tilfort_vod_stormer_eller_avboyning_av_kyststrommer" "Oppbygning_av_sandbanke_pa_hoyenergi_sokkel"
1671.2 "6407_9-2"  62.9600 -999.25   -999.25 -999.25   100.0000      0.0      0.0 -999.25 -999.25   "Sentral_del_av_sokkelsand-banke,_sand_trolig_tilfort_vod_stormer_eller_avboyning_av_kyststrommer" "Oppbygning_av_sandbanke_pa_hoyenergi_sokkel"
1671.3 "6407_9-2"  63.5600 -999.25   -999.25 -999.25   100.0000      0.0      0.0 -999.25 -999.25   "Sentral_del_av_sokkelsand-banke,_sand_trolig_tilfort_vod_stormer_eller_avboyning_av_kyststrommer" "Oppbygning_av_sandbanke_pa_hoyenergi_sokkel"
1671.4 "6407_9-2"  64.1700 -999.25   -999.25 -999.25   100.0000      0.0      0.0 -999.25 -999.25   "Sentral_del_av_sokkelsand-banke,_sand_trolig_tilfort_vod_stormer_eller_avboyning_av_kyststrommer" "Oppbygning_av_sandbanke_pa_hoyenergi_sokkel"
1671.5 "6407_9-2"  64.7700 -999.25   -999.25 -999.25   100.0000      0.0      0.0 -999.25 -999.25   "Sentral_del_av_sokkelsand-banke,_sand_trolig_tilfort_vod_stormer_eller_avboyning_av_kyststrommer" "Oppbygning_av_sandbanke_pa_hoyenergi_sokkel"
1671.6 "6407_9-2"  65.3800 -999.25   -999.25 -999.25   100.0000      0.0      0.0 -999.25 -999.25   "Sentral_del_av_sokkelsand-banke,_sand_trolig_tilfort_vod_stormer_eller_avboyning_av_kyststrommer" "Oppbygning_av_sandbanke_pa_hoyenergi_sokkel"
1671.7 "6407_9-2"  65.9900 -999.25   -999.25 -999.25   100.0000      0.0      0.0 -999.25 -999.25   "Sentral_del_av_sokkelsand-banke,_sand_trolig_tilfort_vod_stormer_eller_avboyning_av_kyststrommer" "Oppbygning_av_sandbanke_pa_hoyenergi_sokkel"
1671.8 "6407_9-2"  66.5900 -999.25   -999.25 -999.25   100.0000      0.0      0.0 -999.25 -999.25   "Sentral_del_av_sokkelsand-banke,_sand_trolig_tilfort_vod_stormer_eller_avboyning_av_kyststrommer" "Oppbygning_av_sandbanke_pa_hoyenergi_sokkel"
1671.9 "6407_9-2"  65.6900 -999.25   -999.25 -999.25   100.0000      0.0      0.0 -999.25 -999.25   "Sentral_del_av_sokkelsand-banke,_sand_trolig_tilfort_vod_stormer_eller_avboyning_av_kyststrommer" "Oppbygning_av_sandbanke_pa_hoyenergi_sokkel"
1672.0 "6407_9-2"  64.5700 -999.25   -999.25 -999.25   100.0000      0.0      0.0 -999.25 -999.25   "Sentral_del_av_sokkelsand-banke,_sand_trolig_tilfort_vod_stormer_eller_avboyning_av_kyststrommer" "Oppbygning_av_sandbanke_pa_hoyenergi_sokkel"
1672.1 "6407_9-2"  63.4100 -999.25   -999.25 -999.25   100.0000      0.0      0.0 -999.25 -999.25   "Sentral_del_av_sokkelsand-banke,_sand_trolig_tilfort_vod_stormer_eller_avboyning_av_kyststrommer" "Oppbygning_av_sandbanke_pa_hoyenergi_sokkel"
1672.2 "6407_9-2"  62.9900 -999.25   -999.25 -999.25   100.0000      0.0      0.0 -999.25 -999.25   "Sentral_del_av_sokkelsand-banke,_sand_trolig_tilfort_vod_stormer_eller_avboyning_av_kyststrommer" "Oppbygning_av_sandbanke_pa_hoyenergi_sokkel"
1672.3 "6407_9-2"  62.6500 -999.25   -999.25 -999.25   100.0000      0.0      0.0 -999.25 -999.25   "Sentral_del_av_sokkelsand-banke,_sand_trolig_tilfort_vod_stormer_eller_avboyning_av_kyststrommer" "Oppbygning_av_sandbanke_pa_hoyenergi_sokkel"
1672.4 "6407_9-2"  62.7100 -999.25   -999.25 -999.25   100.0000      0.0      0.0 -999.25 -999.25   "Sentral_del_av_sokkelsand-banke,_sand_trolig_tilfort_vod_stormer_eller_avboyning_av_kyststrommer" "Oppbygning_av_sandbanke_pa_hoyenergi_sokkel"
1672.5 "6407_9-2"  63.2100 -999.25   -999.25 -999.25   100.0000      0.0      0.0 -999.25 -999.25   "Sentral_del_av_sokkelsand-banke,_sand_trolig_tilfort_vod_stormer_eller_avboyning_av_kyststrommer" "Oppbygning_av_sandbanke_pa_hoyenergi_sokkel"
1672.6 "6407_9-2"  63.7100 -999.25   -999.25 -999.25   100.0000      0.0      0.0 -999.25 -999.25   "Sentral_del_av_sokkelsand-banke,_sand_trolig_tilfort_vod_stormer_eller_avboyning_av_kyststrommer" "Oppbygning_av_sandbanke_pa_hoyenergi_sokkel"
1672.7 "6407_9-2"  64.2100 -999.25   -999.25 -999.25   100.0000      0.0      0.0 -999.25 -999.25   "Sentral_del_av_sokkelsand-banke,_sand_trolig_tilfort_vod_stormer_eller_avboyning_av_kyststrommer" "Oppbygning_av_sandbanke_pa_hoyenergi_sokkel"
1672.8 "6407_9-2"  64.7100 -999.25   -999.25 -999.25   100.0000      0.0      0.0 -999.25 -999.25   "Sentral_del_av_sokkelsand-banke,_sand_trolig_tilfort_vod_stormer_eller_avboyning_av_kyststrommer" "Oppbygning_av_sandbanke_pa_hoyenergi_sokkel"
1672.9 "6407_9-2"  64.1700 -999.25   -999.25 -999.25   100.0000      0.0      0.0 -999.25 -999.25   "Sentral_del_av_sokkelsand-banke,_sand_trolig_tilfort_vod_stormer_eller_avboyning_av_kyststrommer" "Oppbygning_av_sandbanke_pa_hoyenergi_sokkel"
1673.0 "6407_9-2"  63.4800 -999.25   -999.25 -999.25   100.0000      0.0      0.0 -999.25 -999.25   "Sentral_del_av_sokkelsand-banke,_sand_trolig_tilfort_vod_stormer_eller_avboyning_av_kyststrommer" "Oppbygning_av_sandbanke_pa_hoyenergi_sokkel"
1673.1 "6407_9-2"  62.7900 "Sandstone" -999.25 -999.25    93.0000  7.00000      0.0 "vf"    "c/vc"    "Sentral_del_av_sokkelsand-banke,_sand_trolig_tilfort_vod_stormer_eller_avboyning_av_kyststrommer" "Oppbygning_av_sandbanke_pa_hoyenergi_sokkel"
1673.2 "6407_9-2"  62.1100 "Sandstone" -999.25 -999.25    93.0000  7.00000      0.0 "vf"    "c/vc"    "Sentral_del_av_sokkelsand-banke,_sand_trolig_tilfort_vod_stormer_eller_avboyning_av_kyststrommer" "Oppbygning_av_sandbanke_pa_hoyenergi_sokkel"
