~Version
VERS  .                                 3.0 : CWLS LAS ASCII Standard - Version 3.0
WRAP  . NO                                  : One line per depth step
DLM   . SPACE                               : Column data section delimiter
SOURCE. Converted to LAS by Log Studio 4.76 : GeoProvider

~Well
STRT.         1653.5 : Start depth
STOP.         1706.2 : Stop depth
STEP.              1 : Step
NULL.        -999.25 : No-value
COMP.                : Company
WELL. 6407/9-2       : Well
FLD .                : Field
LOC .                : Location
LATI.                : Latitude
LONG.                : Longitude
GDAT.                : Geodetic datum
CNTY.                : County
STAT.                : State
CTRY.                : Country
SRVC. GeoProvider AS : Service company
DATE.                : Date
API .                : API number
RUN .                : Run number

~Parameters
WellboreName.  : Wellbore name
RigName     .  : Rig name
StartDate   .  : Start date

~Curves
DEPTH.m            .  : null {F}Depth mMD
Hole_ID.-          .  : null {S}Hole ID
GR.API             .  : null {F}Gamma Ray
Lithology1.-       .  : null {S}Lithology 1
Lithology2.-       .  : null {S}Lithology 2
Lithology3.-       .  : null {S}Lithology 3
Lithology1.%       .  : null {F}Lithology 1 percentage
Lithology2.%       .  : null {F}Lithology 2 percentage
Lithology3.%       .  : null {F}Lithology 3 percentage
Grain_size_Top.-   .  : null {S}Grain size at the top 
Grain_size_Base.-  .  : null {S}Grain size at the bottom
Sub_Environment.-  .  : null {S}Sub Environment
Gross_Environment.-.  : null {S}Gross Environment

~Ascii
# ...
1660.1 "6407_9-2"  60.7500 "Sandstone" -999.25 -999.25   100.0000      0.0      0.0 "m/c"   "f"       "Sentral_del_av_sokkelsand-banke,_sand_trolig_tilfort_vod_stormer_eller_avboyning_av_kyststrommer" "Oppbygning_av_sandbanke_pa_hoyenergi_sokkel"
1660.2 "6407_9-2"  60.5900 "Sandstone" -999.25 -999.25   100.0000      0.0      0.0 "m/c"   "f"       "Sentral_del_av_sokkelsand-banke,_sand_trolig_tilfort_vod_stormer_eller_avboyning_av_kyststrommer" "Oppbygning_av_sandbanke_pa_hoyenergi_sokkel"
1660.3 "6407_9-2"  60.8800 "Sandstone" -999.25 -999.25   100.0000      0.0      0.0 "m/c"   "f"       "Sentral_del_av_sokkelsand-banke,_sand_trolig_tilfort_vod_stormer_eller_avboyning_av_kyststrommer" "Oppbygning_av_sandbanke_pa_hoyenergi_sokkel"
1660.4 "6407_9-2"  61.1700 "Sandstone" -999.25 -999.25   100.0000      0.0      0.0 "m/c"   "f"       "Sentral_del_av_sokkelsand-banke,_sand_trolig_tilfort_vod_stormer_eller_avboyning_av_kyststrommer" "Oppbygning_av_sandbanke_pa_hoyenergi_sokkel"
1660.5 "6407_9-2"  61.4700 "Sandstone" -999.25 -999.25   100.0000      0.0      0.0 "m/c"   "f"       "Sentral_del_av_sokkelsand-banke,_sand_trolig_tilfort_vod_stormer_eller_avboyning_av_kyststrommer" "Oppbygning_av_sandbanke_pa_hoyenergi_sokkel"
1660.6 "6407_9-2"  61.7600 "Sandstone" -999.25 -999.25   100.0000      0.0      0.0 "m/c"   "f"       "Sentral_del_av_sokkelsand-banke,_sand_trolig_tilfort_vod_stormer_eller_avboyning_av_kyststrommer" "Oppbygning_av_sandbanke_pa_hoyenergi_sokkel"
1660.7 "6407_9-2"  62.0600 "Sandstone" -999.25 -999.25   100.0000      0.0      0.0 "m/c"   "f"       "Sentral_del_av_sokkelsand-banke,_sand_trolig_tilfort_vod_stormer_eller_avboyning_av_kyststrommer" "Oppbygning_av_sandbanke_pa_hoyenergi_sokkel"
1660.8 "6407_9-2"  62.1900 "Sandstone" -999.25 -999.25   100.0000      0.0      0.0 "m/c"   "f"       "Sentral_del_av_sokkelsand-banke,_sand_trolig_tilfort_vod_stormer_eller_avboyning_av_kyststrommer" "Oppbygning_av_sandbanke_pa_hoyenergi_sokkel"
1660.9 "6407_9-2"  61.9400 "Sandstone" -999.25 -999.25   100.0000      0.0      0.0 "m/c"   "f"       "Sentral_del_av_sokkelsand-banke,_sand_trolig_tilfort_vod_stormer_eller_avboyning_av_kyststrommer" "Oppbygning_av_sandbanke_pa_hoyenergi_sokkel"
1661.0 "6407_9-2"  61.7000 "Sandstone" -999.25 -999.25   100.0000      0.0      0.0 "m/c"   "f"       "Sentral_del_av_sokkelsand-banke,_sand_trolig_tilfort_vod_stormer_eller_avboyning_av_kyststrommer" "Oppbygning_av_sandbanke_pa_hoyenergi_sokkel"
1661.1 "6407_9-2"  61.4500 "Sandstone" -999.25 -999.25   100.0000      0.0      0.0 "m/c"   "f"       "Sentral_del_av_sokkelsand-banke,_sand_trolig_tilfort_vod_stormer_eller_avboyning_av_kyststrommer" "Oppbygning_av_sandbanke_pa_hoyenergi_sokkel"
1661.2 "6407_9-2"  61.2100 "Sandstone" -999.25 -999.25   100.0000      0.0      0.0 "m/c"   "f"       "Sentral_del_av_sokkelsand-banke,_sand_trolig_tilfort_vod_stormer_eller_avboyning_av_kyststrommer" "Oppbygning_av_sandbanke_pa_hoyenergi_sokkel"
1661.3 "6407_9-2"  61.0600 "Sandstone" -999.25 -999.25   100.0000      0.0      0.0 "m/c"   "f"       "Sentral_del_av_sokkelsand-banke,_sand_trolig_tilfort_vod_stormer_eller_avboyning_av_kyststrommer" "Oppbygning_av_sandbanke_pa_hoyenergi_sokkel"
1661.4 "6407_9-2"  61.4000 "Sandstone" -999.25 -999.25   100.0000      0.0      0.0 "m/c"   "f"       "Sentral_del_av_sokkelsand-banke,_sand_trolig_tilfort_vod_stormer_eller_avboyning_av_kyststrommer" "Oppbygning_av_sandbanke_pa_hoyenergi_sokkel"
1661.5 "6407_9-2"  61.7500 "Sandstone" -999.25 -999.25   100.0000      0.0      0.0 "m/c"   "f"       "Sentral_del_av_sokkelsand-banke,_sand_trolig_tilfort_vod_stormer_eller_avboyning_av_kyststrommer" "Oppbygning_av_sandbanke_pa_hoyenergi_sokkel"
1661.6 "6407_9-2"  62.0900 "Sandstone" -999.25 -999.25   100.0000      0.0      0.0 "m/c"   "f"       "Sentral_del_av_sokkelsand-banke,_sand_trolig_tilfort_vod_stormer_eller_avboyning_av_kyststrommer" "Oppbygning_av_sandbanke_pa_hoyenergi_sokkel"
1661.7 "6407_9-2"  62.4400 "Sandstone" -999.25 -999.25   100.0000      0.0      0.0 "m/c"   "f"       "Sentral_del_av_sokkelsand-banke,_sand_trolig_tilfort_vod_stormer_eller_avboyning_av_kyststrommer" "Oppbygning_av_sandbanke_pa_hoyenergi_sokkel"
1661.8 "6407_9-2"  62.7800 "Sandstone" -999.25 -999.25   100.0000      0.0      0.0 "m/c"   "f"       "Sentral_del_av_sokkelsand-banke,_sand_trolig_tilfort_vod_stormer_eller_avboyning_av_kyststrommer" "Oppbygning_av_sandbanke_pa_hoyenergi_sokkel"
1661.9 "6407_9-2"  63.1200 "Sandstone" -999.25 -999.25   100.0000      0.0      0.0 "m/c"   "f"       "Sentral_del_av_sokkelsand-banke,_sand_trolig_tilfort_vod_stormer_eller_avboyning_av_kyststrommer" "Oppbygning_av_sandbanke_pa_hoyenergi_sokkel"
1662.0 "6407_9-2"  63.4700 "Sandstone" -999.25 -999.25   100.0000      0.0      0.0 "m/c"   "f"       "Sentral_del_av_sokkelsand-banke,_sand_trolig_tilfort_vod_stormer_eller_avboyning_av_kyststrommer" "Oppbygning_av_sandbanke_pa_hoyenergi_sokkel"
1662.1 "6407_9-2"  63.2200 "Sandstone" -999.25 -999.25   100.0000      0.0      0.0 "m/c"   "f"       "Sentral_del_av_sokkelsand-banke,_sand_trolig_tilfort_vod_stormer_eller_avboyning_av_kyststrommer" "Oppbygning_av_sandbanke_pa_hoyenergi_sokkel"
1662.2 "6407_9-2"  62.8700 "Sandstone" -999.25 -999.25   100.0000      0.0      0.0 "m/c"   "f"       "Sentral_del_av_sokkelsand-banke,_sand_trolig_tilfort_vod_stormer_eller_avboyning_av_kyststrommer" "Oppbygning_av_sandbanke_pa_hoyenergi_sokkel"
1662.3 "6407_9-2"  62.5200 "Sandstone" -999.25 -999.25   100.0000      0.0      0.0 "m/c"   "f"       "Sentral_del_av_sokkelsand-banke,_sand_trolig_tilfort_vod_stormer_eller_avboyning_av_kyststrommer" "Oppbygning_av_sandbanke_pa_hoyenergi_sokkel"
1662.4 "6407_9-2"  62.1800 "Sandstone" -999.25 -999.25   100.0000      0.0      0.0 "m/c"   "f"       "Sentral_del_av_sokkelsand-banke,_sand_trolig_tilfort_vod_stormer_eller_avboyning_av_kyststrommer" "Oppbygning_av_sandbanke_pa_hoyenergi_sokkel"
1662.5 "6407_9-2"  61.8300 "Sandstone" -999.25 -999.25   100.0000      0.0      0.0 "m/c"   "f"       "Sentral_del_av_sokkelsand-banke,_sand_trolig_tilfort_vod_stormer_eller_avboyning_av_kyststrommer" "Oppbygning_av_sandbanke_pa_hoyenergi_sokkel"
1662.6 "6407_9-2"  61.7200 "Sandstone" -999.25 -999.25   100.0000      0.0      0.0 "m/c"   "f"       "Sentral_del_av_sokkelsand-banke,_sand_trolig_tilfort_vod_stormer_eller_avboyning_av_kyststrommer" "Oppbygning_av_sandbanke_pa_hoyenergi_sokkel"
1662.7 "6407_9-2"  61.9100 "Sandstone" -999.25 -999.25   100.0000      0.0      0.0 "m/c"   "f"       "Sentral_del_av_sokkelsand-banke,_sand_trolig_tilfort_vod_stormer_eller_avboyning_av_kyststrommer" "Oppbygning_av_sandbanke_pa_hoyenergi_sokkel"
1662.8 "6407_9-2"  62.1100 "Sandstone" -999.25 -999.25   100.0000      0.0      0.0 "m/c"   "f"       "Sentral_del_av_sokkelsand-banke,_sand_trolig_tilfort_vod_stormer_eller_avboyning_av_kyststrommer" "Oppbygning_av_sandbanke_pa_hoyenergi_sokkel"
1662.9 "6407_9-2"  62.3000 "Sandstone" -999.25 -999.25   100.0000      0.0      0.0 "m/c"   "f"       "Sentral_del_av_sokkelsand-banke,_sand_trolig_tilfort_vod_stormer_eller_avboyning_av_kyststrommer" "Oppbygning_av_sandbanke_pa_hoyenergi_sokkel"
1663.0 "6407_9-2"  62.4900 "Sandstone" -999.25 -999.25   100.0000      0.0      0.0 "m/c"   "f"       "Sentral_del_av_sokkelsand-banke,_sand_trolig_tilfort_vod_stormer_eller_avboyning_av_kyststrommer" "Oppbygning_av_sandbanke_pa_hoyenergi_sokkel"
1663.1 "6407_9-2"  62.6900 "Sandstone" -999.25 -999.25   100.0000      0.0      0.0 "m/c"   "f"       "Sentral_del_av_sokkelsand-banke,_sand_trolig_tilfort_vod_stormer_eller_avboyning_av_kyststrommer" "Oppbygning_av_sandbanke_pa_hoyenergi_sokkel"
1663.2 "6407_9-2"  62.8800 "Sandstone" -999.25 -999.25   100.0000      0.0      0.0 "m/c"   "f"       "Sentral_del_av_sokkelsand-banke,_sand_trolig_tilfort_vod_stormer_eller_avboyning_av_kyststrommer" "Oppbygning_av_sandbanke_pa_hoyenergi_sokkel"
1663.3 "6407_9-2"  63.0700 "Sandstone" -999.25 -999.25   100.0000      0.0      0.0 "m/c"   "f"       "Sentral_del_av_sokkelsand-banke,_sand_trolig_tilfort_vod_stormer_eller_avboyning_av_kyststrommer" "Oppbygning_av_sandbanke_pa_hoyenergi_sokkel"
