~Version
VERS  .                                 3.0 : CWLS LAS ASCII Standard - Version 3.0
WRAP  . NO                                  : One line per depth step
DLM   . SPACE                               : Column data section delimiter
SOURCE. Converted to LAS by Log Studio 4.76 : GeoProvider

~Well
STRT.         3129.0 : Start depth
STOP.         4008.7 : Stop depth
STEP.              1 : Step
NULL.        -999.25 : No-value
COMP.                : Company
WELL. 6506/12-4      : Well
FLD .                : Field
LOC .                : Location
LATI.                : Latitude
LONG.                : Longitude
GDAT.                : Geodetic datum
CNTY.                : County
STAT.                : State
CTRY.                : Country
SRVC. GeoProvider AS : Service company
DATE.                : Date
API .                : API number
RUN .                : Run number

~Parameters
WellboreName.  : Wellbore name
RigName     .  : Rig name
StartDate   .  : Start date

~Curves
DEPTH.m            .  : null {F}Depth mMD
Hole_ID.-          .  : null {S}Hole ID
GR.API             .  : null {F}Gamma Ray
Lithology1.-       .  : null {S}Lithology 1
Lithology2.-       .  : null {S}Lithology 2
Lithology3.-       .  : null {S}Lithology 3
Lithology1.%       .  : null {F}Lithology 1 percentage
Lithology2.%       .  : null {F}Lithology 2 percentage
Lithology3.%       .  : null {F}Lithology 3 percentage
Grain_size_Top.-   .  : null {S}Grain size at the top 
Grain_size_Base.-  .  : null {S}Grain size at the bottom
Sub_Environment.-  .  : null {S}Sub Environment
Gross_Environment.-.  : null {S}Gross Environment

~Ascii
# ...
3133.3 "6506_12-4" 16.08000 "Shale"   -999.25   -999.25 100.0000      0.0      0.0 "clay"         "clay"     "Crevasse_splays"                                 "Begrenset_marint_basseng"
3133.4 "6506_12-4" 16.17000 "Shale"   -999.25   -999.25 100.0000      0.0      0.0 "clay"         "clay"     "Crevasse_splays"                                 "Begrenset_marint_basseng"
3133.5 "6506_12-4" 16.26000 "Shale"   -999.25   -999.25 100.0000      0.0      0.0 "clay"         "clay"     "Crevasse_splays"                                 "Begrenset_marint_basseng"
3133.6 "6506_12-4" 16.97000 "Shale"   -999.25   -999.25 100.0000      0.0      0.0 "clay"         "clay"     "Crevasse_splays"                                 "Begrenset_marint_basseng"
3133.7 "6506_12-4" 17.80000 "Shale"   -999.25   -999.25 100.0000      0.0      0.0 "clay"         "clay"     "Crevasse_splays"                                 "Begrenset_marint_basseng"
3133.8 "6506_12-4" 19.22000 "Shale"   -999.25   -999.25 100.0000      0.0      0.0 "clay"         "clay"     "Crevasse_splays_og_andre_flom-genererte_sekvenser" "Begrenset_marint_basseng"
3133.9 "6506_12-4" 21.05000 "Shale"   -999.25   -999.25 100.0000      0.0      0.0 "clay"         "clay"     "Crevasse_splays_og_andre_flom-genererte_sekvenser" "Begrenset_marint_basseng"
3134.0 "6506_12-4" 22.45000 "Sandstone" -999.25   -999.25 100.0000      0.0      0.0 "f/m"          "f"        "Crevasse_splays_og_andre_flom-genererte_sekvenser" "Begrenset_marint_basseng"
3134.1 "6506_12-4" 23.37000 "Sandstone" -999.25   -999.25 100.0000      0.0      0.0 "f/m"          "f"        "Crevasse_splays_og_andre_flom-genererte_sekvenser" "Begrenset_marint_basseng"
3134.2 "6506_12-4" 23.21000 "Sandstone" -999.25   -999.25 100.0000      0.0      0.0 "f/m"          "f"        "Crevasse_splays_og_andre_flom-genererte_sekvenser" "Begrenset_marint_basseng"
3134.3 "6506_12-4" 21.86000 "Sandstone" -999.25   -999.25 100.0000      0.0      0.0 "f/m"          "f"        "Crevasse_splays_og_andre_flom-genererte_sekvenser" "Begrenset_marint_basseng"
3134.4 "6506_12-4" 20.52000 "Sandstone" -999.25   -999.25 100.0000      0.0      0.0 "f/m"          "f"        "Crevasse_splays_og_andre_flom-genererte_sekvenser" "Begrenset_marint_basseng"
3134.5 "6506_12-4" 19.23000 "Sandstone" -999.25   -999.25 100.0000      0.0      0.0 "f/m"          "f"        "Crevasse_splays_og_andre_flom-genererte_sekvenser" "Begrenset_marint_basseng"
3134.6 "6506_12-4" 18.11000 "Sandstone" "Shale"   -999.25  70.0000 30.00000      0.0 "clay"         "clay"     "Crevasse_splays_og_andre_flom-genererte_sekvenser" "Begrenset_marint_basseng"
3134.7 "6506_12-4" 17.03000 "Sandstone" "Shale"   -999.25  70.0000 30.00000      0.0 "clay"         "clay"     "Crevasse_splays_og_andre_flom-genererte_sekvenser" "Begrenset_marint_basseng"
3134.8 "6506_12-4" 16.40000 "Sandstone" "Shale"   -999.25  70.0000 30.00000      0.0 "clay"         "clay"     "Crevasse_splays_og_andre_flom-genererte_sekvenser" "Begrenset_marint_basseng"
3134.9 "6506_12-4" 15.77000 "Sandstone" "Shale"   -999.25  70.0000 30.00000      0.0 "clay"         "clay"     "Crevasse_splays_og_andre_flom-genererte_sekvenser" "Begrenset_marint_basseng"
3135.0 "6506_12-4" 15.62000 "Sandstone" "Shale"   -999.25  70.0000 30.00000      0.0 "clay"         "clay"     "Crevasse_splays_og_andre_flom-genererte_sekvenser" "Begrenset_marint_basseng"
3135.1 "6506_12-4" 15.85000 "Sandstone" "Shale"   -999.25  70.0000 30.00000      0.0 "clay"         "clay"     "Crevasse_splays_og_andre_flom-genererte_sekvenser" "Begrenset_marint_basseng"
3135.2 "6506_12-4" 16.31000 "Sandstone" "Shale"   -999.25  70.0000 30.00000      0.0 "clay"         "clay"     "Crevasse_splays_og_andre_flom-genererte_sekvenser" "Begrenset_marint_basseng"
3135.3 "6506_12-4" 17.40000 "Sandstone" -999.25   -999.25 100.0000      0.0      0.0 "c/vc"         "m/c"      "Crevasse_splays_og_andre_flom-genererte_sekvenser" "Begrenset_marint_basseng"
3135.4 "6506_12-4" 18.50000 "Sandstone" -999.25   -999.25 100.0000      0.0      0.0 "c/vc"         "m/c"      "Crevasse_splays_og_andre_flom-genererte_sekvenser" "Begrenset_marint_basseng"
3135.5 "6506_12-4" 19.60000 "Sandstone" -999.25   -999.25 100.0000      0.0      0.0 "c/vc"         "m/c"      "Crevasse_splays_og_andre_flom-genererte_sekvenser" "Begrenset_marint_basseng"
3135.6 "6506_12-4" 20.71000 "Sandstone" -999.25   -999.25 100.0000      0.0      0.0 "c/vc"         "m/c"      "Crevasse_splays_og_andre_flom-genererte_sekvenser" "Begrenset_marint_basseng"
3135.7 "6506_12-4" 21.64000 "Sandstone" -999.25   -999.25 100.0000      0.0      0.0 "c/vc"         "m/c"      "Crevasse_splays_og_andre_flom-genererte_sekvenser" "Begrenset_marint_basseng"
3135.8 "6506_12-4" 21.92000 "Sandstone" -999.25   -999.25 100.0000      0.0      0.0 "c/vc"         "m/c"      "Crevasse_splays_og_andre_flom-genererte_sekvenser" "Begrenset_marint_basseng"
3135.9 "6506_12-4" 21.48000 "Sandstone" -999.25   -999.25 100.0000      0.0      0.0 "c/vc"         "m/c"      "Crevasse_splays_og_andre_flom-genererte_sekvenser" "Begrenset_marint_basseng"
3136.0 "6506_12-4" 21.19000 "Sandstone" -999.25   -999.25 100.0000      0.0      0.0 "c/vc"         "m/c"      "Crevasse_splays_og_andre_flom-genererte_sekvenser" "Begrenset_marint_basseng"
3136.1 "6506_12-4" 21.41000 "Sandstone" -999.25   -999.25 100.0000      0.0      0.0 "c"            "m"        "Crevasse_splays_og_andre_flom-genererte_sekvenser" "Begrenset_marint_basseng"
3136.2 "6506_12-4" 22.26000 "Sandstone" -999.25   -999.25 100.0000      0.0      0.0 "c"            "m"        "Crevasse_splays_og_andre_flom-genererte_sekvenser" "Begrenset_marint_basseng"
3136.3 "6506_12-4" 23.11000 "Sandstone" -999.25   -999.25 100.0000      0.0      0.0 "c"            "m"        "Crevasse_splays_og_andre_flom-genererte_sekvenser" "Begrenset_marint_basseng"
3136.4 "6506_12-4" 23.61000 "Sandstone" -999.25   -999.25 100.0000      0.0      0.0 "c"            "m"        "Crevasse_splays_og_andre_flom-genererte_sekvenser" "Begrenset_marint_basseng"
3136.5 "6506_12-4" 23.14000 "Sandstone" -999.25   -999.25 100.0000      0.0      0.0 "c"            "c"        "Crevasse_splays_og_andre_flom-genererte_sekvenser" "Begrenset_marint_basseng"
3136.6 "6506_12-4" 21.68000 "Sandstone" -999.25   -999.25 100.0000      0.0      0.0 "c"            "c"        "Crevasse_splays_og_andre_flom-genererte_sekvenser" "Begrenset_marint_basseng"
3136.7 "6506_12-4" 20.22000 "Sandstone" -999.25   -999.25 100.0000      0.0      0.0 "c"            "c"        "Crevasse_splays_og_andre_flom-genererte_sekvenser" "Begrenset_marint_basseng"
3136.8 "6506_12-4" 18.76000 "Sandstone" -999.25   -999.25 100.0000      0.0      0.0 "c"            "c"        "Crevasse_splays_og_andre_flom-genererte_sekvenser" "Begrenset_marint_basseng"
3136.9 "6506_12-4" 17.30000 "Sandstone" -999.25   -999.25 100.0000      0.0      0.0 "f"            "vf"       "Crevasse_splays_og_andre_flom-genererte_sekvenser" "Begrenset_marint_basseng"
3137.0 "6506_12-4" 15.84000 "Sandstone" -999.25   -999.25 100.0000      0.0      0.0 "f"            "vf"       "Crevasse_splays_og_andre_flom-genererte_sekvenser" "Begrenset_marint_basseng"
3137.1 "6506_12-4" 15.21000 "Sandstone" -999.25   -999.25 100.0000      0.0      0.0 "f"            "vf"       "Crevasse_splays_og_andre_flom-genererte_sekvenser" "Begrenset_marint_basseng"
3137.2 "6506_12-4" 15.42000 "Sandstone" -999.25   -999.25 100.0000      0.0      0.0 "f"            "vf"       "Crevasse_splays_og_andre_flom-genererte_sekvenser" "Begrenset_marint_basseng"
3137.3 "6506_12-4" 15.90000 "Sandstone" -999.25   -999.25 100.0000      0.0      0.0 "f"            "vf"       "Crevasse_splays_og_andre_flom-genererte_sekvenser" "Begrenset_marint_basseng"
3137.4 "6506_12-4" 16.38000 "Sandstone" -999.25   -999.25 100.0000      0.0      0.0 "f"            "vf"       "Crevasse_splays_og_andre_flom-genererte_sekvenser" "Begrenset_marint_basseng"
3137.5 "6506_12-4" 16.73000 "Sandstone" -999.25   -999.25 100.0000      0.0      0.0 "f"            "vf"       "Crevasse_splays_og_andre_flom-genererte_sekvenser" "Begrenset_marint_basseng"
