~Version
VERS  .                                 3.0 : CWLS LAS ASCII Standard - Version 3.0
WRAP  . NO                                  : One line per depth step
DLM   . SPACE                               : Column data section delimiter
SOURCE. Converted to LAS by Log Studio 4.76 : GeoProvider

~Well
STRT.         3129.0 : Start depth
STOP.         4008.7 : Stop depth
STEP.              1 : Step
NULL.        -999.25 : No-value
COMP.                : Company
WELL. 6506/12-4      : Well
FLD .                : Field
LOC .                : Location
LATI.                : Latitude
LONG.                : Longitude
GDAT.                : Geodetic datum
CNTY.                : County
STAT.                : State
CTRY.                : Country
SRVC. GeoProvider AS : Service company
DATE.                : Date
API .                : API number
RUN .                : Run number

~Parameters
WellboreName.  : Wellbore name
RigName     .  : Rig name
StartDate   .  : Start date

~Curves
DEPTH.m            .  : null {F}Depth mMD
Hole_ID.-          .  : null {S}Hole ID
GR.API             .  : null {F}Gamma Ray
Lithology1.-       .  : null {S}Lithology 1
Lithology2.-       .  : null {S}Lithology 2
Lithology3.-       .  : null {S}Lithology 3
Lithology1.%       .  : null {F}Lithology 1 percentage
Lithology2.%       .  : null {F}Lithology 2 percentage
Lithology3.%       .  : null {F}Lithology 3 percentage
Grain_size_Top.-   .  : null {S}Grain size at the top 
Grain_size_Base.-  .  : null {S}Grain size at the bottom
Sub_Environment.-  .  : null {S}Sub Environment
Gross_Environment.-.  : null {S}Gross Environment

~Ascii
# ...
3146.2 "6506_12-4" 20.48000 "Shale"   -999.25   -999.25 100.0000      0.0      0.0 "clay"         "clay"     "Hovedsaklig_bukt_med_apen_marin_forbindelse"     "Begrenset_marint_basseng"
3146.3 "6506_12-4" 21.46000 "Shale"   -999.25   -999.25 100.0000      0.0      0.0 "clay"         "clay"     "Hovedsaklig_bukt_med_apen_marin_forbindelse"     "Begrenset_marint_basseng"
3146.4 "6506_12-4" 22.44000 "Shale"   -999.25   -999.25 100.0000      0.0      0.0 "clay"         "clay"     "Hovedsaklig_bukt_med_apen_marin_forbindelse"     "Begrenset_marint_basseng"
3146.5 "6506_12-4" 22.70000 "Sandstone" "Shale"   -999.25  80.0000 20.00000      0.0 "vf/f"         "vf/f"     "Hovedsaklig_bukt_med_apen_marin_forbindelse"     "Begrenset_marint_basseng"
3146.6 "6506_12-4" 22.20000 "Sandstone" "Shale"   -999.25  80.0000 20.00000      0.0 "vf/f"         "vf/f"     "Hovedsaklig_bukt_med_apen_marin_forbindelse"     "Begrenset_marint_basseng"
3146.7 "6506_12-4" 21.76000 "Sandstone" "Shale"   -999.25  80.0000 20.00000      0.0 "vf/f"         "vf/f"     "Hovedsaklig_bukt_med_apen_marin_forbindelse"     "Begrenset_marint_basseng"
3146.8 "6506_12-4" 21.50000 "Sandstone" "Shale"   -999.25  80.0000 20.00000      0.0 "vf/f"         "vf/f"     "Hovedsaklig_bukt_med_apen_marin_forbindelse"     "Begrenset_marint_basseng"
3146.9 "6506_12-4" 21.47000 "Sandstone" "Shale"   -999.25  80.0000 20.00000      0.0 "vf/f"         "vf/f"     "Hovedsaklig_bukt_med_apen_marin_forbindelse"     "Begrenset_marint_basseng"
3147.0 "6506_12-4" 22.08000 "Shale"   -999.25   -999.25 100.0000      0.0      0.0 "clay"         "clay"     "Hovedsaklig_bukt_med_apen_marin_forbindelse"     "Begrenset_marint_basseng"
3147.1 "6506_12-4" 24.21000 "Shale"   -999.25   -999.25 100.0000      0.0      0.0 "clay"         "clay"     "Hovedsaklig_bukt_med_apen_marin_forbindelse"     "Begrenset_marint_basseng"
3147.2 "6506_12-4" 25.83000 "Shale"   -999.25   -999.25 100.0000      0.0      0.0 "clay"         "clay"     "Hovedsaklig_bukt_med_apen_marin_forbindelse"     "Begrenset_marint_basseng"
3147.3 "6506_12-4" 26.65000 "Shale"   -999.25   -999.25 100.0000      0.0      0.0 "clay"         "clay"     "Hovedsaklig_bukt_med_apen_marin_forbindelse"     "Begrenset_marint_basseng"
3147.4 "6506_12-4" 27.46000 "Shale"   -999.25   -999.25 100.0000      0.0      0.0 "clay"         "clay"     "Hovedsaklig_bukt_med_apen_marin_forbindelse"     "Begrenset_marint_basseng"
3147.5 "6506_12-4" 28.03000 "Shale"   -999.25   -999.25 100.0000      0.0      0.0 "clay"         "clay"     "Hovedsaklig_bukt_med_apen_marin_forbindelse"     "Begrenset_marint_basseng"
3147.6 "6506_12-4" 28.24000 "Shale"   -999.25   -999.25 100.0000      0.0      0.0 "clay"         "clay"     "Hovedsaklig_bukt_med_apen_marin_forbindelse"     "Begrenset_marint_basseng"
3147.7 "6506_12-4" 28.45000 "Shale"   -999.25   -999.25 100.0000      0.0      0.0 "clay"         "clay"     "Hovedsaklig_bukt_med_apen_marin_forbindelse"     "Begrenset_marint_basseng"
3147.8 "6506_12-4" 28.65000 "Shale"   -999.25   -999.25 100.0000      0.0      0.0 "clay"         "clay"     "Hovedsaklig_bukt_med_apen_marin_forbindelse"     "Begrenset_marint_basseng"
3147.9 "6506_12-4" 28.86000 "Shale"   -999.25   -999.25 100.0000      0.0      0.0 "clay"         "clay"     "Hovedsaklig_bukt_med_apen_marin_forbindelse"     "Begrenset_marint_basseng"
3148.0 "6506_12-4" 29.06000 "Shale"   -999.25   -999.25 100.0000      0.0      0.0 "clay"         "clay"     "Hovedsaklig_bukt_med_apen_marin_forbindelse"     "Begrenset_marint_basseng"
3148.1 "6506_12-4" 29.27000 "Sandstone" "Shale"   -999.25  70.0000 30.00000      0.0 "vf/f"         "vf/f"     "Hovedsaklig_bukt_med_apen_marin_forbindelse"     "Begrenset_marint_basseng"
3148.2 "6506_12-4" 29.52000 "Sandstone" "Shale"   -999.25  70.0000 30.00000      0.0 "vf/f"         "vf/f"     "Hovedsaklig_bukt_med_apen_marin_forbindelse"     "Begrenset_marint_basseng"
3148.3 "6506_12-4" 29.78000 "Sandstone" "Shale"   -999.25  70.0000 30.00000      0.0 "vf/f"         "vf/f"     "Hovedsaklig_bukt_med_apen_marin_forbindelse"     "Begrenset_marint_basseng"
3148.4 "6506_12-4" 30.20000 "Sandstone" "Shale"   -999.25  70.0000 30.00000      0.0 "vf/f"         "vf/f"     "Hovedsaklig_bukt_med_apen_marin_forbindelse"     "Begrenset_marint_basseng"
3148.5 "6506_12-4" 30.96000 "Sandstone" "Shale"   -999.25  70.0000 30.00000      0.0 "vf/f"         "vf/f"     "Hovedsaklig_bukt_med_apen_marin_forbindelse"     "Begrenset_marint_basseng"
3148.6 "6506_12-4" 31.73000 "Sandstone" "Shale"   -999.25  70.0000 30.00000      0.0 "vf/f"         "vf/f"     "Hovedsaklig_bukt_med_apen_marin_forbindelse"     "Begrenset_marint_basseng"
3148.7 "6506_12-4" 31.44000 "Sandstone" "Shale"   -999.25  70.0000 30.00000      0.0 "vf/f"         "vf/f"     "Hovedsaklig_bukt_med_apen_marin_forbindelse"     "Begrenset_marint_basseng"
3148.8 "6506_12-4" 29.75000 "Sandstone" "Shale"   -999.25  70.0000 30.00000      0.0 "vf/f"         "vf/f"     "Hovedsaklig_bukt_med_apen_marin_forbindelse"     "Begrenset_marint_basseng"
3148.9 "6506_12-4" 28.05000 "Shale"   -999.25   -999.25 100.0000      0.0      0.0 "clay"         "clay"     "Hovedsaklig_bukt_med_apen_marin_forbindelse"     "Begrenset_marint_basseng"
3149.0 "6506_12-4" 26.37000 "Shale"   -999.25   -999.25 100.0000      0.0      0.0 "clay"         "clay"     "Hovedsaklig_bukt_med_apen_marin_forbindelse"     "Begrenset_marint_basseng"
3149.1 "6506_12-4" 24.90000 "Shale"   -999.25   -999.25 100.0000      0.0      0.0 "clay"         "clay"     "Hovedsaklig_bukt_med_apen_marin_forbindelse"     "Begrenset_marint_basseng"
3149.2 "6506_12-4" 23.28000 "Shale"   -999.25   -999.25 100.0000      0.0      0.0 "clay"         "clay"     "Hovedsaklig_bukt_med_apen_marin_forbindelse"     "Begrenset_marint_basseng"
3149.3 "6506_12-4" 22.84000 "Shale"   -999.25   -999.25 100.0000      0.0      0.0 "clay"         "clay"     "Hovedsaklig_bukt_med_apen_marin_forbindelse"     "Begrenset_marint_basseng"
3149.4 "6506_12-4" 23.72000 "Shale"   -999.25   -999.25 100.0000      0.0      0.0 "clay"         "clay"     "Hovedsaklig_bukt_med_apen_marin_forbindelse"     "Begrenset_marint_basseng"
3149.5 "6506_12-4" 25.85000 "Shale"   -999.25   -999.25 100.0000      0.0      0.0 "clay"         "clay"     "Hovedsaklig_bukt_med_apen_marin_forbindelse"     "Begrenset_marint_basseng"
3149.6 "6506_12-4" 27.31000 "Shale"   -999.25   -999.25 100.0000      0.0      0.0 "clay"         "clay"     "Hovedsaklig_bukt_med_apen_marin_forbindelse"     "Begrenset_marint_basseng"
3149.7 "6506_12-4" 28.76000 "Shale"   -999.25   -999.25 100.0000      0.0      0.0 "clay"         "clay"     "Hovedsaklig_bukt_med_apen_marin_forbindelse"     "Begrenset_marint_basseng"
3149.8 "6506_12-4" 30.12000 "Shale"   -999.25   -999.25 100.0000      0.0      0.0 "clay"         "clay"     "Hovedsaklig_bukt_med_apen_marin_forbindelse"     "Begrenset_marint_basseng"
3149.9 "6506_12-4" 30.92000 "Shale"   -999.25   -999.25 100.0000      0.0      0.0 "clay"         "clay"     "Hovedsaklig_bukt_med_apen_marin_forbindelse"     "Begrenset_marint_basseng"
3150.0 "6506_12-4" 31.25000 "Shale"   -999.25   -999.25 100.0000      0.0      0.0 "clay"         "clay"     "Hovedsaklig_bukt_med_apen_marin_forbindelse"     "Begrenset_marint_basseng"
3150.1 "6506_12-4" 29.74000 "Shale"   -999.25   -999.25 100.0000      0.0      0.0 "clay"         "clay"     "Hovedsaklig_bukt_med_apen_marin_forbindelse"     "Begrenset_marint_basseng"
3150.2 "6506_12-4" 29.13000 "Shale"   -999.25   -999.25 100.0000      0.0      0.0 "clay"         "clay"     "Hovedsaklig_bukt_med_apen_marin_forbindelse"     "Begrenset_marint_basseng"
3150.3 "6506_12-4" 28.70000 "Shale"   -999.25   -999.25 100.0000      0.0      0.0 "clay"         "clay"     "Hovedsaklig_bukt_med_apen_marin_forbindelse"     "Begrenset_marint_basseng"
3150.4 "6506_12-4" 28.31000 "Shale"   -999.25   -999.25 100.0000      0.0      0.0 "clay"         "clay"     "Hovedsaklig_bukt_med_apen_marin_forbindelse"     "Begrenset_marint_basseng"
