~Version
VERS  .                                 3.0 : CWLS LAS ASCII Standard - Version 3.0
WRAP  . NO                                  : One line per depth step
DLM   . SPACE                               : Column data section delimiter
SOURCE. Converted to LAS by Log Studio 4.76 : GeoProvider

~Well
STRT.         3129.0 : Start depth
STOP.         4008.7 : Stop depth
STEP.              1 : Step
NULL.        -999.25 : No-value
COMP.                : Company
WELL. 6506/12-4      : Well
FLD .                : Field
LOC .                : Location
LATI.                : Latitude
LONG.                : Longitude
GDAT.                : Geodetic datum
CNTY.                : County
STAT.                : State
CTRY.                : Country
SRVC. GeoProvider AS : Service company
DATE.                : Date
API .                : API number
RUN .                : Run number

~Parameters
WellboreName.  : Wellbore name
RigName     .  : Rig name
StartDate   .  : Start date

~Curves
DEPTH.m            .  : null {F}Depth mMD
Hole_ID.-          .  : null {S}Hole ID
GR.API             .  : null {F}Gamma Ray
Lithology1.-       .  : null {S}Lithology 1
Lithology2.-       .  : null {S}Lithology 2
Lithology3.-       .  : null {S}Lithology 3
Lithology1.%       .  : null {F}Lithology 1 percentage
Lithology2.%       .  : null {F}Lithology 2 percentage
Lithology3.%       .  : null {F}Lithology 3 percentage
Grain_size_Top.-   .  : null {S}Grain size at the top 
Grain_size_Base.-  .  : null {S}Grain size at the bottom
Sub_Environment.-  .  : null {S}Sub Environment
Gross_Environment.-.  : null {S}Gross Environment

~Ascii
# ...
3141.9 "6506_12-4" 24.35000 "Shale"   -999.25   -999.25 100.0000      0.0      0.0 "clay"         "clay"     "Hovedsaklig_bukt_med_apen_marin_forbindelse"     "Begrenset_marint_basseng"
3142.0 "6506_12-4" 23.46000 "Shale"   -999.25   -999.25 100.0000      0.0      0.0 "clay"         "clay"     "Hovedsaklig_bukt_med_apen_marin_forbindelse"     "Begrenset_marint_basseng"
3142.1 "6506_12-4" 22.58000 "Shale"   -999.25   -999.25 100.0000      0.0      0.0 "clay"         "clay"     "Hovedsaklig_bukt_med_apen_marin_forbindelse"     "Begrenset_marint_basseng"
3142.2 "6506_12-4" 21.69000 "Sandstone" -999.25   -999.25 100.0000      0.0      0.0 "vf/f"         "vf/f"     "Hovedsaklig_bukt_med_apen_marin_forbindelse"     "Begrenset_marint_basseng"
3142.3 "6506_12-4" 20.81000 "Sandstone" -999.25   -999.25 100.0000      0.0      0.0 "vf/f"         "vf/f"     "Hovedsaklig_bukt_med_apen_marin_forbindelse"     "Begrenset_marint_basseng"
3142.4 "6506_12-4" 19.93000 "Sandstone" -999.25   -999.25 100.0000      0.0      0.0 "vf/f"         "vf/f"     "Hovedsaklig_bukt_med_apen_marin_forbindelse"     "Begrenset_marint_basseng"
3142.5 "6506_12-4" 20.04000 "Shale"   -999.25   -999.25 100.0000      0.0      0.0 "clay/silt"    "clay/silt" "Hovedsaklig_bukt_med_apen_marin_forbindelse"     "Begrenset_marint_basseng"
3142.6 "6506_12-4" 21.04000 "Shale"   -999.25   -999.25 100.0000      0.0      0.0 "clay/silt"    "clay/silt" "Hovedsaklig_bukt_med_apen_marin_forbindelse"     "Begrenset_marint_basseng"
3142.7 "6506_12-4" 22.32000 "Shale"   -999.25   -999.25 100.0000      0.0      0.0 "clay/silt"    "clay/silt" "Hovedsaklig_bukt_med_apen_marin_forbindelse"     "Begrenset_marint_basseng"
3142.8 "6506_12-4" 23.42000 "Shale"   -999.25   -999.25 100.0000      0.0      0.0 "clay/silt"    "clay/silt" "Hovedsaklig_bukt_med_apen_marin_forbindelse"     "Begrenset_marint_basseng"
3142.9 "6506_12-4" 24.19000 "Shale"   -999.25   -999.25 100.0000      0.0      0.0 "clay/silt"    "clay/silt" "Hovedsaklig_bukt_med_apen_marin_forbindelse"     "Begrenset_marint_basseng"
3143.0 "6506_12-4" 24.40000 "Shale"   -999.25   -999.25 100.0000      0.0      0.0 "clay/silt"    "clay/silt" "Hovedsaklig_bukt_med_apen_marin_forbindelse"     "Begrenset_marint_basseng"
3143.1 "6506_12-4" 24.27000 "Sandstone" -999.25   -999.25 100.0000      0.0      0.0 "vf/f"         "vf/f"     "Hovedsaklig_bukt_med_apen_marin_forbindelse"     "Begrenset_marint_basseng"
3143.2 "6506_12-4" 23.76000 "Sandstone" -999.25   -999.25 100.0000      0.0      0.0 "vf/f"         "vf/f"     "Hovedsaklig_bukt_med_apen_marin_forbindelse"     "Begrenset_marint_basseng"
3143.3 "6506_12-4" 22.98000 "Sandstone" -999.25   -999.25 100.0000      0.0      0.0 "vf/f"         "vf/f"     "Hovedsaklig_bukt_med_apen_marin_forbindelse"     "Begrenset_marint_basseng"
3143.4 "6506_12-4" 22.17000 "Shale"   -999.25   -999.25 100.0000      0.0      0.0 "clay"         "clay"     "Hovedsaklig_bukt_med_apen_marin_forbindelse"     "Begrenset_marint_basseng"
3143.5 "6506_12-4" 21.36000 "Shale"   -999.25   -999.25 100.0000      0.0      0.0 "clay"         "clay"     "Hovedsaklig_bukt_med_apen_marin_forbindelse"     "Begrenset_marint_basseng"
3143.6 "6506_12-4" 19.19000 "Shale"   -999.25   -999.25 100.0000      0.0      0.0 "clay"         "clay"     "Hovedsaklig_bukt_med_apen_marin_forbindelse"     "Begrenset_marint_basseng"
3143.7 "6506_12-4" 16.98000 "Shale"   -999.25   -999.25 100.0000      0.0      0.0 "clay"         "clay"     "Hovedsaklig_bukt_med_apen_marin_forbindelse"     "Begrenset_marint_basseng"
3143.8 "6506_12-4" 15.85000 "Shale"   -999.25   -999.25 100.0000      0.0      0.0 "clay"         "clay"     "Hovedsaklig_bukt_med_apen_marin_forbindelse"     "Begrenset_marint_basseng"
3143.9 "6506_12-4" 15.36000 "Shale"   -999.25   -999.25 100.0000      0.0      0.0 "clay"         "clay"     "Hovedsaklig_bukt_med_apen_marin_forbindelse"     "Begrenset_marint_basseng"
3144.0 "6506_12-4" 15.02000 "Shale"   -999.25   -999.25 100.0000      0.0      0.0 "clay"         "clay"     "Hovedsaklig_bukt_med_apen_marin_forbindelse"     "Begrenset_marint_basseng"
3144.1 "6506_12-4" 15.52000 "Shale"   -999.25   -999.25 100.0000      0.0      0.0 "clay"         "clay"     "Hovedsaklig_bukt_med_apen_marin_forbindelse"     "Begrenset_marint_basseng"
3144.2 "6506_12-4" 16.34000 "Shale"   -999.25   -999.25 100.0000      0.0      0.0 "clay"         "clay"     "Hovedsaklig_bukt_med_apen_marin_forbindelse"     "Begrenset_marint_basseng"
3144.3 "6506_12-4" 17.39000 "Sandstone" -999.25   -999.25 100.0000      0.0      0.0 "f/m"          "f/m"      "Hovedsaklig_bukt_med_apen_marin_forbindelse"     "Begrenset_marint_basseng"
3144.4 "6506_12-4" 18.79000 "Sandstone" -999.25   -999.25 100.0000      0.0      0.0 "f/m"          "f/m"      "Hovedsaklig_bukt_med_apen_marin_forbindelse"     "Begrenset_marint_basseng"
3144.5 "6506_12-4" 19.76000 "Sandstone" -999.25   -999.25 100.0000      0.0      0.0 "f/m"          "f/m"      "Hovedsaklig_bukt_med_apen_marin_forbindelse"     "Begrenset_marint_basseng"
3144.6 "6506_12-4" 20.43000 "Sandstone" -999.25   -999.25 100.0000      0.0      0.0 "f/m"          "f/m"      "Hovedsaklig_bukt_med_apen_marin_forbindelse"     "Begrenset_marint_basseng"
3144.7 "6506_12-4" 20.43000 "Sandstone" -999.25   -999.25 100.0000      0.0      0.0 "f/m"          "f/m"      "Hovedsaklig_bukt_med_apen_marin_forbindelse"     "Begrenset_marint_basseng"
3144.8 "6506_12-4" 19.52000 "Sandstone" -999.25   -999.25 100.0000      0.0      0.0 "f/m"          "f/m"      "Hovedsaklig_bukt_med_apen_marin_forbindelse"     "Begrenset_marint_basseng"
3144.9 "6506_12-4" 19.09000 "Shale"   -999.25   -999.25 100.0000      0.0      0.0 "clay"         "clay"     "Hovedsaklig_bukt_med_apen_marin_forbindelse"     "Begrenset_marint_basseng"
3145.0 "6506_12-4" 19.00000 "Shale"   -999.25   -999.25 100.0000      0.0      0.0 "clay"         "clay"     "Hovedsaklig_bukt_med_apen_marin_forbindelse"     "Begrenset_marint_basseng"
3145.1 "6506_12-4" 19.20000 "Shale"   -999.25   -999.25 100.0000      0.0      0.0 "clay"         "clay"     "Hovedsaklig_bukt_med_apen_marin_forbindelse"     "Begrenset_marint_basseng"
3145.2 "6506_12-4" 19.89000 "Shale"   -999.25   -999.25 100.0000      0.0      0.0 "clay"         "clay"     "Hovedsaklig_bukt_med_apen_marin_forbindelse"     "Begrenset_marint_basseng"
3145.3 "6506_12-4" 20.62000 "Shale"   -999.25   -999.25 100.0000      0.0      0.0 "clay"         "clay"     "Hovedsaklig_bukt_med_apen_marin_forbindelse"     "Begrenset_marint_basseng"
3145.4 "6506_12-4" 21.73000 "Shale"   -999.25   -999.25 100.0000      0.0      0.0 "clay"         "clay"     "Hovedsaklig_bukt_med_apen_marin_forbindelse"     "Begrenset_marint_basseng"
3145.5 "6506_12-4" 22.01000 "Shale"   -999.25   -999.25 100.0000      0.0      0.0 "clay"         "clay"     "Hovedsaklig_bukt_med_apen_marin_forbindelse"     "Begrenset_marint_basseng"
3145.6 "6506_12-4" 22.60000 "Shale"   -999.25   -999.25 100.0000      0.0      0.0 "clay"         "clay"     "Hovedsaklig_bukt_med_apen_marin_forbindelse"     "Begrenset_marint_basseng"
3145.7 "6506_12-4" 22.08000 "Shale"   -999.25   -999.25 100.0000      0.0      0.0 "clay"         "clay"     "Hovedsaklig_bukt_med_apen_marin_forbindelse"     "Begrenset_marint_basseng"
3145.8 "6506_12-4" 20.55000 "Shale"   -999.25   -999.25 100.0000      0.0      0.0 "clay"         "clay"     "Hovedsaklig_bukt_med_apen_marin_forbindelse"     "Begrenset_marint_basseng"
3145.9 "6506_12-4" 19.46000 "Shale"   -999.25   -999.25 100.0000      0.0      0.0 "clay"         "clay"     "Hovedsaklig_bukt_med_apen_marin_forbindelse"     "Begrenset_marint_basseng"
3146.0 "6506_12-4" 19.44000 "Shale"   -999.25   -999.25 100.0000      0.0      0.0 "clay"         "clay"     "Hovedsaklig_bukt_med_apen_marin_forbindelse"     "Begrenset_marint_basseng"
3146.1 "6506_12-4" 19.78000 "Shale"   -999.25   -999.25 100.0000      0.0      0.0 "clay"         "clay"     "Hovedsaklig_bukt_med_apen_marin_forbindelse"     "Begrenset_marint_basseng"
