~Version
VERS  .                                 3.0 : CWLS LAS ASCII Standard - Version 3.0
WRAP  . NO                                  : One line per depth step
DLM   . SPACE                               : Column data section delimiter
SOURCE. Converted to LAS by Log Studio 4.76 : GeoProvider

~Well
STRT.         3129.0 : Start depth
STOP.         4008.7 : Stop depth
STEP.              1 : Step
NULL.        -999.25 : No-value
COMP.                : Company
WELL. 6506/12-4      : Well
FLD .                : Field
LOC .                : Location
LATI.                : Latitude
LONG.                : Longitude
GDAT.                : Geodetic datum
CNTY.                : County
STAT.                : State
CTRY.                : Country
SRVC. GeoProvider AS : Service company
DATE.                : Date
API .                : API number
RUN .                : Run number

~Parameters
WellboreName.  : Wellbore name
RigName     .  : Rig name
StartDate   .  : Start date

~Curves
DEPTH.m            .  : null {F}Depth mMD
Hole_ID.-          .  : null {S}Hole ID
GR.API             .  : null {F}Gamma Ray
Lithology1.-       .  : null {S}Lithology 1
Lithology2.-       .  : null {S}Lithology 2
Lithology3.-       .  : null {S}Lithology 3
Lithology1.%       .  : null {F}Lithology 1 percentage
Lithology2.%       .  : null {F}Lithology 2 percentage
Lithology3.%       .  : null {F}Lithology 3 percentage
Grain_size_Top.-   .  : null {S}Grain size at the top 
Grain_size_Base.-  .  : null {S}Grain size at the bottom
Sub_Environment.-  .  : null {S}Sub Environment
Gross_Environment.-.  : null {S}Gross Environment

~Ascii
# ...
3990.5 "6506_12-4" 13.03000 "Sandstone" -999.25   -999.25 100.0000      0.0      0.0 "c"            "m"        "Ovre_strand-skranning"                           "Proksimal_delta_front/kyst"
3990.6 "6506_12-4" 12.85000 "Sandstone" -999.25   -999.25 100.0000      0.0      0.0 "c"            "m"        "Ovre_strand-skranning"                           "Proksimal_delta_front/kyst"
3990.7 "6506_12-4" 12.67000 "Sandstone" -999.25   -999.25 100.0000      0.0      0.0 "c"            "m"        "Ovre_strand-skranning"                           "Proksimal_delta_front/kyst"
3990.8 "6506_12-4" 12.49000 "Sandstone" -999.25   -999.25 100.0000      0.0      0.0 "c"            "m"        "Ovre_strand-skranning"                           "Proksimal_delta_front/kyst"
3990.9 "6506_12-4" 12.31000 "Sandstone" -999.25   -999.25 100.0000      0.0      0.0 "c"            "m"        "Ovre_strand-skranning"                           "Proksimal_delta_front/kyst"
3991.0 "6506_12-4" 12.24000 "Sandstone" -999.25   -999.25 100.0000      0.0      0.0 "c"            "m"        "Ovre_strand-skranning"                           "Proksimal_delta_front/kyst"
3991.1 "6506_12-4" 12.34000 -999.25   -999.25   -999.25 100.0000      0.0      0.0 -999.25        -999.25    "Ovre_strand-skranning"                           "Proksimal_delta_front/kyst"
3991.2 "6506_12-4" 12.45000 -999.25   -999.25   -999.25 100.0000      0.0      0.0 -999.25        -999.25    "Ovre_strand-skranning"                           "Proksimal_delta_front/kyst"
3991.3 "6506_12-4" 12.47000 -999.25   -999.25   -999.25 100.0000      0.0      0.0 -999.25        -999.25    "Ovre_strand-skranning"                           "Proksimal_delta_front/kyst"
3991.4 "6506_12-4" 12.25000 -999.25   -999.25   -999.25 100.0000      0.0      0.0 -999.25        -999.25    "Ovre_strand-skranning"                           "Proksimal_delta_front/kyst"
3991.5 "6506_12-4" 12.03000 "Sandstone" -999.25   -999.25 100.0000      0.0      0.0 "c/vc"         "c"        "Ovre_strand-skranning"                           "Proksimal_delta_front/kyst"
3991.6 "6506_12-4" 11.81000 "Sandstone" -999.25   -999.25 100.0000      0.0      0.0 "c/vc"         "c"        "Ovre_strand-skranning"                           "Proksimal_delta_front/kyst"
3991.7 "6506_12-4" 11.66000 "Sandstone" -999.25   -999.25 100.0000      0.0      0.0 "c/vc"         "c"        "Ovre_strand-skranning"                           "Proksimal_delta_front/kyst"
3991.8 "6506_12-4" 11.62000 "Sandstone" -999.25   -999.25 100.0000      0.0      0.0 "c/vc"         "c"        "Ovre_strand-skranning"                           "Proksimal_delta_front/kyst"
3991.9 "6506_12-4" 11.60000 "Sandstone" -999.25   -999.25 100.0000      0.0      0.0 "c/vc"         "c"        "Ovre_strand-skranning"                           "Proksimal_delta_front/kyst"
3992.0 "6506_12-4" 11.94000 "Sandstone" -999.25   -999.25 100.0000      0.0      0.0 "c/vc"         "c"        "Ovre_strand-skranning"                           "Proksimal_delta_front/kyst"
3992.1 "6506_12-4" 12.28000 "Sandstone" -999.25   -999.25 100.0000      0.0      0.0 "vc"           "c/vc"     "Ovre_strand-skranning"                           "Proksimal_delta_front/kyst"
3992.2 "6506_12-4" 12.48000 "Sandstone" -999.25   -999.25 100.0000      0.0      0.0 "vc"           "c/vc"     "Ovre_strand-skranning"                           "Proksimal_delta_front/kyst"
3992.3 "6506_12-4" 12.47000 "Sandstone" -999.25   -999.25 100.0000      0.0      0.0 "vc"           "c/vc"     "Ovre_strand-skranning"                           "Proksimal_delta_front/kyst"
3992.4 "6506_12-4" 12.46000 "Sandstone" -999.25   -999.25 100.0000      0.0      0.0 "vc"           "c/vc"     "Ovre_strand-skranning"                           "Proksimal_delta_front/kyst"
3992.5 "6506_12-4" 12.45000 "Sandstone" -999.25   -999.25 100.0000      0.0      0.0 "vc"           "c/vc"     "Ovre_strand-skranning"                           "Proksimal_delta_front/kyst"
3992.6 "6506_12-4" 12.44000 "Sandstone" -999.25   -999.25 100.0000      0.0      0.0 "vc"           "c/vc"     "Ovre_strand-skranning"                           "Proksimal_delta_front/kyst"
3992.7 "6506_12-4" 12.79000 "Sandstone" -999.25   -999.25 100.0000      0.0      0.0 "vc"           "c/vc"     "Ovre_strand-skranning"                           "Proksimal_delta_front/kyst"
3992.8 "6506_12-4" 13.66000 "Sandstone" -999.25   -999.25 100.0000      0.0      0.0 "vc"           "c/vc"     "Ovre_strand-skranning"                           "Proksimal_delta_front/kyst"
3992.9 "6506_12-4" 14.53000 "Sandstone" -999.25   -999.25 100.0000      0.0      0.0 "vc"           "c/vc"     "Ovre_strand-skranning"                           "Proksimal_delta_front/kyst"
3993.0 "6506_12-4" 14.62000 "Sandstone" -999.25   -999.25 100.0000      0.0      0.0 "vc"           "c/vc"     "Ovre_strand-skranning"                           "Proksimal_delta_front/kyst"
3993.1 "6506_12-4" 14.71000 "Sandstone" -999.25   -999.25 100.0000      0.0      0.0 "vc"           "c/vc"     "Ovre_strand-skranning"                           "Proksimal_delta_front/kyst"
3993.2 "6506_12-4" 14.72000 "Sandstone" -999.25   -999.25 100.0000      0.0      0.0 "vc"           "c/vc"     "Ovre_strand-skranning"                           "Proksimal_delta_front/kyst"
3993.3 "6506_12-4" 14.69000 "Sandstone" -999.25   -999.25 100.0000      0.0      0.0 "vc"           "c/vc"     "Ovre_strand-skranning"                           "Proksimal_delta_front/kyst"
3993.4 "6506_12-4" 14.66000 "Sandstone" -999.25   -999.25 100.0000      0.0      0.0 "vc"           "c/vc"     "Ovre_strand-skranning"                           "Proksimal_delta_front/kyst"
3993.5 "6506_12-4" 14.63000 "Sandstone" -999.25   -999.25 100.0000      0.0      0.0 "vc"           "c/vc"     "Ovre_strand-skranning"                           "Proksimal_delta_front/kyst"
3993.6 "6506_12-4" 14.60000 "Sandstone" -999.25   -999.25 100.0000      0.0      0.0 "vc"           "c/vc"     "Ovre_strand-skranning"                           "Proksimal_delta_front/kyst"
3993.7 "6506_12-4" 15.04000 "Sandstone" -999.25   -999.25 100.0000      0.0      0.0 "vc"           "c/vc"     "Ovre_strand-skranning"                           "Proksimal_delta_front/kyst"
3993.8 "6506_12-4" 15.49000 "Sandstone" -999.25   -999.25 100.0000      0.0      0.0 "vc"           "c/vc"     "Ovre_strand-skranning"                           "Proksimal_delta_front/kyst"
3993.9 "6506_12-4" 15.47000 "Sandstone" -999.25   -999.25 100.0000      0.0      0.0 "vc"           "c/vc"     "Ovre_strand-skranning"                           "Proksimal_delta_front/kyst"
3994.0 "6506_12-4" 15.44000 "Sandstone" -999.25   -999.25 100.0000      0.0      0.0 "vc"           "c/vc"     "Ovre_strand-skranning"                           "Proksimal_delta_front/kyst"
3994.1 "6506_12-4" 15.22000 "Sandstone" -999.25   -999.25 100.0000      0.0      0.0 "vc"           "c/vc"     "Ovre_strand-skranning"                           "Proksimal_delta_front/kyst"
3994.2 "6506_12-4" 15.01000 "Sandstone" -999.25   -999.25 100.0000      0.0      0.0 "vc"           "c/vc"     "Ovre_strand-skranning"                           "Proksimal_delta_front/kyst"
3994.3 "6506_12-4" 15.43000 "Sandstone" -999.25   -999.25 100.0000      0.0      0.0 "vc"           "c/vc"     "Ovre_strand-skranning"                           "Proksimal_delta_front/kyst"
3994.4 "6506_12-4" 15.84000 "Sandstone" -999.25   -999.25 100.0000      0.0      0.0 "vc"           "c/vc"     "Ovre_strand-skranning"                           "Proksimal_delta_front/kyst"
3994.5 "6506_12-4" 15.69000 "Sandstone" -999.25   -999.25 100.0000      0.0      0.0 "vc"           "c/vc"     "Ovre_strand-skranning"                           "Proksimal_delta_front/kyst"
3994.6 "6506_12-4" 15.08000 "Sandstone" -999.25   -999.25 100.0000      0.0      0.0 "vc"           "c/vc"     "Ovre_strand-skranning"                           "Proksimal_delta_front/kyst"
3994.7 "6506_12-4" 14.19000 "Sandstone" -999.25   -999.25 100.0000      0.0      0.0 "vc"           "c/vc"     "Ovre_strand-skranning"                           "Proksimal_delta_front/kyst"
