~Version
VERS  .                                 3.0 : CWLS LAS ASCII Standard - Version 3.0
WRAP  . NO                                  : One line per depth step
DLM   . SPACE                               : Column data section delimiter
SOURCE. Converted to LAS by Log Studio 4.76 : GeoProvider

~Well
STRT.         3129.0 : Start depth
STOP.         4008.7 : Stop depth
STEP.              1 : Step
NULL.        -999.25 : No-value
COMP.                : Company
WELL. 6506/12-4      : Well
FLD .                : Field
LOC .                : Location
LATI.                : Latitude
LONG.                : Longitude
GDAT.                : Geodetic datum
CNTY.                : County
STAT.                : State
CTRY.                : Country
SRVC. GeoProvider AS : Service company
DATE.                : Date
API .                : API number
RUN .                : Run number

~Parameters
WellboreName.  : Wellbore name
RigName     .  : Rig name
StartDate   .  : Start date

~Curves
DEPTH.m            .  : null {F}Depth mMD
Hole_ID.-          .  : null {S}Hole ID
GR.API             .  : null {F}Gamma Ray
Lithology1.-       .  : null {S}Lithology 1
Lithology2.-       .  : null {S}Lithology 2
Lithology3.-       .  : null {S}Lithology 3
Lithology1.%       .  : null {F}Lithology 1 percentage
Lithology2.%       .  : null {F}Lithology 2 percentage
Lithology3.%       .  : null {F}Lithology 3 percentage
Grain_size_Top.-   .  : null {S}Grain size at the top 
Grain_size_Base.-  .  : null {S}Grain size at the bottom
Sub_Environment.-  .  : null {S}Sub Environment
Gross_Environment.-.  : null {S}Gross Environment

~Ascii
# ...
3986.2 "6506_12-4" 18.04000 "Sandstone" -999.25   -999.25 100.0000      0.0      0.0 "m/c"          "vc/granule" "Ovre_strand-skranning"                           "Proksimal_delta_front/kyst"
3986.3 "6506_12-4" 18.16000 "Sandstone" -999.25   -999.25 100.0000      0.0      0.0 "m/c"          "vc/granule" "Ovre_strand-skranning"                           "Proksimal_delta_front/kyst"
3986.4 "6506_12-4" 18.02000 "Sandstone" -999.25   -999.25 100.0000      0.0      0.0 "m/c"          "vc/granule" "Ovre_strand-skranning"                           "Proksimal_delta_front/kyst"
3986.5 "6506_12-4" 17.58000 "Sandstone" -999.25   -999.25 100.0000      0.0      0.0 "m/c"          "vc/granule" "Ovre_strand-skranning"                           "Proksimal_delta_front/kyst"
3986.6 "6506_12-4" 17.14000 "Sandstone" -999.25   -999.25 100.0000      0.0      0.0 "m/c"          "vc/granule" "Ovre_strand-skranning"                           "Proksimal_delta_front/kyst"
3986.7 "6506_12-4" 16.64000 "Sandstone" -999.25   -999.25 100.0000      0.0      0.0 "granule"      "granule"  "Ovre_strand-skranning"                           "Proksimal_delta_front/kyst"
3986.8 "6506_12-4" 15.97000 "Sandstone" -999.25   -999.25 100.0000      0.0      0.0 "granule"      "granule"  "Ovre_strand-skranning"                           "Proksimal_delta_front/kyst"
3986.9 "6506_12-4" 15.30000 "Sandstone" -999.25   -999.25 100.0000      0.0      0.0 "granule"      "granule"  "Ovre_strand-skranning"                           "Proksimal_delta_front/kyst"
3987.0 "6506_12-4" 14.69000 "Sandstone" -999.25   -999.25 100.0000      0.0      0.0 "vc"           "vc"       "Ovre_strand-skranning"                           "Proksimal_delta_front/kyst"
3987.1 "6506_12-4" 14.37000 "Sandstone" -999.25   -999.25 100.0000      0.0      0.0 "vc"           "vc"       "Ovre_strand-skranning"                           "Proksimal_delta_front/kyst"
3987.2 "6506_12-4" 14.29000 "Sandstone" -999.25   -999.25 100.0000      0.0      0.0 "vc"           "vc"       "Ovre_strand-skranning"                           "Proksimal_delta_front/kyst"
3987.3 "6506_12-4" 14.47000 "Sandstone" -999.25   -999.25 100.0000      0.0      0.0 "vc"           "vc"       "Ovre_strand-skranning"                           "Proksimal_delta_front/kyst"
3987.4 "6506_12-4" 15.67000 "Sandstone" -999.25   -999.25 100.0000      0.0      0.0 "vc"           "vc"       "Ovre_strand-skranning"                           "Proksimal_delta_front/kyst"
3987.5 "6506_12-4" 16.68000 "Sandstone" -999.25   -999.25 100.0000      0.0      0.0 "vc"           "vc"       "Ovre_strand-skranning"                           "Proksimal_delta_front/kyst"
3987.6 "6506_12-4" 17.09000 "Sandstone" -999.25   -999.25 100.0000      0.0      0.0 "c"            "vc/granule" "Ovre_strand-skranning"                           "Proksimal_delta_front/kyst"
3987.7 "6506_12-4" 17.50000 "Sandstone" -999.25   -999.25 100.0000      0.0      0.0 "c"            "vc/granule" "Ovre_strand-skranning"                           "Proksimal_delta_front/kyst"
3987.8 "6506_12-4" 18.76000 "Sandstone" -999.25   -999.25 100.0000      0.0      0.0 "c"            "vc/granule" "Ovre_strand-skranning"                           "Proksimal_delta_front/kyst"
3987.9 "6506_12-4" 22.35000 "Sandstone" -999.25   -999.25 100.0000      0.0      0.0 "c/vc"         "c/vc"     "Ovre_strand-skranning"                           "Proksimal_delta_front/kyst"
3988.0 "6506_12-4" 25.10000 "Sandstone" -999.25   -999.25 100.0000      0.0      0.0 "c/vc"         "c/vc"     "Ovre_strand-skranning"                           "Proksimal_delta_front/kyst"
3988.1 "6506_12-4" 25.20000 "Sandstone" -999.25   -999.25 100.0000      0.0      0.0 "c/vc"         "c/vc"     "Ovre_strand-skranning"                           "Proksimal_delta_front/kyst"
3988.2 "6506_12-4" 24.92000 "Sandstone" -999.25   -999.25 100.0000      0.0      0.0 "c/vc"         "c/vc"     "Ovre_strand-skranning"                           "Proksimal_delta_front/kyst"
3988.3 "6506_12-4" 24.45000 "Sandstone" -999.25   -999.25 100.0000      0.0      0.0 "c"            "m"        "Ovre_strand-skranning"                           "Proksimal_delta_front/kyst"
3988.4 "6506_12-4" 23.35000 "Sandstone" -999.25   -999.25 100.0000      0.0      0.0 "c"            "m"        "Ovre_strand-skranning"                           "Proksimal_delta_front/kyst"
3988.5 "6506_12-4" 21.89000 "Sandstone" -999.25   -999.25 100.0000      0.0      0.0 "c"            "m"        "Ovre_strand-skranning"                           "Proksimal_delta_front/kyst"
3988.6 "6506_12-4" 20.43000 "Sandstone" -999.25   -999.25 100.0000      0.0      0.0 "c"            "m"        "Ovre_strand-skranning"                           "Proksimal_delta_front/kyst"
3988.7 "6506_12-4" 18.98000 "Sandstone" -999.25   -999.25 100.0000      0.0      0.0 "c"            "m"        "Ovre_strand-skranning"                           "Proksimal_delta_front/kyst"
3988.8 "6506_12-4" 17.16000 "Sandstone" -999.25   -999.25 100.0000      0.0      0.0 "c"            "m"        "Ovre_strand-skranning"                           "Proksimal_delta_front/kyst"
3988.9 "6506_12-4" 15.28000 "Sandstone" -999.25   -999.25 100.0000      0.0      0.0 "c"            "m"        "Ovre_strand-skranning"                           "Proksimal_delta_front/kyst"
3989.0 "6506_12-4" 13.87000 "Sandstone" -999.25   -999.25 100.0000      0.0      0.0 "c"            "m"        "Ovre_strand-skranning"                           "Proksimal_delta_front/kyst"
3989.1 "6506_12-4" 13.26000 "Sandstone" -999.25   -999.25 100.0000      0.0      0.0 "c"            "m"        "Ovre_strand-skranning"                           "Proksimal_delta_front/kyst"
3989.2 "6506_12-4" 12.96000 "Sandstone" -999.25   -999.25 100.0000      0.0      0.0 "c"            "m"        "Ovre_strand-skranning"                           "Proksimal_delta_front/kyst"
3989.3 "6506_12-4" 12.96000 "Sandstone" -999.25   -999.25 100.0000      0.0      0.0 "c"            "m"        "Ovre_strand-skranning"                           "Proksimal_delta_front/kyst"
3989.4 "6506_12-4" 13.04000 "Sandstone" -999.25   -999.25 100.0000      0.0      0.0 "c"            "m"        "Ovre_strand-skranning"                           "Proksimal_delta_front/kyst"
3989.5 "6506_12-4" 13.12000 "Sandstone" -999.25   -999.25 100.0000      0.0      0.0 "c"            "m"        "Ovre_strand-skranning"                           "Proksimal_delta_front/kyst"
3989.6 "6506_12-4" 13.22000 "Sandstone" -999.25   -999.25 100.0000      0.0      0.0 "c"            "m"        "Ovre_strand-skranning"                           "Proksimal_delta_front/kyst"
3989.7 "6506_12-4" 13.32000 "Sandstone" -999.25   -999.25 100.0000      0.0      0.0 "c"            "m"        "Ovre_strand-skranning"                           "Proksimal_delta_front/kyst"
3989.8 "6506_12-4" 13.22000 "Sandstone" -999.25   -999.25 100.0000      0.0      0.0 "c"            "m"        "Ovre_strand-skranning"                           "Proksimal_delta_front/kyst"
3989.9 "6506_12-4" 12.93000 "Sandstone" -999.25   -999.25 100.0000      0.0      0.0 "c"            "m"        "Ovre_strand-skranning"                           "Proksimal_delta_front/kyst"
3990.0 "6506_12-4" 12.64000 "Sandstone" -999.25   -999.25 100.0000      0.0      0.0 "c"            "m"        "Ovre_strand-skranning"                           "Proksimal_delta_front/kyst"
3990.1 "6506_12-4" 12.75000 "Sandstone" -999.25   -999.25 100.0000      0.0      0.0 "c"            "m"        "Ovre_strand-skranning"                           "Proksimal_delta_front/kyst"
3990.2 "6506_12-4" 12.89000 "Sandstone" -999.25   -999.25 100.0000      0.0      0.0 "c"            "m"        "Ovre_strand-skranning"                           "Proksimal_delta_front/kyst"
3990.3 "6506_12-4" 13.03000 "Sandstone" -999.25   -999.25 100.0000      0.0      0.0 "c"            "m"        "Ovre_strand-skranning"                           "Proksimal_delta_front/kyst"
3990.4 "6506_12-4" 13.17000 "Sandstone" -999.25   -999.25 100.0000      0.0      0.0 "c"            "m"        "Ovre_strand-skranning"                           "Proksimal_delta_front/kyst"
