~Version
VERS  .                                 3.0 : CWLS LAS ASCII Standard - Version 3.0
WRAP  . NO                                  : One line per depth step
DLM   . SPACE                               : Column data section delimiter
SOURCE. Converted to LAS by Log Studio 4.76 : GeoProvider

~Well
STRT.         3129.0 : Start depth
STOP.         4008.7 : Stop depth
STEP.              1 : Step
NULL.        -999.25 : No-value
COMP.                : Company
WELL. 6506/12-4      : Well
FLD .                : Field
LOC .                : Location
LATI.                : Latitude
LONG.                : Longitude
GDAT.                : Geodetic datum
CNTY.                : County
STAT.                : State
CTRY.                : Country
SRVC. GeoProvider AS : Service company
DATE.                : Date
API .                : API number
RUN .                : Run number

~Parameters
WellboreName.  : Wellbore name
RigName     .  : Rig name
StartDate   .  : Start date

~Curves
DEPTH.m            .  : null {F}Depth mMD
Hole_ID.-          .  : null {S}Hole ID
GR.API             .  : null {F}Gamma Ray
Lithology1.-       .  : null {S}Lithology 1
Lithology2.-       .  : null {S}Lithology 2
Lithology3.-       .  : null {S}Lithology 3
Lithology1.%       .  : null {F}Lithology 1 percentage
Lithology2.%       .  : null {F}Lithology 2 percentage
Lithology3.%       .  : null {F}Lithology 3 percentage
Grain_size_Top.-   .  : null {S}Grain size at the top 
Grain_size_Base.-  .  : null {S}Grain size at the bottom
Sub_Environment.-  .  : null {S}Sub Environment
Gross_Environment.-.  : null {S}Gross Environment

~Ascii
# ...
4003.4 "6506_12-4" 14.76000 "Sandstone" -999.25   -999.25 100.0000      0.0      0.0 "c/vc"         "vc/granule" "Ovre_strand-skranning"                           "Proksimal_delta_front/kyst"
4003.5 "6506_12-4" 14.78000 -999.25   -999.25   -999.25 100.0000      0.0      0.0 -999.25        -999.25    "Ovre_strand-skranning"                           "Proksimal_delta_front/kyst"
4003.6 "6506_12-4" 14.56000 -999.25   -999.25   -999.25 100.0000      0.0      0.0 -999.25        -999.25    "Ovre_strand-skranning"                           "Proksimal_delta_front/kyst"
4003.7 "6506_12-4" 14.34000 -999.25   -999.25   -999.25 100.0000      0.0      0.0 -999.25        -999.25    "Ovre_strand-skranning"                           "Proksimal_delta_front/kyst"
4003.8 "6506_12-4" 14.12000 -999.25   -999.25   -999.25 100.0000      0.0      0.0 -999.25        -999.25    "Ovre_strand-skranning"                           "Proksimal_delta_front/kyst"
4003.9 "6506_12-4" 13.90000 "Sandstone" -999.25   -999.25 100.0000      0.0      0.0 "c/vc"         "c/vc"     "Ovre_strand-skranning"                           "Proksimal_delta_front/kyst"
4004.0 "6506_12-4" 13.72000 "Sandstone" -999.25   -999.25 100.0000      0.0      0.0 "c/vc"         "c/vc"     "Ovre_strand-skranning"                           "Proksimal_delta_front/kyst"
4004.1 "6506_12-4" 13.87000 "Sandstone" -999.25   -999.25 100.0000      0.0      0.0 "c/vc"         "c/vc"     "Ovre_strand-skranning"                           "Proksimal_delta_front/kyst"
4004.2 "6506_12-4" 14.02000 "Sandstone" -999.25   -999.25 100.0000      0.0      0.0 "c/vc"         "c/vc"     "Ovre_strand-skranning"                           "Proksimal_delta_front/kyst"
4004.3 "6506_12-4" 14.18000 "Sandstone" -999.25   -999.25 100.0000      0.0      0.0 "c/vc"         "c/vc"     "Ovre_strand-skranning"                           "Proksimal_delta_front/kyst"
4004.4 "6506_12-4" 14.23000 "Sandstone" -999.25   -999.25 100.0000      0.0      0.0 "c/vc"         "c/vc"     "Ovre_strand-skranning"                           "Proksimal_delta_front/kyst"
4004.5 "6506_12-4" 14.12000 "Sandstone" -999.25   -999.25 100.0000      0.0      0.0 "c/vc"         "c/vc"     "Ovre_strand-skranning"                           "Proksimal_delta_front/kyst"
4004.6 "6506_12-4" 14.00000 "Sandstone" -999.25   -999.25 100.0000      0.0      0.0 "vc"           "vc"       "Ovre_strand-skranning"                           "Proksimal_delta_front/kyst"
4004.7 "6506_12-4" 13.79000 "Sandstone" -999.25   -999.25 100.0000      0.0      0.0 "vc"           "vc"       "Ovre_strand-skranning"                           "Proksimal_delta_front/kyst"
4004.8 "6506_12-4" 13.58000 "Sandstone" -999.25   -999.25 100.0000      0.0      0.0 "vc"           "vc"       "Ovre_strand-skranning"                           "Proksimal_delta_front/kyst"
4004.9 "6506_12-4" 13.37000 "Sandstone" -999.25   -999.25 100.0000      0.0      0.0 "vc"           "vc"       "Ovre_strand-skranning"                           "Proksimal_delta_front/kyst"
4005.0 "6506_12-4" 13.51000 "Sandstone" -999.25   -999.25 100.0000      0.0      0.0 "vc"           "vc"       "Ovre_strand-skranning"                           "Proksimal_delta_front/kyst"
4005.1 "6506_12-4" 13.75000 "Sandstone" -999.25   -999.25 100.0000      0.0      0.0 "vc"           "vc/granule" "Ovre_strand-skranning"                           "Proksimal_delta_front/kyst"
4005.2 "6506_12-4" 14.33000 "Sandstone" -999.25   -999.25 100.0000      0.0      0.0 "vc"           "vc/granule" "Ovre_strand-skranning"                           "Proksimal_delta_front/kyst"
4005.3 "6506_12-4" 14.91000 "Sandstone" -999.25   -999.25 100.0000      0.0      0.0 "vc"           "vc/granule" "Ovre_strand-skranning"                           "Proksimal_delta_front/kyst"
4005.4 "6506_12-4" 15.39000 "Sandstone" -999.25   -999.25 100.0000      0.0      0.0 "vc"           "vc/granule" "Ovre_strand-skranning"                           "Proksimal_delta_front/kyst"
4005.5 "6506_12-4" 15.54000 "Sandstone" -999.25   -999.25 100.0000      0.0      0.0 "vc"           "vc/granule" "Ovre_strand-skranning"                           "Proksimal_delta_front/kyst"
4005.6 "6506_12-4" 15.59000 "Sandstone" -999.25   -999.25 100.0000      0.0      0.0 "c/vc"         "vc"       "Ovre_strand-skranning"                           "Proksimal_delta_front/kyst"
4005.7 "6506_12-4" 15.59000 "Sandstone" -999.25   -999.25 100.0000      0.0      0.0 "c/vc"         "vc"       "Ovre_strand-skranning"                           "Proksimal_delta_front/kyst"
4005.8 "6506_12-4"  -999.25 "Sandstone" -999.25   -999.25 100.0000      0.0      0.0 "c/vc"         "vc"       "Ovre_strand-skranning"                           "Proksimal_delta_front/kyst"
4005.9 "6506_12-4"  -999.25 "Sandstone" -999.25   -999.25 100.0000      0.0      0.0 "c/vc"         "vc"       "Ovre_strand-skranning"                           "Proksimal_delta_front/kyst"
4006.0 "6506_12-4"  -999.25 "Sandstone" -999.25   -999.25 100.0000      0.0      0.0 "c/vc"         "vc/granule" "Ovre_strand-skranning"                           "Proksimal_delta_front/kyst"
4006.1 "6506_12-4"  -999.25 "Sandstone" -999.25   -999.25 100.0000      0.0      0.0 "c/vc"         "vc/granule" "Ovre_strand-skranning"                           "Proksimal_delta_front/kyst"
4006.2 "6506_12-4"  -999.25 "Sandstone" -999.25   -999.25 100.0000      0.0      0.0 "c/vc"         "vc/granule" "Ovre_strand-skranning"                           "Proksimal_delta_front/kyst"
4006.3 "6506_12-4"  -999.25 "Sandstone" -999.25   -999.25 100.0000      0.0      0.0 "c/vc"         "vc/granule" "Ovre_strand-skranning"                           "Proksimal_delta_front/kyst"
4006.4 "6506_12-4"  -999.25 "Sandstone" -999.25   -999.25 100.0000      0.0      0.0 "c/vc"         "vc/granule" "Ovre_strand-skranning"                           "Proksimal_delta_front/kyst"
4006.5 "6506_12-4"  -999.25 "Sandstone" -999.25   -999.25 100.0000      0.0      0.0 "c/vc"         "c/vc"     "Ovre_strand-skranning"                           "Proksimal_delta_front/kyst"
4006.6 "6506_12-4"  -999.25 "Sandstone" -999.25   -999.25 100.0000      0.0      0.0 "c/vc"         "c/vc"     "Ovre_strand-skranning"                           "Proksimal_delta_front/kyst"
4006.7 "6506_12-4"  -999.25 "Sandstone" -999.25   -999.25 100.0000      0.0      0.0 "c/vc"         "c/vc"     "Ovre_strand-skranning"                           "Proksimal_delta_front/kyst"
4006.8 "6506_12-4"  -999.25 "Sandstone" -999.25   -999.25 100.0000      0.0      0.0 "c/vc"         "c/vc"     "Ovre_strand-skranning"                           "Proksimal_delta_front/kyst"
4006.9 "6506_12-4"  -999.25 "Sandstone" -999.25   -999.25 100.0000      0.0      0.0 "c/vc"         "c/vc"     "Ovre_strand-skranning"                           "Proksimal_delta_front/kyst"
4007.0 "6506_12-4"  -999.25 "Sandstone" -999.25   -999.25 100.0000      0.0      0.0 "c/vc"         "c/vc"     "Ovre_strand-skranning"                           "Proksimal_delta_front/kyst"
4007.1 "6506_12-4"  -999.25 "Sandstone" -999.25   -999.25 100.0000      0.0      0.0 "c/vc"         "c/vc"     "Ovre_strand-skranning"                           "Proksimal_delta_front/kyst"
4007.2 "6506_12-4"  -999.25 "Sandstone" -999.25   -999.25 100.0000      0.0      0.0 "c/vc"         "c/vc"     "Ovre_strand-skranning"                           "Proksimal_delta_front/kyst"
4007.3 "6506_12-4"  -999.25 "Sandstone" -999.25   -999.25 100.0000      0.0      0.0 "c/vc"         "c/vc"     "Ovre_strand-skranning"                           "Proksimal_delta_front/kyst"
4007.4 "6506_12-4"  -999.25 "Sandstone" -999.25   -999.25 100.0000      0.0      0.0 "c/vc"         "c/vc"     "Ovre_strand-skranning"                           "Proksimal_delta_front/kyst"
4007.5 "6506_12-4"  -999.25 "Sandstone" -999.25   -999.25 100.0000      0.0      0.0 "c/vc"         "c/vc"     "Ovre_strand-skranning"                           "Proksimal_delta_front/kyst"
4007.6 "6506_12-4"  -999.25 "Sandstone" -999.25   -999.25 100.0000      0.0      0.0 "c/vc"         "c/vc"     "Ovre_strand-skranning"                           "Proksimal_delta_front/kyst"
