~Version
VERS  .                                 3.0 : CWLS LAS ASCII Standard - Version 3.0
WRAP  . NO                                  : One line per depth step
DLM   . SPACE                               : Column data section delimiter
SOURCE. Converted to LAS by Log Studio 4.76 : GeoProvider

~Well
STRT.         3129.0 : Start depth
STOP.         4008.7 : Stop depth
STEP.              1 : Step
NULL.        -999.25 : No-value
COMP.                : Company
WELL. 6506/12-4      : Well
FLD .                : Field
LOC .                : Location
LATI.                : Latitude
LONG.                : Longitude
GDAT.                : Geodetic datum
CNTY.                : County
STAT.                : State
CTRY.                : Country
SRVC. GeoProvider AS : Service company
DATE.                : Date
API .                : API number
RUN .                : Run number

~Parameters
WellboreName.  : Wellbore name
RigName     .  : Rig name
StartDate   .  : Start date

~Curves
DEPTH.m            .  : null {F}Depth mMD
Hole_ID.-          .  : null {S}Hole ID
GR.API             .  : null {F}Gamma Ray
Lithology1.-       .  : null {S}Lithology 1
Lithology2.-       .  : null {S}Lithology 2
Lithology3.-       .  : null {S}Lithology 3
Lithology1.%       .  : null {F}Lithology 1 percentage
Lithology2.%       .  : null {F}Lithology 2 percentage
Lithology3.%       .  : null {F}Lithology 3 percentage
Grain_size_Top.-   .  : null {S}Grain size at the top 
Grain_size_Base.-  .  : null {S}Grain size at the bottom
Sub_Environment.-  .  : null {S}Sub Environment
Gross_Environment.-.  : null {S}Gross Environment

~Ascii
# ...
3137.6 "6506_12-4" 16.81000 "Sandstone" "Limestone" "Shale"  67.0000 30.00000 3.000000 "f/m"          "clay"     "Crevasse_splays_og_andre_flom-genererte_sekvenser" "Begrenset_marint_basseng"
3137.7 "6506_12-4" 16.89000 "Sandstone" "Limestone" "Shale"  67.0000 30.00000 3.000000 "f/m"          "clay"     "Crevasse_splays_og_andre_flom-genererte_sekvenser" "Begrenset_marint_basseng"
3137.8 "6506_12-4" 17.37000 "Sandstone" "Limestone" "Shale"  67.0000 30.00000 3.000000 "f/m"          "clay"     "Crevasse_splays_og_andre_flom-genererte_sekvenser" "Begrenset_marint_basseng"
3137.9 "6506_12-4" 18.55000 "Sandstone" "Limestone" "Shale"  67.0000 30.00000 3.000000 "f/m"          "clay"     "Crevasse_splays_og_andre_flom-genererte_sekvenser" "Begrenset_marint_basseng"
3138.0 "6506_12-4" 19.73000 "Sandstone" "Limestone" "Shale"  67.0000 30.00000 3.000000 "f/m"          "clay"     "Crevasse_splays_og_andre_flom-genererte_sekvenser" "Begrenset_marint_basseng"
3138.1 "6506_12-4" 20.85000 "Sandstone" "Limestone" "Shale"  67.0000 30.00000 3.000000 "f/m"          "clay"     "Crevasse_splays_og_andre_flom-genererte_sekvenser" "Begrenset_marint_basseng"
3138.2 "6506_12-4" 23.03000 "Sandstone" "Limestone" "Shale"  67.0000 30.00000 3.000000 "f/m"          "clay"     "Crevasse_splays_og_andre_flom-genererte_sekvenser" "Begrenset_marint_basseng"
3138.3 "6506_12-4" 25.63000 "Sandstone" "Limestone" "Shale"  67.0000 30.00000 3.000000 "f/m"          "clay"     "Crevasse_splays_og_andre_flom-genererte_sekvenser" "Begrenset_marint_basseng"
3138.4 "6506_12-4" 27.28000 "Sandstone" "Limestone" "Shale"  67.0000 30.00000 3.000000 "f/m"          "clay"     "Crevasse_splays_og_andre_flom-genererte_sekvenser" "Begrenset_marint_basseng"
3138.5 "6506_12-4" 28.86000 "Sandstone" "Limestone" "Shale"  67.0000 30.00000 3.000000 "f/m"          "clay"     "Crevasse_splays_og_andre_flom-genererte_sekvenser" "Begrenset_marint_basseng"
3138.6 "6506_12-4" 29.64000 "Sandstone" "Limestone" "Shale"  67.0000 30.00000 3.000000 "f/m"          "clay"     "Crevasse_splays_og_andre_flom-genererte_sekvenser" "Begrenset_marint_basseng"
3138.7 "6506_12-4" 30.39000 "Sandstone" "Limestone" "Shale"  67.0000 30.00000 3.000000 "f/m"          "clay"     "Crevasse_splays_og_andre_flom-genererte_sekvenser" "Begrenset_marint_basseng"
3138.8 "6506_12-4" 30.39000 "Shale"   -999.25   -999.25 100.0000      0.0      0.0 -999.25        -999.25    "Crevasse_splays_og_andre_flom-genererte_sekvenser" "Begrenset_marint_basseng"
3138.9 "6506_12-4" 30.33000 "Sandstone" -999.25   -999.25 100.0000      0.0      0.0 "m/c"          "m/c"      "Crevasse_splays_og_andre_flom-genererte_sekvenser" "Begrenset_marint_basseng"
3139.0 "6506_12-4" 30.15000 "Sandstone" -999.25   -999.25 100.0000      0.0      0.0 "m/c"          "m/c"      "Crevasse_splays_og_andre_flom-genererte_sekvenser" "Begrenset_marint_basseng"
3139.1 "6506_12-4" 30.22000 "Sandstone" -999.25   -999.25 100.0000      0.0      0.0 "m/c"          "m/c"      "Crevasse_splays_og_andre_flom-genererte_sekvenser" "Begrenset_marint_basseng"
3139.2 "6506_12-4" 30.75000 "Sandstone" -999.25   -999.25 100.0000      0.0      0.0 "m/c"          "m/c"      "Crevasse_splays_og_andre_flom-genererte_sekvenser" "Begrenset_marint_basseng"
3139.3 "6506_12-4" 31.29000 "Sandstone" -999.25   -999.25 100.0000      0.0      0.0 "m/c"          "m/c"      "Crevasse_splays_og_andre_flom-genererte_sekvenser" "Begrenset_marint_basseng"
3139.4 "6506_12-4" 31.83000 "Sandstone" -999.25   -999.25 100.0000      0.0      0.0 "m/c"          "m/c"      "Crevasse_splays_og_andre_flom-genererte_sekvenser" "Begrenset_marint_basseng"
3139.5 "6506_12-4" 32.36000 "Sandstone" "Shale"   -999.25  95.0000  5.00000      0.0 "f/m"          "m/c"      "Crevasse_splays_og_andre_flom-genererte_sekvenser" "Begrenset_marint_basseng"
3139.6 "6506_12-4" 32.05000 "Sandstone" "Shale"   -999.25  95.0000  5.00000      0.0 "f/m"          "m/c"      "Crevasse_splays_og_andre_flom-genererte_sekvenser" "Begrenset_marint_basseng"
3139.7 "6506_12-4" 31.75000 "Sandstone" "Shale"   -999.25  95.0000  5.00000      0.0 "f/m"          "m/c"      "Crevasse_splays_og_andre_flom-genererte_sekvenser" "Begrenset_marint_basseng"
3139.8 "6506_12-4" 31.45000 "Sandstone" "Shale"   -999.25  97.0000  3.00000      0.0 "f/m"          "m/c"      "Crevasse_splays_og_andre_flom-genererte_sekvenser" "Begrenset_marint_basseng"
3139.9 "6506_12-4" 31.14000 "Sandstone" "Shale"   -999.25  97.0000  3.00000      0.0 "f/m"          "m/c"      "Crevasse_splays_og_andre_flom-genererte_sekvenser" "Begrenset_marint_basseng"
3140.0 "6506_12-4" 30.84000 "Sandstone" "Shale"   -999.25  97.0000  3.00000      0.0 "f/m"          "m/c"      "Crevasse_splays_og_andre_flom-genererte_sekvenser" "Begrenset_marint_basseng"
3140.1 "6506_12-4" 30.58000 "Sandstone" "Shale"   -999.25  97.0000  3.00000      0.0 "f/m"          "m/c"      "Crevasse_splays_og_andre_flom-genererte_sekvenser" "Begrenset_marint_basseng"
3140.2 "6506_12-4" 30.41000 "Sandstone" "Shale"   -999.25  97.0000  3.00000      0.0 "f/m"          "m/c"      "Crevasse_splays_og_andre_flom-genererte_sekvenser" "Begrenset_marint_basseng"
3140.3 "6506_12-4" 30.24000 "Sandstone" "Shale"   -999.25  97.0000  3.00000      0.0 "f/m"          "m/c"      "Crevasse_splays_og_andre_flom-genererte_sekvenser" "Begrenset_marint_basseng"
3140.4 "6506_12-4" 29.02000 "Sandstone" "Shale"   -999.25  97.0000  3.00000      0.0 "f/m"          "m/c"      "Crevasse_splays_og_andre_flom-genererte_sekvenser" "Begrenset_marint_basseng"
3140.5 "6506_12-4" 27.66000 "Sandstone" "Shale"   -999.25  97.0000  3.00000      0.0 "f/m"          "m/c"      "Crevasse_splays_og_andre_flom-genererte_sekvenser" "Begrenset_marint_basseng"
3140.6 "6506_12-4" 26.30000 "Shale"   -999.25   -999.25 100.0000      0.0      0.0 "clay"         "clay"     "Crevasse_splays_og_andre_flom-genererte_sekvenser" "Begrenset_marint_basseng"
3140.7 "6506_12-4" 24.94000 "Shale"   -999.25   -999.25 100.0000      0.0      0.0 "clay"         "clay"     "Crevasse_splays_og_andre_flom-genererte_sekvenser" "Begrenset_marint_basseng"
3140.8 "6506_12-4" 23.80000 "Shale"   -999.25   -999.25 100.0000      0.0      0.0 "clay"         "clay"     "Crevasse_splays_og_andre_flom-genererte_sekvenser" "Begrenset_marint_basseng"
3140.9 "6506_12-4" 22.83000 "Shale"   -999.25   -999.25 100.0000      0.0      0.0 "clay"         "clay"     "Crevasse_splays_og_andre_flom-genererte_sekvenser" "Begrenset_marint_basseng"
3141.0 "6506_12-4" 22.18000 "Sandstone" -999.25   -999.25 100.0000      0.0      0.0 "vf/f"         "vf/f"     "Crevasse_splays_og_andre_flom-genererte_sekvenser" "Begrenset_marint_basseng"
3141.1 "6506_12-4" 22.46000 "Sandstone" -999.25   -999.25 100.0000      0.0      0.0 "vf/f"         "vf/f"     "Crevasse_splays_og_andre_flom-genererte_sekvenser" "Begrenset_marint_basseng"
3141.2 "6506_12-4" 24.06000 "Sandstone" -999.25   -999.25 100.0000      0.0      0.0 "vf/f"         "vf/f"     "Crevasse_splays_og_andre_flom-genererte_sekvenser" "Begrenset_marint_basseng"
3141.3 "6506_12-4" 25.40000 "Shale"   -999.25   -999.25 100.0000      0.0      0.0 "clay"         "clay"     "Crevasse_splays_og_andre_flom-genererte_sekvenser" "Begrenset_marint_basseng"
3141.4 "6506_12-4" 26.25000 "Shale"   -999.25   -999.25 100.0000      0.0      0.0 "clay"         "clay"     "Crevasse_splays_og_andre_flom-genererte_sekvenser" "Begrenset_marint_basseng"
3141.5 "6506_12-4" 26.91000 "Shale"   -999.25   -999.25 100.0000      0.0      0.0 "clay"         "clay"     "Crevasse_splays_og_andre_flom-genererte_sekvenser" "Begrenset_marint_basseng"
3141.6 "6506_12-4" 26.94000 "Shale"   -999.25   -999.25 100.0000      0.0      0.0 "clay"         "clay"     "Crevasse_splays_og_andre_flom-genererte_sekvenser" "Begrenset_marint_basseng"
3141.7 "6506_12-4" 26.12000 "Shale"   -999.25   -999.25 100.0000      0.0      0.0 "clay"         "clay"     "Crevasse_splays_og_andre_flom-genererte_sekvenser" "Begrenset_marint_basseng"
3141.8 "6506_12-4" 25.23000 "Shale"   -999.25   -999.25 100.0000      0.0      0.0 "clay"         "clay"     "Crevasse_splays_og_andre_flom-genererte_sekvenser" "Begrenset_marint_basseng"
