~Version
VERS  .                                 3.0 : CWLS LAS ASCII Standard - Version 3.0
WRAP  . NO                                  : One line per depth step
DLM   . SPACE                               : Column data section delimiter
SOURCE. Converted to LAS by Log Studio 4.76 : GeoProvider

~Well
STRT.         3129.0 : Start depth
STOP.         4008.7 : Stop depth
STEP.              1 : Step
NULL.        -999.25 : No-value
COMP.                : Company
WELL. 6506/12-4      : Well
FLD .                : Field
LOC .                : Location
LATI.                : Latitude
LONG.                : Longitude
GDAT.                : Geodetic datum
CNTY.                : County
STAT.                : State
CTRY.                : Country
SRVC. GeoProvider AS : Service company
DATE.                : Date
API .                : API number
RUN .                : Run number

~Parameters
WellboreName.  : Wellbore name
RigName     .  : Rig name
StartDate   .  : Start date

~Curves
DEPTH.m            .  : null {F}Depth mMD
Hole_ID.-          .  : null {S}Hole ID
GR.API             .  : null {F}Gamma Ray
Lithology1.-       .  : null {S}Lithology 1
Lithology2.-       .  : null {S}Lithology 2
Lithology3.-       .  : null {S}Lithology 3
Lithology1.%       .  : null {F}Lithology 1 percentage
Lithology2.%       .  : null {F}Lithology 2 percentage
Lithology3.%       .  : null {F}Lithology 3 percentage
Grain_size_Top.-   .  : null {S}Grain size at the top 
Grain_size_Base.-  .  : null {S}Grain size at the bottom
Sub_Environment.-  .  : null {S}Sub Environment
Gross_Environment.-.  : null {S}Gross Environment

~Ascii
# ...
3973.3 "6506_12-4" 47.53000 "Shale"   -999.25   -999.25 100.0000      0.0      0.0 "silt/vf"      "silt/vf"  "Apen_marin"                                      -999.25                   
3973.4 "6506_12-4" 48.95000 "Shale"   -999.25   -999.25 100.0000      0.0      0.0 "silt/vf"      "silt/vf"  "Apen_marin"                                      -999.25                   
3973.5 "6506_12-4" 49.56000 "Shale"   -999.25   -999.25 100.0000      0.0      0.0 "silt/vf"      "silt/vf"  "Apen_marin"                                      -999.25                   
3973.6 "6506_12-4" 51.09000 "Shale"   -999.25   -999.25 100.0000      0.0      0.0 "silt/vf"      "silt/vf"  "Apen_marin"                                      -999.25                   
3973.7 "6506_12-4" 53.34000 "Shale"   -999.25   -999.25 100.0000      0.0      0.0 "silt/vf"      "silt/vf"  "Apen_marin"                                      -999.25                   
3973.8 "6506_12-4" 54.44000 "Shale"   -999.25   -999.25 100.0000      0.0      0.0 "silt/vf"      "silt/vf"  "Apen_marin"                                      -999.25                   
3973.9 "6506_12-4" 55.42000 "Shale"   -999.25   -999.25 100.0000      0.0      0.0 "silt/vf"      "silt/vf"  "Apen_marin"                                      -999.25                   
3974.0 "6506_12-4" 56.77000 "Shale"   -999.25   -999.25 100.0000      0.0      0.0 "silt/vf"      "silt/vf"  "Apen_marin"                                      -999.25                   
3974.1 "6506_12-4" 58.26000 "Shale"   -999.25   -999.25 100.0000      0.0      0.0 "silt/vf"      "silt/vf"  "Apen_marin"                                      -999.25                   
3974.2 "6506_12-4" 58.46000 "Shale"   -999.25   -999.25 100.0000      0.0      0.0 "silt/vf"      "silt/vf"  "Apen_marin"                                      -999.25                   
3974.3 "6506_12-4" 58.23000 "Shale"   -999.25   -999.25 100.0000      0.0      0.0 "silt/vf"      "silt/vf"  "Apen_marin"                                      -999.25                   
3974.4 "6506_12-4" 57.77000 "Shale"   -999.25   -999.25 100.0000      0.0      0.0 "silt/vf"      "silt/vf"  "Apen_marin"                                      -999.25                   
3974.5 "6506_12-4" 56.92000 "Shale"   -999.25   -999.25 100.0000      0.0      0.0 "silt/vf"      "silt/vf"  "Apen_marin"                                      -999.25                   
3974.6 "6506_12-4" 55.69000 "Shale"   -999.25   -999.25 100.0000      0.0      0.0 "silt/vf"      "silt/vf"  "Apen_marin"                                      -999.25                   
3974.7 "6506_12-4" 54.02000 "Shale"   -999.25   -999.25 100.0000      0.0      0.0 "silt/vf"      "silt/vf"  "Apen_marin"                                      -999.25                   
3974.8 "6506_12-4" 51.72000 "Shale"   -999.25   -999.25 100.0000      0.0      0.0 "silt/vf"      "silt/vf"  "Apen_marin"                                      -999.25                   
3974.9 "6506_12-4" 48.04000 "Shale"   -999.25   -999.25 100.0000      0.0      0.0 "silt/vf"      "silt/vf"  "Apen_marin"                                      -999.25                   
3975.0 "6506_12-4" 46.31000 "Shale"   -999.25   -999.25 100.0000      0.0      0.0 "silt/vf"      "silt/vf"  "Apen_marin"                                      -999.25                   
3975.1 "6506_12-4" 34.19000 "Shale"   -999.25   -999.25 100.0000      0.0      0.0 "silt/vf"      "silt/vf"  "Apen_marin"                                      -999.25                   
3975.2 "6506_12-4" 30.21000 "Shale"   -999.25   -999.25 100.0000      0.0      0.0 "silt/vf"      "silt/vf"  "Apen_marin"                                      -999.25                   
3975.3 "6506_12-4" 27.78000 "Shale"   -999.25   -999.25 100.0000      0.0      0.0 "silt/vf"      "silt/vf"  "Apen_marin"                                      -999.25                   
3975.4 "6506_12-4" 24.74000 "Shale"   -999.25   -999.25 100.0000      0.0      0.0 "silt/vf"      "silt/vf"  "Apen_marin"                                      -999.25                   
3975.5 "6506_12-4" 22.24000 "Shale"   -999.25   -999.25 100.0000      0.0      0.0 "silt/vf"      "silt/vf"  "Apen_marin"                                      -999.25                   
3975.6 "6506_12-4" 21.02000 "Shale"   -999.25   -999.25 100.0000      0.0      0.0 "silt/vf"      "silt/vf"  "Apen_marin"                                      -999.25                   
3975.7 "6506_12-4" 20.12000 "Shale"   -999.25   -999.25 100.0000      0.0      0.0 "silt/vf"      "silt/vf"  "Apen_marin"                                      -999.25                   
3975.8 "6506_12-4" 17.86000 "Shale"   -999.25   -999.25 100.0000      0.0      0.0 "silt/vf"      "silt/vf"  "Apen_marin"                                      -999.25                   
3975.9 "6506_12-4" 12.52000 "Shale"   -999.25   -999.25 100.0000      0.0      0.0 "silt/vf"      "silt/vf"  "Apen_marin"                                      -999.25                   
3976.0 "6506_12-4"  9.35000 "Shale"   -999.25   -999.25 100.0000      0.0      0.0 "silt/vf"      "silt/vf"  "Apen_marin"                                      -999.25                   
3976.1 "6506_12-4"  8.50000 "Shale"   -999.25   -999.25 100.0000      0.0      0.0 "silt/vf"      "silt/vf"  "Apen_marin"                                      -999.25                   
3976.2 "6506_12-4"  8.20000 "Shale"   -999.25   -999.25 100.0000      0.0      0.0 "silt/vf"      "silt/vf"  "Apen_marin"                                      -999.25                   
3976.3 "6506_12-4"  8.06000 "Shale"   -999.25   -999.25 100.0000      0.0      0.0 "silt/vf"      "silt/vf"  "Apen_marin"                                      -999.25                   
3976.4 "6506_12-4"  8.52000 "Shale"   -999.25   -999.25 100.0000      0.0      0.0 "silt/vf"      "silt/vf"  "Apen_marin"                                      -999.25                   
3976.5 "6506_12-4"  9.00000 "Shale"   -999.25   -999.25 100.0000      0.0      0.0 "silt/vf"      "silt/vf"  "Apen_marin"                                      -999.25                   
3976.6 "6506_12-4"  9.73000 "Shale"   -999.25   -999.25 100.0000      0.0      0.0 "silt/vf"      "silt/vf"  "Apen_marin"                                      -999.25                   
3976.7 "6506_12-4" 10.45000 "Shale"   -999.25   -999.25 100.0000      0.0      0.0 "silt/vf"      "silt/vf"  "Apen_marin"                                      -999.25                   
3976.8 "6506_12-4" 10.69000 "Shale"   -999.25   -999.25 100.0000      0.0      0.0 "silt/vf"      "silt/vf"  "Transgression"                                   -999.25                   
3976.9 "6506_12-4" 10.71000 "Shale"   -999.25   -999.25 100.0000      0.0      0.0 "silt/vf"      "silt/vf"  "Transgression"                                   -999.25                   
3977.0 "6506_12-4" 10.39000 "Shale"   -999.25   -999.25 100.0000      0.0      0.0 "silt/vf"      "silt/vf"  "Transgression"                                   -999.25                   
3977.1 "6506_12-4" 10.08000 "Shale"   -999.25   -999.25 100.0000      0.0      0.0 "silt/vf"      "silt/vf"  "Transgression"                                   -999.25                   
3977.2 "6506_12-4"  9.78000 "Shale"   -999.25   -999.25 100.0000      0.0      0.0 "silt/vf"      "silt/vf"  "Transgression"                                   -999.25                   
3977.3 "6506_12-4"  9.54000 "Shale"   -999.25   -999.25 100.0000      0.0      0.0 "silt/vf"      "silt/vf"  "Transgression"                                   -999.25                   
3977.4 "6506_12-4"  9.37000 "Sandstone" -999.25   -999.25 100.0000      0.0      0.0 "granule/pebble" "pebble"   "Ovre_strand-skranning"                           "Proksimal_delta_front/kyst"
3977.5 "6506_12-4"  9.34000 "Sandstone" -999.25   -999.25 100.0000      0.0      0.0 "granule/pebble" "pebble"   "Ovre_strand-skranning"                           "Proksimal_delta_front/kyst"
