~Version
VERS  .                                 3.0 : CWLS LAS ASCII Standard - Version 3.0
WRAP  . NO                                  : One line per depth step
DLM   . SPACE                               : Column data section delimiter
SOURCE. Converted to LAS by Log Studio 4.76 : GeoProvider

~Well
STRT.         3129.0 : Start depth
STOP.         4008.7 : Stop depth
STEP.              1 : Step
NULL.        -999.25 : No-value
COMP.                : Company
WELL. 6506/12-4      : Well
FLD .                : Field
LOC .                : Location
LATI.                : Latitude
LONG.                : Longitude
GDAT.                : Geodetic datum
CNTY.                : County
STAT.                : State
CTRY.                : Country
SRVC. GeoProvider AS : Service company
DATE.                : Date
API .                : API number
RUN .                : Run number

~Parameters
WellboreName.  : Wellbore name
RigName     .  : Rig name
StartDate   .  : Start date

~Curves
DEPTH.m            .  : null {F}Depth mMD
Hole_ID.-          .  : null {S}Hole ID
GR.API             .  : null {F}Gamma Ray
Lithology1.-       .  : null {S}Lithology 1
Lithology2.-       .  : null {S}Lithology 2
Lithology3.-       .  : null {S}Lithology 3
Lithology1.%       .  : null {F}Lithology 1 percentage
Lithology2.%       .  : null {F}Lithology 2 percentage
Lithology3.%       .  : null {F}Lithology 3 percentage
Grain_size_Top.-   .  : null {S}Grain size at the top 
Grain_size_Base.-  .  : null {S}Grain size at the bottom
Sub_Environment.-  .  : null {S}Sub Environment
Gross_Environment.-.  : null {S}Gross Environment

~Ascii
# ...
3994.8 "6506_12-4" 13.31000 "Sandstone" -999.25   -999.25 100.0000      0.0      0.0 "vc"           "c/vc"     "Ovre_strand-skranning"                           "Proksimal_delta_front/kyst"
3994.9 "6506_12-4" 12.96000 "Sandstone" -999.25   -999.25 100.0000      0.0      0.0 "vc"           "c/vc"     "Ovre_strand-skranning"                           "Proksimal_delta_front/kyst"
3995.0 "6506_12-4" 13.01000 "Sandstone" -999.25   -999.25 100.0000      0.0      0.0 "vc"           "c/vc"     "Ovre_strand-skranning"                           "Proksimal_delta_front/kyst"
3995.1 "6506_12-4" 13.51000 "Sandstone" -999.25   -999.25 100.0000      0.0      0.0 "vc"           "c/vc"     "Ovre_strand-skranning"                           "Proksimal_delta_front/kyst"
3995.2 "6506_12-4" 14.02000 "Sandstone" -999.25   -999.25 100.0000      0.0      0.0 "vc"           "c/vc"     "Ovre_strand-skranning"                           "Proksimal_delta_front/kyst"
3995.3 "6506_12-4" 14.52000 "Sandstone" -999.25   -999.25 100.0000      0.0      0.0 "vc"           "c/vc"     "Ovre_strand-skranning"                           "Proksimal_delta_front/kyst"
3995.4 "6506_12-4" 15.00000 "Sandstone" -999.25   -999.25 100.0000      0.0      0.0 "vc"           "c/vc"     "Ovre_strand-skranning"                           "Proksimal_delta_front/kyst"
3995.5 "6506_12-4" 15.43000 "Sandstone" -999.25   -999.25 100.0000      0.0      0.0 "vc"           "c/vc"     "Ovre_strand-skranning"                           "Proksimal_delta_front/kyst"
3995.6 "6506_12-4" 15.85000 "Sandstone" -999.25   -999.25 100.0000      0.0      0.0 "vc"           "c/vc"     "Ovre_strand-skranning"                           "Proksimal_delta_front/kyst"
3995.7 "6506_12-4" 16.05000 "Sandstone" -999.25   -999.25 100.0000      0.0      0.0 "vc"           "c/vc"     "Ovre_strand-skranning"                           "Proksimal_delta_front/kyst"
3995.8 "6506_12-4" 16.10000 "Sandstone" -999.25   -999.25 100.0000      0.0      0.0 "vc"           "c/vc"     "Ovre_strand-skranning"                           "Proksimal_delta_front/kyst"
3995.9 "6506_12-4" 15.89000 "Sandstone" -999.25   -999.25 100.0000      0.0      0.0 "vc"           "c/vc"     "Ovre_strand-skranning"                           "Proksimal_delta_front/kyst"
3996.0 "6506_12-4" 15.56000 "Sandstone" -999.25   -999.25 100.0000      0.0      0.0 "vc"           "c/vc"     "Ovre_strand-skranning"                           "Proksimal_delta_front/kyst"
3996.1 "6506_12-4" 14.98000 "Sandstone" -999.25   -999.25 100.0000      0.0      0.0 "vc"           "c/vc"     "Ovre_strand-skranning"                           "Proksimal_delta_front/kyst"
3996.2 "6506_12-4" 14.26000 "Sandstone" -999.25   -999.25 100.0000      0.0      0.0 "vc"           "c/vc"     "Ovre_strand-skranning"                           "Proksimal_delta_front/kyst"
3996.3 "6506_12-4" 13.16000 "Sandstone" -999.25   -999.25 100.0000      0.0      0.0 "vc"           "c/vc"     "Ovre_strand-skranning"                           "Proksimal_delta_front/kyst"
3996.4 "6506_12-4" 12.21000 "Sandstone" -999.25   -999.25 100.0000      0.0      0.0 "vc"           "c/vc"     "Ovre_strand-skranning"                           "Proksimal_delta_front/kyst"
3996.5 "6506_12-4" 11.68000 "Sandstone" -999.25   -999.25 100.0000      0.0      0.0 "vc"           "c/vc"     "Ovre_strand-skranning"                           "Proksimal_delta_front/kyst"
3996.6 "6506_12-4" 11.68000 "Sandstone" -999.25   -999.25 100.0000      0.0      0.0 "vc"           "c/vc"     "Ovre_strand-skranning"                           "Proksimal_delta_front/kyst"
3996.7 "6506_12-4" 11.98000 "Sandstone" -999.25   -999.25 100.0000      0.0      0.0 "vc"           "c/vc"     "Ovre_strand-skranning"                           "Proksimal_delta_front/kyst"
3996.8 "6506_12-4" 12.49000 "Sandstone" -999.25   -999.25 100.0000      0.0      0.0 "vc"           "c/vc"     "Ovre_strand-skranning"                           "Proksimal_delta_front/kyst"
3996.9 "6506_12-4" 13.21000 "Sandstone" -999.25   -999.25 100.0000      0.0      0.0 "vc"           "c/vc"     "Ovre_strand-skranning"                           "Proksimal_delta_front/kyst"
3997.0 "6506_12-4" 13.79000 "Sandstone" -999.25   -999.25 100.0000      0.0      0.0 "vc"           "c/vc"     "Ovre_strand-skranning"                           "Proksimal_delta_front/kyst"
3997.1 "6506_12-4" 14.17000 "Sandstone" -999.25   -999.25 100.0000      0.0      0.0 "vc"           "c/vc"     "Ovre_strand-skranning"                           "Proksimal_delta_front/kyst"
3997.2 "6506_12-4" 14.45000 "Sandstone" -999.25   -999.25 100.0000      0.0      0.0 "vc"           "c/vc"     "Ovre_strand-skranning"                           "Proksimal_delta_front/kyst"
3997.3 "6506_12-4" 14.42000 "Sandstone" -999.25   -999.25 100.0000      0.0      0.0 "vc"           "c/vc"     "Ovre_strand-skranning"                           "Proksimal_delta_front/kyst"
3997.4 "6506_12-4" 14.39000 "Sandstone" -999.25   -999.25 100.0000      0.0      0.0 "vc"           "c/vc"     "Ovre_strand-skranning"                           "Proksimal_delta_front/kyst"
3997.5 "6506_12-4" 14.36000 "Sandstone" -999.25   -999.25 100.0000      0.0      0.0 "vc"           "c/vc"     "Ovre_strand-skranning"                           "Proksimal_delta_front/kyst"
3997.6 "6506_12-4" 14.21000 -999.25   -999.25   -999.25 100.0000      0.0      0.0 -999.25        -999.25    "Ovre_strand-skranning"                           "Proksimal_delta_front/kyst"
3997.7 "6506_12-4" 14.06000 -999.25   -999.25   -999.25 100.0000      0.0      0.0 -999.25        -999.25    "Ovre_strand-skranning"                           "Proksimal_delta_front/kyst"
3997.8 "6506_12-4" 13.91000 -999.25   -999.25   -999.25 100.0000      0.0      0.0 -999.25        -999.25    "Ovre_strand-skranning"                           "Proksimal_delta_front/kyst"
3997.9 "6506_12-4" 13.76000 -999.25   -999.25   -999.25 100.0000      0.0      0.0 -999.25        -999.25    "Ovre_strand-skranning"                           "Proksimal_delta_front/kyst"
3998.0 "6506_12-4" 13.62000 "Sandstone" -999.25   -999.25 100.0000      0.0      0.0 "vc/granule"   "c/vc"     "Ovre_strand-skranning"                           "Proksimal_delta_front/kyst"
3998.1 "6506_12-4" 13.48000 "Sandstone" -999.25   -999.25 100.0000      0.0      0.0 "vc/granule"   "c/vc"     "Ovre_strand-skranning"                           "Proksimal_delta_front/kyst"
3998.2 "6506_12-4" 13.50000 "Sandstone" -999.25   -999.25 100.0000      0.0      0.0 "vc/granule"   "c/vc"     "Ovre_strand-skranning"                           "Proksimal_delta_front/kyst"
3998.3 "6506_12-4" 13.54000 "Sandstone" -999.25   -999.25 100.0000      0.0      0.0 "vc/granule"   "c/vc"     "Ovre_strand-skranning"                           "Proksimal_delta_front/kyst"
3998.4 "6506_12-4" 13.50000 "Sandstone" -999.25   -999.25 100.0000      0.0      0.0 "vc/granule"   "c/vc"     "Ovre_strand-skranning"                           "Proksimal_delta_front/kyst"
3998.5 "6506_12-4" 13.35000 "Sandstone" -999.25   -999.25 100.0000      0.0      0.0 "vc/granule"   "c/vc"     "Ovre_strand-skranning"                           "Proksimal_delta_front/kyst"
3998.6 "6506_12-4" 13.20000 "Sandstone" -999.25   -999.25 100.0000      0.0      0.0 "vc/granule"   "c/vc"     "Ovre_strand-skranning"                           "Proksimal_delta_front/kyst"
3998.7 "6506_12-4" 13.04000 "Sandstone" -999.25   -999.25 100.0000      0.0      0.0 "vc/granule"   "c/vc"     "Ovre_strand-skranning"                           "Proksimal_delta_front/kyst"
3998.8 "6506_12-4" 12.93000 "Sandstone" -999.25   -999.25 100.0000      0.0      0.0 "vc/granule"   "c/vc"     "Ovre_strand-skranning"                           "Proksimal_delta_front/kyst"
3998.9 "6506_12-4" 13.26000 "Sandstone" -999.25   -999.25 100.0000      0.0      0.0 "vc/granule"   "c/vc"     "Ovre_strand-skranning"                           "Proksimal_delta_front/kyst"
3999.0 "6506_12-4" 13.61000 "Sandstone" -999.25   -999.25 100.0000      0.0      0.0 "vc/granule"   "c/vc"     "Ovre_strand-skranning"                           "Proksimal_delta_front/kyst"
