~Version
VERS  .                                 3.0 : CWLS LAS ASCII Standard - Version 3.0
WRAP  . NO                                  : One line per depth step
DLM   . SPACE                               : Column data section delimiter
SOURCE. Converted to LAS by Log Studio 4.76 : GeoProvider

~Well
STRT.         3129.0 : Start depth
STOP.         4008.7 : Stop depth
STEP.              1 : Step
NULL.        -999.25 : No-value
COMP.                : Company
WELL. 6506/12-4      : Well
FLD .                : Field
LOC .                : Location
LATI.                : Latitude
LONG.                : Longitude
GDAT.                : Geodetic datum
CNTY.                : County
STAT.                : State
CTRY.                : Country
SRVC. GeoProvider AS : Service company
DATE.                : Date
API .                : API number
RUN .                : Run number

~Parameters
WellboreName.  : Wellbore name
RigName     .  : Rig name
StartDate   .  : Start date

~Curves
DEPTH.m            .  : null {F}Depth mMD
Hole_ID.-          .  : null {S}Hole ID
GR.API             .  : null {F}Gamma Ray
Lithology1.-       .  : null {S}Lithology 1
Lithology2.-       .  : null {S}Lithology 2
Lithology3.-       .  : null {S}Lithology 3
Lithology1.%       .  : null {F}Lithology 1 percentage
Lithology2.%       .  : null {F}Lithology 2 percentage
Lithology3.%       .  : null {F}Lithology 3 percentage
Grain_size_Top.-   .  : null {S}Grain size at the top 
Grain_size_Base.-  .  : null {S}Grain size at the bottom
Sub_Environment.-  .  : null {S}Sub Environment
Gross_Environment.-.  : null {S}Gross Environment

~Ascii
# ...
3999.1 "6506_12-4" 14.43000 "Sandstone" -999.25   -999.25 100.0000      0.0      0.0 "vc/granule"   "c/vc"     "Ovre_strand-skranning"                           "Proksimal_delta_front/kyst"
3999.2 "6506_12-4" 14.53000 "Sandstone" -999.25   -999.25 100.0000      0.0      0.0 "vc/granule"   "c/vc"     "Ovre_strand-skranning"                           "Proksimal_delta_front/kyst"
3999.3 "6506_12-4" 14.37000 "Sandstone" -999.25   -999.25 100.0000      0.0      0.0 "vc/granule"   "c/vc"     "Ovre_strand-skranning"                           "Proksimal_delta_front/kyst"
3999.4 "6506_12-4" 13.77000 "Sandstone" -999.25   -999.25 100.0000      0.0      0.0 "vc/granule"   "c/vc"     "Ovre_strand-skranning"                           "Proksimal_delta_front/kyst"
3999.5 "6506_12-4" 13.12000 "Sandstone" -999.25   -999.25 100.0000      0.0      0.0 "vc/granule"   "c/vc"     "Ovre_strand-skranning"                           "Proksimal_delta_front/kyst"
3999.6 "6506_12-4" 12.78000 "Sandstone" -999.25   -999.25 100.0000      0.0      0.0 "vc/granule"   "c/vc"     "Ovre_strand-skranning"                           "Proksimal_delta_front/kyst"
3999.7 "6506_12-4" 12.94000 "Sandstone" -999.25   -999.25 100.0000      0.0      0.0 "vc/granule"   "c/vc"     "Ovre_strand-skranning"                           "Proksimal_delta_front/kyst"
3999.8 "6506_12-4" 13.26000 "Sandstone" -999.25   -999.25 100.0000      0.0      0.0 "vc/granule"   "c/vc"     "Ovre_strand-skranning"                           "Proksimal_delta_front/kyst"
3999.9 "6506_12-4" 13.57000 "Sandstone" -999.25   -999.25 100.0000      0.0      0.0 "vc/granule"   "c/vc"     "Ovre_strand-skranning"                           "Proksimal_delta_front/kyst"
4000.0 "6506_12-4" 15.18000 "Sandstone" -999.25   -999.25 100.0000      0.0      0.0 "granule"      "granule"  "Ovre_strand-skranning"                           "Proksimal_delta_front/kyst"
4000.1 "6506_12-4" 15.68000 "Sandstone" -999.25   -999.25 100.0000      0.0      0.0 "granule"      "granule"  "Ovre_strand-skranning"                           "Proksimal_delta_front/kyst"
4000.2 "6506_12-4" 15.75000 "Sandstone" -999.25   -999.25 100.0000      0.0      0.0 "granule"      "granule"  "Ovre_strand-skranning"                           "Proksimal_delta_front/kyst"
4000.3 "6506_12-4" 15.45000 "Sandstone" -999.25   -999.25 100.0000      0.0      0.0 "granule"      "granule"  "Ovre_strand-skranning"                           "Proksimal_delta_front/kyst"
4000.4 "6506_12-4" 15.02000 "Sandstone" -999.25   -999.25 100.0000      0.0      0.0 "c/vc"         "c/vc"     "Ovre_strand-skranning"                           "Proksimal_delta_front/kyst"
4000.5 "6506_12-4" 14.58000 "Sandstone" -999.25   -999.25 100.0000      0.0      0.0 "c/vc"         "c/vc"     "Ovre_strand-skranning"                           "Proksimal_delta_front/kyst"
4000.6 "6506_12-4" 14.22000 "Sandstone" -999.25   -999.25 100.0000      0.0      0.0 "c/vc"         "c/vc"     "Ovre_strand-skranning"                           "Proksimal_delta_front/kyst"
4000.7 "6506_12-4" 14.19000 "Sandstone" -999.25   -999.25 100.0000      0.0      0.0 "c/vc"         "c/vc"     "Ovre_strand-skranning"                           "Proksimal_delta_front/kyst"
4000.8 "6506_12-4" 14.89000 "Sandstone" -999.25   -999.25 100.0000      0.0      0.0 "c/vc"         "c/vc"     "Ovre_strand-skranning"                           "Proksimal_delta_front/kyst"
4000.9 "6506_12-4" 15.97000 "Sandstone" -999.25   -999.25 100.0000      0.0      0.0 "c/vc"         "c/vc"     "Ovre_strand-skranning"                           "Proksimal_delta_front/kyst"
4001.0 "6506_12-4" 16.09000 "Sandstone" -999.25   -999.25 100.0000      0.0      0.0 "c/vc"         "c/vc"     "Ovre_strand-skranning"                           "Proksimal_delta_front/kyst"
4001.1 "6506_12-4" 15.51000 "Sandstone" -999.25   -999.25 100.0000      0.0      0.0 "c/vc"         "c/vc"     "Ovre_strand-skranning"                           "Proksimal_delta_front/kyst"
4001.2 "6506_12-4" 14.92000 "Sandstone" -999.25   -999.25 100.0000      0.0      0.0 "c/vc"         "c/vc"     "Ovre_strand-skranning"                           "Proksimal_delta_front/kyst"
4001.3 "6506_12-4" 14.34000 "Sandstone" -999.25   -999.25 100.0000      0.0      0.0 "c/vc"         "c/vc"     "Ovre_strand-skranning"                           "Proksimal_delta_front/kyst"
4001.4 "6506_12-4" 13.63000 "Sandstone" -999.25   -999.25 100.0000      0.0      0.0 "c/vc"         "c/vc"     "Ovre_strand-skranning"                           "Proksimal_delta_front/kyst"
4001.5 "6506_12-4" 13.06000 "Sandstone" -999.25   -999.25 100.0000      0.0      0.0 "c/vc"         "c/vc"     "Ovre_strand-skranning"                           "Proksimal_delta_front/kyst"
4001.6 "6506_12-4" 12.81000 "Sandstone" -999.25   -999.25 100.0000      0.0      0.0 "c/vc"         "c/vc"     "Ovre_strand-skranning"                           "Proksimal_delta_front/kyst"
4001.7 "6506_12-4" 12.71000 "Sandstone" -999.25   -999.25 100.0000      0.0      0.0 "c/vc"         "c/vc"     "Ovre_strand-skranning"                           "Proksimal_delta_front/kyst"
4001.8 "6506_12-4" 12.61000 "Sandstone" -999.25   -999.25 100.0000      0.0      0.0 "c/vc"         "c/vc"     "Ovre_strand-skranning"                           "Proksimal_delta_front/kyst"
4001.9 "6506_12-4" 12.34000 "Sandstone" -999.25   -999.25 100.0000      0.0      0.0 "c/vc"         "c/vc"     "Ovre_strand-skranning"                           "Proksimal_delta_front/kyst"
4002.0 "6506_12-4" 11.97000 "Sandstone" -999.25   -999.25 100.0000      0.0      0.0 "c/vc"         "c/vc"     "Ovre_strand-skranning"                           "Proksimal_delta_front/kyst"
4002.1 "6506_12-4" 11.71000 "Sandstone" -999.25   -999.25 100.0000      0.0      0.0 "c/vc"         "c/vc"     "Ovre_strand-skranning"                           "Proksimal_delta_front/kyst"
4002.2 "6506_12-4" 11.70000 "Sandstone" -999.25   -999.25 100.0000      0.0      0.0 "c/vc"         "c/vc"     "Ovre_strand-skranning"                           "Proksimal_delta_front/kyst"
4002.3 "6506_12-4" 12.37000 "Sandstone" -999.25   -999.25 100.0000      0.0      0.0 "c/vc"         "c/vc"     "Ovre_strand-skranning"                           "Proksimal_delta_front/kyst"
4002.4 "6506_12-4" 13.03000 "Sandstone" -999.25   -999.25 100.0000      0.0      0.0 "c/vc"         "c/vc"     "Ovre_strand-skranning"                           "Proksimal_delta_front/kyst"
4002.5 "6506_12-4" 13.70000 "Sandstone" -999.25   -999.25 100.0000      0.0      0.0 "c/vc"         "c/vc"     "Ovre_strand-skranning"                           "Proksimal_delta_front/kyst"
4002.6 "6506_12-4" 14.04000 "Sandstone" -999.25   -999.25 100.0000      0.0      0.0 "c/vc"         "c/vc"     "Ovre_strand-skranning"                           "Proksimal_delta_front/kyst"
4002.7 "6506_12-4" 14.12000 "Sandstone" -999.25   -999.25 100.0000      0.0      0.0 "c/vc"         "c/vc"     "Ovre_strand-skranning"                           "Proksimal_delta_front/kyst"
4002.8 "6506_12-4" 14.16000 "Sandstone" -999.25   -999.25 100.0000      0.0      0.0 "c/vc"         "vc/granule" "Ovre_strand-skranning"                           "Proksimal_delta_front/kyst"
4002.9 "6506_12-4" 14.06000 "Sandstone" -999.25   -999.25 100.0000      0.0      0.0 "c/vc"         "vc/granule" "Ovre_strand-skranning"                           "Proksimal_delta_front/kyst"
4003.0 "6506_12-4" 13.38000 "Sandstone" -999.25   -999.25 100.0000      0.0      0.0 "c/vc"         "vc/granule" "Ovre_strand-skranning"                           "Proksimal_delta_front/kyst"
4003.1 "6506_12-4" 13.03000 "Sandstone" -999.25   -999.25 100.0000      0.0      0.0 "c/vc"         "vc/granule" "Ovre_strand-skranning"                           "Proksimal_delta_front/kyst"
4003.2 "6506_12-4" 13.32000 "Sandstone" -999.25   -999.25 100.0000      0.0      0.0 "c/vc"         "vc/granule" "Ovre_strand-skranning"                           "Proksimal_delta_front/kyst"
4003.3 "6506_12-4" 14.31000 "Sandstone" -999.25   -999.25 100.0000      0.0      0.0 "c/vc"         "vc/granule" "Ovre_strand-skranning"                           "Proksimal_delta_front/kyst"
