~Version
VERS  .                                 3.0 : CWLS LAS ASCII Standard - Version 3.0
WRAP  . NO                                  : One line per depth step
DLM   . SPACE                               : Column data section delimiter
SOURCE. Converted to LAS by Log Studio 4.76 : GeoProvider

~Well
STRT.         3129.0 : Start depth
STOP.         4008.7 : Stop depth
STEP.              1 : Step
NULL.        -999.25 : No-value
COMP.                : Company
WELL. 6506/12-4      : Well
FLD .                : Field
LOC .                : Location
LATI.                : Latitude
LONG.                : Longitude
GDAT.                : Geodetic datum
CNTY.                : County
STAT.                : State
CTRY.                : Country
SRVC. GeoProvider AS : Service company
DATE.                : Date
API .                : API number
RUN .                : Run number

~Parameters
WellboreName.  : Wellbore name
RigName     .  : Rig name
StartDate   .  : Start date

~Curves
DEPTH.m            .  : null {F}Depth mMD
Hole_ID.-          .  : null {S}Hole ID
GR.API             .  : null {F}Gamma Ray
Lithology1.-       .  : null {S}Lithology 1
Lithology2.-       .  : null {S}Lithology 2
Lithology3.-       .  : null {S}Lithology 3
Lithology1.%       .  : null {F}Lithology 1 percentage
Lithology2.%       .  : null {F}Lithology 2 percentage
Lithology3.%       .  : null {F}Lithology 3 percentage
Grain_size_Top.-   .  : null {S}Grain size at the top 
Grain_size_Base.-  .  : null {S}Grain size at the bottom
Sub_Environment.-  .  : null {S}Sub Environment
Gross_Environment.-.  : null {S}Gross Environment

~Ascii
# ...
3981.9 "6506_12-4" 11.30000 "Sandstone" -999.25   -999.25 100.0000      0.0      0.0 "c/vc"         "m/c"      "Ovre_strand-skranning"                           "Proksimal_delta_front/kyst"
3982.0 "6506_12-4" 11.35000 "Sandstone" -999.25   -999.25 100.0000      0.0      0.0 "c/vc"         "m/c"      "Ovre_strand-skranning"                           "Proksimal_delta_front/kyst"
3982.1 "6506_12-4" 11.40000 "Sandstone" -999.25   -999.25 100.0000      0.0      0.0 "c/vc"         "m/c"      "Ovre_strand-skranning"                           "Proksimal_delta_front/kyst"
3982.2 "6506_12-4" 11.45000 "Sandstone" -999.25   -999.25 100.0000      0.0      0.0 "c/vc"         "m/c"      "Ovre_strand-skranning"                           "Proksimal_delta_front/kyst"
3982.3 "6506_12-4" 11.65000 "Sandstone" -999.25   -999.25 100.0000      0.0      0.0 "c/vc"         "m/c"      "Ovre_strand-skranning"                           "Proksimal_delta_front/kyst"
3982.4 "6506_12-4" 12.32000 "Sandstone" -999.25   -999.25 100.0000      0.0      0.0 "c/vc"         "m/c"      "Ovre_strand-skranning"                           "Proksimal_delta_front/kyst"
3982.5 "6506_12-4" 13.05000 "Sandstone" -999.25   -999.25 100.0000      0.0      0.0 "c/vc"         "m/c"      "Ovre_strand-skranning"                           "Proksimal_delta_front/kyst"
3982.6 "6506_12-4" 14.00000 "Sandstone" -999.25   -999.25 100.0000      0.0      0.0 "c/vc"         "m/c"      "Ovre_strand-skranning"                           "Proksimal_delta_front/kyst"
3982.7 "6506_12-4" 14.96000 "Sandstone" -999.25   -999.25 100.0000      0.0      0.0 "c/vc"         "m/c"      "Ovre_strand-skranning"                           "Proksimal_delta_front/kyst"
3982.8 "6506_12-4" 15.45000 "Sandstone" -999.25   -999.25 100.0000      0.0      0.0 "c/vc"         "m/c"      "Ovre_strand-skranning"                           "Proksimal_delta_front/kyst"
3982.9 "6506_12-4" 15.92000 "Sandstone" -999.25   -999.25 100.0000      0.0      0.0 "c/vc"         "m/c"      "Ovre_strand-skranning"                           "Proksimal_delta_front/kyst"
3983.0 "6506_12-4" 16.39000 "Sandstone" -999.25   -999.25 100.0000      0.0      0.0 "c/vc"         "m/c"      "Ovre_strand-skranning"                           "Proksimal_delta_front/kyst"
3983.1 "6506_12-4" 16.85000 "Sandstone" -999.25   -999.25 100.0000      0.0      0.0 "c/vc"         "m/c"      "Ovre_strand-skranning"                           "Proksimal_delta_front/kyst"
3983.2 "6506_12-4" 18.09000 "Sandstone" -999.25   -999.25 100.0000      0.0      0.0 "c/vc"         "m/c"      "Ovre_strand-skranning"                           "Proksimal_delta_front/kyst"
3983.3 "6506_12-4" 19.34000 "Sandstone" -999.25   -999.25 100.0000      0.0      0.0 "c/vc"         "m/c"      "Ovre_strand-skranning"                           "Proksimal_delta_front/kyst"
3983.4 "6506_12-4" 19.76000 "Sandstone" -999.25   -999.25 100.0000      0.0      0.0 "c/vc"         "m/c"      "Ovre_strand-skranning"                           "Proksimal_delta_front/kyst"
3983.5 "6506_12-4" 19.75000 "Sandstone" -999.25   -999.25 100.0000      0.0      0.0 "c/vc"         "m/c"      "Ovre_strand-skranning"                           "Proksimal_delta_front/kyst"
3983.6 "6506_12-4" 19.44000 "Sandstone" -999.25   -999.25 100.0000      0.0      0.0 "c/vc"         "m/c"      "Ovre_strand-skranning"                           "Proksimal_delta_front/kyst"
3983.7 "6506_12-4" 18.73000 "Sandstone" -999.25   -999.25 100.0000      0.0      0.0 "c/vc"         "m/c"      "Ovre_strand-skranning"                           "Proksimal_delta_front/kyst"
3983.8 "6506_12-4" 18.01000 "Sandstone" -999.25   -999.25 100.0000      0.0      0.0 "c/vc"         "m/c"      "Ovre_strand-skranning"                           "Proksimal_delta_front/kyst"
3983.9 "6506_12-4" 17.30000 "Sandstone" -999.25   -999.25 100.0000      0.0      0.0 "c/vc"         "m/c"      "Ovre_strand-skranning"                           "Proksimal_delta_front/kyst"
3984.0 "6506_12-4" 16.38000 "Sandstone" -999.25   -999.25 100.0000      0.0      0.0 "c/vc"         "m/c"      "Ovre_strand-skranning"                           "Proksimal_delta_front/kyst"
3984.1 "6506_12-4" 15.52000 "Sandstone" -999.25   -999.25 100.0000      0.0      0.0 "c/vc"         "m/c"      "Ovre_strand-skranning"                           "Proksimal_delta_front/kyst"
3984.2 "6506_12-4" 15.45000 "Sandstone" -999.25   -999.25 100.0000      0.0      0.0 "c/vc"         "m/c"      "Ovre_strand-skranning"                           "Proksimal_delta_front/kyst"
3984.3 "6506_12-4" 15.39000 "Sandstone" -999.25   -999.25 100.0000      0.0      0.0 "c/vc"         "m/c"      "Ovre_strand-skranning"                           "Proksimal_delta_front/kyst"
3984.4 "6506_12-4" 15.31000 "Sandstone" -999.25   -999.25 100.0000      0.0      0.0 "c/vc"         "m/c"      "Ovre_strand-skranning"                           "Proksimal_delta_front/kyst"
3984.5 "6506_12-4" 15.11000 -999.25   -999.25   -999.25 100.0000      0.0      0.0 -999.25        -999.25    "Ovre_strand-skranning"                           "Proksimal_delta_front/kyst"
3984.6 "6506_12-4" 14.70000 -999.25   -999.25   -999.25 100.0000      0.0      0.0 -999.25        -999.25    "Ovre_strand-skranning"                           "Proksimal_delta_front/kyst"
3984.7 "6506_12-4" 14.29000 -999.25   -999.25   -999.25 100.0000      0.0      0.0 -999.25        -999.25    "Ovre_strand-skranning"                           "Proksimal_delta_front/kyst"
3984.8 "6506_12-4" 14.18000 "Sandstone" -999.25   -999.25 100.0000      0.0      0.0 "c/vc"         "c"        "Ovre_strand-skranning"                           "Proksimal_delta_front/kyst"
3984.9 "6506_12-4" 14.42000 "Sandstone" -999.25   -999.25 100.0000      0.0      0.0 "c/vc"         "c"        "Ovre_strand-skranning"                           "Proksimal_delta_front/kyst"
3985.0 "6506_12-4" 15.28000 "Sandstone" -999.25   -999.25 100.0000      0.0      0.0 "c/vc"         "c"        "Ovre_strand-skranning"                           "Proksimal_delta_front/kyst"
3985.1 "6506_12-4" 16.38000 "Sandstone" -999.25   -999.25 100.0000      0.0      0.0 "c/vc"         "c"        "Ovre_strand-skranning"                           "Proksimal_delta_front/kyst"
3985.2 "6506_12-4" 17.22000 "Sandstone" -999.25   -999.25 100.0000      0.0      0.0 "c/vc"         "c"        "Ovre_strand-skranning"                           "Proksimal_delta_front/kyst"
3985.3 "6506_12-4" 17.33000 "Sandstone" -999.25   -999.25 100.0000      0.0      0.0 "c/vc"         "c"        "Ovre_strand-skranning"                           "Proksimal_delta_front/kyst"
3985.4 "6506_12-4" 17.03000 "Sandstone" -999.25   -999.25 100.0000      0.0      0.0 "c/vc"         "c"        "Ovre_strand-skranning"                           "Proksimal_delta_front/kyst"
3985.5 "6506_12-4" 16.49000 "Sandstone" -999.25   -999.25 100.0000      0.0      0.0 "c/vc"         "c"        "Ovre_strand-skranning"                           "Proksimal_delta_front/kyst"
3985.6 "6506_12-4" 16.02000 "Sandstone" -999.25   -999.25 100.0000      0.0      0.0 "m/c"          "vc/granule" "Ovre_strand-skranning"                           "Proksimal_delta_front/kyst"
3985.7 "6506_12-4" 15.69000 "Sandstone" -999.25   -999.25 100.0000      0.0      0.0 "m/c"          "vc/granule" "Ovre_strand-skranning"                           "Proksimal_delta_front/kyst"
3985.8 "6506_12-4" 15.59000 "Sandstone" -999.25   -999.25 100.0000      0.0      0.0 "m/c"          "vc/granule" "Ovre_strand-skranning"                           "Proksimal_delta_front/kyst"
3985.9 "6506_12-4" 16.03000 "Sandstone" -999.25   -999.25 100.0000      0.0      0.0 "m/c"          "vc/granule" "Ovre_strand-skranning"                           "Proksimal_delta_front/kyst"
3986.0 "6506_12-4" 16.91000 "Sandstone" -999.25   -999.25 100.0000      0.0      0.0 "m/c"          "vc/granule" "Ovre_strand-skranning"                           "Proksimal_delta_front/kyst"
3986.1 "6506_12-4" 17.78000 "Sandstone" -999.25   -999.25 100.0000      0.0      0.0 "m/c"          "vc/granule" "Ovre_strand-skranning"                           "Proksimal_delta_front/kyst"
