~Version
VERS  .                                 3.0 : CWLS LAS ASCII Standard - Version 3.0
WRAP  . NO                                  : One line per depth step
DLM   . SPACE                               : Column data section delimiter
SOURCE. Converted to LAS by Log Studio 4.76 : GeoProvider

~Well
STRT.         3129.0 : Start depth
STOP.         4008.7 : Stop depth
STEP.              1 : Step
NULL.        -999.25 : No-value
COMP.                : Company
WELL. 6506/12-4      : Well
FLD .                : Field
LOC .                : Location
LATI.                : Latitude
LONG.                : Longitude
GDAT.                : Geodetic datum
CNTY.                : County
STAT.                : State
CTRY.                : Country
SRVC. GeoProvider AS : Service company
DATE.                : Date
API .                : API number
RUN .                : Run number

~Parameters
WellboreName.  : Wellbore name
RigName     .  : Rig name
StartDate   .  : Start date

~Curves
DEPTH.m            .  : null {F}Depth mMD
Hole_ID.-          .  : null {S}Hole ID
GR.API             .  : null {F}Gamma Ray
Lithology1.-       .  : null {S}Lithology 1
Lithology2.-       .  : null {S}Lithology 2
Lithology3.-       .  : null {S}Lithology 3
Lithology1.%       .  : null {F}Lithology 1 percentage
Lithology2.%       .  : null {F}Lithology 2 percentage
Lithology3.%       .  : null {F}Lithology 3 percentage
Grain_size_Top.-   .  : null {S}Grain size at the top 
Grain_size_Base.-  .  : null {S}Grain size at the bottom
Sub_Environment.-  .  : null {S}Sub Environment
Gross_Environment.-.  : null {S}Gross Environment

~Ascii
3129.0 "6506_12-4" 35.95000 "Sandstone" -999.25   -999.25 100.0000      0.0      0.0 "m"            "clay/silt" "Crevasse_splays"                                 "Begrenset_marint_basseng"
3129.1 "6506_12-4" 35.34000 "Sandstone" -999.25   -999.25 100.0000      0.0      0.0 "m"            "clay/silt" "Crevasse_splays"                                 "Begrenset_marint_basseng"
3129.2 "6506_12-4" 34.52000 "Sandstone" -999.25   -999.25 100.0000      0.0      0.0 "m"            "clay/silt" "Crevasse_splays"                                 "Begrenset_marint_basseng"
3129.3 "6506_12-4" 33.86000 "Sandstone" -999.25   -999.25 100.0000      0.0      0.0 "m"            "clay/silt" "Crevasse_splays"                                 "Begrenset_marint_basseng"
3129.4 "6506_12-4" 33.82000 "Sandstone" -999.25   -999.25 100.0000      0.0      0.0 "m"            "clay/silt" "Crevasse_splays"                                 "Begrenset_marint_basseng"
3129.5 "6506_12-4" 33.94000 "Sandstone" -999.25   -999.25 100.0000      0.0      0.0 "m"            "clay/silt" "Crevasse_splays"                                 "Begrenset_marint_basseng"
3129.6 "6506_12-4" 34.08000 "Sandstone" -999.25   -999.25 100.0000      0.0      0.0 "m"            "clay/silt" "Crevasse_splays"                                 "Begrenset_marint_basseng"
3129.7 "6506_12-4" 34.21000 "Sandstone" -999.25   -999.25 100.0000      0.0      0.0 "m"            "clay/silt" "Crevasse_splays"                                 "Begrenset_marint_basseng"
3129.8 "6506_12-4" 34.15000 "Shale"   -999.25   -999.25 100.0000      0.0      0.0 -999.25        -999.25    "Crevasse_splays"                                 "Begrenset_marint_basseng"
3129.9 "6506_12-4" 33.76000 "Sandstone" -999.25   -999.25 100.0000      0.0      0.0 "m/c"          "f/m"      "Crevasse_splays"                                 "Begrenset_marint_basseng"
3130.0 "6506_12-4" 33.20000 "Sandstone" -999.25   -999.25 100.0000      0.0      0.0 "m/c"          "f/m"      "Crevasse_splays"                                 "Begrenset_marint_basseng"
3130.1 "6506_12-4" 32.70000 "Sandstone" -999.25   -999.25 100.0000      0.0      0.0 "m/c"          "f/m"      "Crevasse_splays"                                 "Begrenset_marint_basseng"
3130.2 "6506_12-4" 32.23000 "Sandstone" -999.25   -999.25 100.0000      0.0      0.0 "m/c"          "f/m"      "Crevasse_splays"                                 "Begrenset_marint_basseng"
3130.3 "6506_12-4" 31.86000 -999.25   -999.25   -999.25 100.0000      0.0      0.0 -999.25        -999.25    "Crevasse_splays"                                 "Begrenset_marint_basseng"
3130.4 "6506_12-4" 31.48000 -999.25   -999.25   -999.25 100.0000      0.0      0.0 -999.25        -999.25    "Crevasse_splays"                                 "Begrenset_marint_basseng"
3130.5 "6506_12-4" 31.15000 -999.25   -999.25   -999.25 100.0000      0.0      0.0 -999.25        -999.25    "Crevasse_splays"                                 "Begrenset_marint_basseng"
3130.6 "6506_12-4" 30.82000 -999.25   -999.25   -999.25 100.0000      0.0      0.0 -999.25        -999.25    "Crevasse_splays"                                 "Begrenset_marint_basseng"
3130.7 "6506_12-4" 30.71000 "Sandstone" -999.25   -999.25 100.0000      0.0      0.0 "c"            "c"        "Crevasse_splays"                                 "Begrenset_marint_basseng"
3130.8 "6506_12-4" 30.64000 "Sandstone" -999.25   -999.25 100.0000      0.0      0.0 "c"            "c"        "Crevasse_splays"                                 "Begrenset_marint_basseng"
3130.9 "6506_12-4" 30.83000 "Sandstone" -999.25   -999.25 100.0000      0.0      0.0 "c"            "c"        "Crevasse_splays"                                 "Begrenset_marint_basseng"
3131.0 "6506_12-4" 31.31000 "Sandstone" -999.25   -999.25 100.0000      0.0      0.0 "c"            "c"        "Crevasse_splays"                                 "Begrenset_marint_basseng"
3131.1 "6506_12-4" 31.80000 "Sandstone" -999.25   -999.25 100.0000      0.0      0.0 "c"            "c"        "Crevasse_splays"                                 "Begrenset_marint_basseng"
3131.2 "6506_12-4" 32.32000 "Sandstone" -999.25   -999.25 100.0000      0.0      0.0 "c"            "c"        "Crevasse_splays"                                 "Begrenset_marint_basseng"
3131.3 "6506_12-4" 32.57000 "Sandstone" "Shale"   -999.25  25.0000 75.00000      0.0 "clay"         "clay"     "Crevasse_splays"                                 "Begrenset_marint_basseng"
3131.4 "6506_12-4" 32.61000 "Sandstone" "Shale"   -999.25  25.0000 75.00000      0.0 "clay"         "clay"     "Crevasse_splays"                                 "Begrenset_marint_basseng"
3131.5 "6506_12-4" 32.38000 "Sandstone" "Shale"   -999.25  25.0000 75.00000      0.0 "clay"         "clay"     "Crevasse_splays"                                 "Begrenset_marint_basseng"
3131.6 "6506_12-4" 31.81000 "Sandstone" "Shale"   -999.25  25.0000 75.00000      0.0 "clay"         "clay"     "Crevasse_splays"                                 "Begrenset_marint_basseng"
3131.7 "6506_12-4" 30.97000 "Sandstone" "Shale"   -999.25  25.0000 75.00000      0.0 "clay"         "clay"     "Crevasse_splays"                                 "Begrenset_marint_basseng"
3131.8 "6506_12-4" 30.27000 "Sandstone" "Shale"   -999.25  25.0000 75.00000      0.0 "clay"         "clay"     "Crevasse_splays"                                 "Begrenset_marint_basseng"
3131.9 "6506_12-4" 29.87000 "Sandstone" "Shale"   -999.25  25.0000 75.00000      0.0 "clay"         "clay"     "Crevasse_splays"                                 "Begrenset_marint_basseng"
3132.0 "6506_12-4" 29.84000 "Sandstone" "Shale"   -999.25  25.0000 75.00000      0.0 "clay"         "clay"     "Crevasse_splays"                                 "Begrenset_marint_basseng"
3132.1 "6506_12-4" 29.81000 "Sandstone" "Shale"   -999.25  25.0000 75.00000      0.0 "clay"         "clay"     "Crevasse_splays"                                 "Begrenset_marint_basseng"
3132.2 "6506_12-4" 29.50000 "Sandstone" "Shale"   -999.25  25.0000 75.00000      0.0 "clay"         "clay"     "Crevasse_splays"                                 "Begrenset_marint_basseng"
3132.3 "6506_12-4" 28.63000 "Sandstone" "Shale"   -999.25  25.0000 75.00000      0.0 "clay"         "clay"     "Crevasse_splays"                                 "Begrenset_marint_basseng"
3132.4 "6506_12-4" 27.18000 "Sandstone" "Shale"   -999.25  25.0000 75.00000      0.0 "clay"         "clay"     "Crevasse_splays"                                 "Begrenset_marint_basseng"
3132.5 "6506_12-4" 25.51000 "Sandstone" -999.25   -999.25 100.0000      0.0      0.0 "silt/vf"      "clay/silt" "Crevasse_splays"                                 "Begrenset_marint_basseng"
3132.6 "6506_12-4" 22.90000 "Sandstone" -999.25   -999.25 100.0000      0.0      0.0 "silt/vf"      "clay/silt" "Crevasse_splays"                                 "Begrenset_marint_basseng"
3132.7 "6506_12-4" 20.58000 "Sandstone" -999.25   -999.25 100.0000      0.0      0.0 "silt/vf"      "clay/silt" "Crevasse_splays"                                 "Begrenset_marint_basseng"
3132.8 "6506_12-4" 18.74000 "Shale"   -999.25   -999.25 100.0000      0.0      0.0 "clay"         "clay"     "Crevasse_splays"                                 "Begrenset_marint_basseng"
3132.9 "6506_12-4" 17.43000 "Shale"   -999.25   -999.25 100.0000      0.0      0.0 "clay"         "clay"     "Crevasse_splays"                                 "Begrenset_marint_basseng"
3133.0 "6506_12-4" 16.50000 "Shale"   -999.25   -999.25 100.0000      0.0      0.0 "clay"         "clay"     "Crevasse_splays"                                 "Begrenset_marint_basseng"
3133.1 "6506_12-4" 15.90000 "Shale"   -999.25   -999.25 100.0000      0.0      0.0 "clay"         "clay"     "Crevasse_splays"                                 "Begrenset_marint_basseng"
3133.2 "6506_12-4" 15.99000 "Shale"   -999.25   -999.25 100.0000      0.0      0.0 "clay"         "clay"     "Crevasse_splays"                                 "Begrenset_marint_basseng"
