~Version
VERS  .                                 3.0 : CWLS LAS ASCII Standard - Version 3.0
WRAP  . NO                                  : One line per depth step
DLM   . SPACE                               : Column data section delimiter
SOURCE. Converted to LAS by Log Studio 4.76 : GeoProvider

~Well
STRT.         3129.0 : Start depth
STOP.         4008.7 : Stop depth
STEP.              1 : Step
NULL.        -999.25 : No-value
COMP.                : Company
WELL. 6506/12-4      : Well
FLD .                : Field
LOC .                : Location
LATI.                : Latitude
LONG.                : Longitude
GDAT.                : Geodetic datum
CNTY.                : County
STAT.                : State
CTRY.                : Country
SRVC. GeoProvider AS : Service company
DATE.                : Date
API .                : API number
RUN .                : Run number

~Parameters
WellboreName.  : Wellbore name
RigName     .  : Rig name
StartDate   .  : Start date

~Curves
DEPTH.m            .  : null {F}Depth mMD
Hole_ID.-          .  : null {S}Hole ID
GR.API             .  : null {F}Gamma Ray
Lithology1.-       .  : null {S}Lithology 1
Lithology2.-       .  : null {S}Lithology 2
Lithology3.-       .  : null {S}Lithology 3
Lithology1.%       .  : null {F}Lithology 1 percentage
Lithology2.%       .  : null {F}Lithology 2 percentage
Lithology3.%       .  : null {F}Lithology 3 percentage
Grain_size_Top.-   .  : null {S}Grain size at the top 
Grain_size_Base.-  .  : null {S}Grain size at the bottom
Sub_Environment.-  .  : null {S}Sub Environment
Gross_Environment.-.  : null {S}Gross Environment

~Ascii
# ...
3977.6 "6506_12-4"  9.43000 "Sandstone" -999.25   -999.25 100.0000      0.0      0.0 "granule/pebble" "pebble"   "Ovre_strand-skranning"                           "Proksimal_delta_front/kyst"
3977.7 "6506_12-4"  9.76000 "Sandstone" -999.25   -999.25 100.0000      0.0      0.0 "granule/pebble" "pebble"   "Ovre_strand-skranning"                           "Proksimal_delta_front/kyst"
3977.8 "6506_12-4" 10.14000 "Sandstone" -999.25   -999.25 100.0000      0.0      0.0 "granule/pebble" "pebble"   "Ovre_strand-skranning"                           "Proksimal_delta_front/kyst"
3977.9 "6506_12-4" 10.76000 "Sandstone" -999.25   -999.25 100.0000      0.0      0.0 "granule/pebble" "pebble"   "Ovre_strand-skranning"                           "Proksimal_delta_front/kyst"
3978.0 "6506_12-4" 11.38000 "Sandstone" -999.25   -999.25 100.0000      0.0      0.0 "granule/pebble" "pebble"   "Ovre_strand-skranning"                           "Proksimal_delta_front/kyst"
3978.1 "6506_12-4" 11.59000 "Sandstone" -999.25   -999.25 100.0000      0.0      0.0 "granule/pebble" "pebble"   "Ovre_strand-skranning"                           "Proksimal_delta_front/kyst"
3978.2 "6506_12-4" 11.76000 -999.25   -999.25   -999.25 100.0000      0.0      0.0 -999.25        -999.25    "Ovre_strand-skranning"                           "Proksimal_delta_front/kyst"
3978.3 "6506_12-4" 11.84000 -999.25   -999.25   -999.25 100.0000      0.0      0.0 -999.25        -999.25    "Ovre_strand-skranning"                           "Proksimal_delta_front/kyst"
3978.4 "6506_12-4" 11.86000 "Sandstone" -999.25   -999.25 100.0000      0.0      0.0 "pebble"       "pebble"   "Ovre_strand-skranning"                           "Proksimal_delta_front/kyst"
3978.5 "6506_12-4" 11.88000 "Sandstone" -999.25   -999.25 100.0000      0.0      0.0 "pebble"       "pebble"   "Ovre_strand-skranning"                           "Proksimal_delta_front/kyst"
3978.6 "6506_12-4" 11.91000 "Sandstone" -999.25   -999.25 100.0000      0.0      0.0 "m/c"          "m/c"      "Ovre_strand-skranning"                           "Proksimal_delta_front/kyst"
3978.7 "6506_12-4" 12.32000 "Sandstone" -999.25   -999.25 100.0000      0.0      0.0 "m/c"          "m/c"      "Ovre_strand-skranning"                           "Proksimal_delta_front/kyst"
3978.8 "6506_12-4" 12.92000 "Sandstone" -999.25   -999.25 100.0000      0.0      0.0 "m/c"          "m/c"      "Ovre_strand-skranning"                           "Proksimal_delta_front/kyst"
3978.9 "6506_12-4" 13.17000 "Sandstone" -999.25   -999.25 100.0000      0.0      0.0 "m/c"          "m/c"      "Ovre_strand-skranning"                           "Proksimal_delta_front/kyst"
3979.0 "6506_12-4" 13.25000 "Sandstone" -999.25   -999.25 100.0000      0.0      0.0 "m/c"          "m/c"      "Ovre_strand-skranning"                           "Proksimal_delta_front/kyst"
3979.1 "6506_12-4" 13.19000 "Sandstone" -999.25   -999.25 100.0000      0.0      0.0 "m/c"          "m/c"      "Ovre_strand-skranning"                           "Proksimal_delta_front/kyst"
3979.2 "6506_12-4" 12.73000 "Sandstone" -999.25   -999.25 100.0000      0.0      0.0 "m/c"          "m/c"      "Ovre_strand-skranning"                           "Proksimal_delta_front/kyst"
3979.3 "6506_12-4" 12.23000 -999.25   -999.25   -999.25 100.0000      0.0      0.0 -999.25        -999.25    "Ovre_strand-skranning"                           "Proksimal_delta_front/kyst"
3979.4 "6506_12-4" 11.72000 -999.25   -999.25   -999.25 100.0000      0.0      0.0 -999.25        -999.25    "Ovre_strand-skranning"                           "Proksimal_delta_front/kyst"
3979.5 "6506_12-4" 11.47000 -999.25   -999.25   -999.25 100.0000      0.0      0.0 -999.25        -999.25    "Ovre_strand-skranning"                           "Proksimal_delta_front/kyst"
3979.6 "6506_12-4" 11.38000 -999.25   -999.25   -999.25 100.0000      0.0      0.0 -999.25        -999.25    "Ovre_strand-skranning"                           "Proksimal_delta_front/kyst"
3979.7 "6506_12-4" 11.45000 "Sandstone" -999.25   -999.25 100.0000      0.0      0.0 "c/vc"         "m/c"      "Ovre_strand-skranning"                           "Proksimal_delta_front/kyst"
3979.8 "6506_12-4" 11.74000 "Sandstone" -999.25   -999.25 100.0000      0.0      0.0 "c/vc"         "m/c"      "Ovre_strand-skranning"                           "Proksimal_delta_front/kyst"
3979.9 "6506_12-4" 12.50000 "Sandstone" -999.25   -999.25 100.0000      0.0      0.0 "c/vc"         "m/c"      "Ovre_strand-skranning"                           "Proksimal_delta_front/kyst"
3980.0 "6506_12-4" 13.24000 "Sandstone" -999.25   -999.25 100.0000      0.0      0.0 "c/vc"         "m/c"      "Ovre_strand-skranning"                           "Proksimal_delta_front/kyst"
3980.1 "6506_12-4" 13.99000 "Sandstone" -999.25   -999.25 100.0000      0.0      0.0 "c/vc"         "m/c"      "Ovre_strand-skranning"                           "Proksimal_delta_front/kyst"
3980.2 "6506_12-4" 14.27000 "Sandstone" -999.25   -999.25 100.0000      0.0      0.0 "c/vc"         "m/c"      "Ovre_strand-skranning"                           "Proksimal_delta_front/kyst"
3980.3 "6506_12-4" 14.27000 "Sandstone" -999.25   -999.25 100.0000      0.0      0.0 "c/vc"         "m/c"      "Ovre_strand-skranning"                           "Proksimal_delta_front/kyst"
3980.4 "6506_12-4" 14.17000 "Sandstone" -999.25   -999.25 100.0000      0.0      0.0 "c/vc"         "m/c"      "Ovre_strand-skranning"                           "Proksimal_delta_front/kyst"
3980.5 "6506_12-4" 14.02000 "Sandstone" -999.25   -999.25 100.0000      0.0      0.0 "c/vc"         "m/c"      "Ovre_strand-skranning"                           "Proksimal_delta_front/kyst"
3980.6 "6506_12-4" 13.88000 "Sandstone" -999.25   -999.25 100.0000      0.0      0.0 "c/vc"         "m/c"      "Ovre_strand-skranning"                           "Proksimal_delta_front/kyst"
3980.7 "6506_12-4" 13.74000 "Sandstone" -999.25   -999.25 100.0000      0.0      0.0 "c/vc"         "m/c"      "Ovre_strand-skranning"                           "Proksimal_delta_front/kyst"
3980.8 "6506_12-4" 13.64000 "Sandstone" -999.25   -999.25 100.0000      0.0      0.0 "c/vc"         "m/c"      "Ovre_strand-skranning"                           "Proksimal_delta_front/kyst"
3980.9 "6506_12-4" 13.54000 "Sandstone" -999.25   -999.25 100.0000      0.0      0.0 "c/vc"         "m/c"      "Ovre_strand-skranning"                           "Proksimal_delta_front/kyst"
3981.0 "6506_12-4" 12.95000 "Sandstone" -999.25   -999.25 100.0000      0.0      0.0 "c/vc"         "m/c"      "Ovre_strand-skranning"                           "Proksimal_delta_front/kyst"
3981.1 "6506_12-4" 12.19000 "Sandstone" -999.25   -999.25 100.0000      0.0      0.0 "c/vc"         "m/c"      "Ovre_strand-skranning"                           "Proksimal_delta_front/kyst"
3981.2 "6506_12-4" 11.73000 "Sandstone" -999.25   -999.25 100.0000      0.0      0.0 "c/vc"         "m/c"      "Ovre_strand-skranning"                           "Proksimal_delta_front/kyst"
3981.3 "6506_12-4" 11.40000 "Sandstone" -999.25   -999.25 100.0000      0.0      0.0 "c/vc"         "m/c"      "Ovre_strand-skranning"                           "Proksimal_delta_front/kyst"
3981.4 "6506_12-4" 11.13000 "Sandstone" -999.25   -999.25 100.0000      0.0      0.0 "c/vc"         "m/c"      "Ovre_strand-skranning"                           "Proksimal_delta_front/kyst"
3981.5 "6506_12-4" 10.96000 "Sandstone" -999.25   -999.25 100.0000      0.0      0.0 "c/vc"         "m/c"      "Ovre_strand-skranning"                           "Proksimal_delta_front/kyst"
3981.6 "6506_12-4" 10.94000 "Sandstone" -999.25   -999.25 100.0000      0.0      0.0 "c/vc"         "m/c"      "Ovre_strand-skranning"                           "Proksimal_delta_front/kyst"
3981.7 "6506_12-4" 11.06000 "Sandstone" -999.25   -999.25 100.0000      0.0      0.0 "c/vc"         "m/c"      "Ovre_strand-skranning"                           "Proksimal_delta_front/kyst"
3981.8 "6506_12-4" 11.18000 "Sandstone" -999.25   -999.25 100.0000      0.0      0.0 "c/vc"         "m/c"      "Ovre_strand-skranning"                           "Proksimal_delta_front/kyst"
