~Version
VERS  .                                 3.0 : CWLS LAS ASCII Standard - Version 3.0
WRAP  . NO                                  : One line per depth step
DLM   . SPACE                               : Column data section delimiter
SOURCE. Converted to LAS by Log Studio 4.76 : GeoProvider

~Well
STRT.         2435.0 : Start depth
STOP.         2766.7 : Stop depth
STEP.              1 : Step
NULL.        -999.25 : No-value
COMP.                : Company
WELL. 6507/7-4       : Well
FLD .                : Field
LOC .                : Location
LATI.                : Latitude
LONG.                : Longitude
GDAT.                : Geodetic datum
CNTY.                : County
STAT.                : State
CTRY.                : Country
SRVC. GeoProvider AS : Service company
DATE.                : Date
API .                : API number
RUN .                : Run number

~Parameters
WellboreName.  : Wellbore name
RigName     .  : Rig name
StartDate   .  : Start date

~Curves
DEPTH.m            .  : null {F}Depth mMD
Hole_ID.-          .  : null {S}Hole ID
GR.API             .  : null {F}Gamma Ray
Lithology1.-       .  : null {S}Lithology 1
Lithology2.-       .  : null {S}Lithology 2
Lithology3.-       .  : null {S}Lithology 3
Lithology1.%       .  : null {F}Lithology 1 percentage
Lithology2.%       .  : null {F}Lithology 2 percentage
Lithology3.%       .  : null {F}Lithology 3 percentage
Grain_size_Top.-   .  : null {S}Grain size at the top 
Grain_size_Base.-  .  : null {S}Grain size at the bottom
Sub_Environment.-  .  : null {S}Sub Environment
Gross_Environment.-.  : null {S}Gross Environment

~Ascii
# ...
2720.4 "6507_7-4"  63.7600 "Sandstone" "Shale"   -999.25    45.0000 55.00000      0.0 "f"     "vf"       "Outer_estuary_/_bay"                                   "Shelf_with_prograding_shoreface_/_estuary_sequence"
2720.5 "6507_7-4"  61.5700 "Sandstone" "Shale"   -999.25    45.0000 55.00000      0.0 "f"     "vf"       "Outer_estuary_/_bay"                                   "Shelf_with_prograding_shoreface_/_estuary_sequence"
2720.6 "6507_7-4"  59.3800 "Sandstone" "Shale"   -999.25    45.0000 55.00000      0.0 "f"     "vf"       "Outer_estuary_/_bay"                                   "Shelf_with_prograding_shoreface_/_estuary_sequence"
2720.7 "6507_7-4"  60.0100 "Sandstone" "Shale"   -999.25    45.0000 55.00000      0.0 "f"     "vf"       "Outer_estuary_/_bay"                                   "Shelf_with_prograding_shoreface_/_estuary_sequence"
2720.8 "6507_7-4"  62.1000 "Sandstone" "Shale"   -999.25    45.0000 55.00000      0.0 "f"     "vf"       "Outer_estuary_/_bay"                                   "Shelf_with_prograding_shoreface_/_estuary_sequence"
2720.9 "6507_7-4"  63.9500 "Sandstone" "Shale"   -999.25    45.0000 55.00000      0.0 "f"     "vf"       "Outer_estuary_/_bay"                                   "Shelf_with_prograding_shoreface_/_estuary_sequence"
2721.0 "6507_7-4"  63.3600 "Sandstone" "Shale"   -999.25    45.0000 55.00000      0.0 "f"     "vf"       "Outer_estuary_/_bay"                                   "Shelf_with_prograding_shoreface_/_estuary_sequence"
2721.1 "6507_7-4"  63.0400 "Sandstone" "Shale"   -999.25    45.0000 55.00000      0.0 "f"     "vf"       "Outer_estuary_/_bay"                                   "Shelf_with_prograding_shoreface_/_estuary_sequence"
2721.2 "6507_7-4"  63.7600 "Sandstone" "Shale"   -999.25    45.0000 55.00000      0.0 "f"     "vf"       "Outer_estuary_/_bay"                                   "Shelf_with_prograding_shoreface_/_estuary_sequence"
2721.3 "6507_7-4"  66.2500 "Sandstone" "Shale"   -999.25    45.0000 55.00000      0.0 "f"     "vf"       "Outer_estuary_/_bay"                                   "Shelf_with_prograding_shoreface_/_estuary_sequence"
2721.4 "6507_7-4"  68.7000 "Sandstone" "Shale"   -999.25    45.0000 55.00000      0.0 "f"     "vf"       "Outer_estuary_/_bay"                                   "Shelf_with_prograding_shoreface_/_estuary_sequence"
2721.5 "6507_7-4"  71.5100 "Sandstone" "Shale"   -999.25    45.0000 55.00000      0.0 "f"     "vf"       "Outer_estuary_/_bay"                                   "Shelf_with_prograding_shoreface_/_estuary_sequence"
2721.6 "6507_7-4"  71.1400 "Sandstone" "Shale"   -999.25    45.0000 55.00000      0.0 "f"     "vf"       "Outer_estuary_/_bay"                                   "Shelf_with_prograding_shoreface_/_estuary_sequence"
2721.7 "6507_7-4"  69.3400 "Sandstone" "Shale"   -999.25    45.0000 55.00000      0.0 "f"     "vf"       "Upper_and_lower_shoreface_with_fluvial_input"          "Shelf_with_prograding_shoreface_/_estuary_sequence"
2721.8 "6507_7-4"  67.5400 "Sandstone" "Shale"   -999.25    45.0000 55.00000      0.0 "f"     "vf"       "Upper_and_lower_shoreface_with_fluvial_input"          "Shelf_with_prograding_shoreface_/_estuary_sequence"
2721.9 "6507_7-4"  65.7400 "Sandstone" "Shale"   -999.25    45.0000 55.00000      0.0 "f"     "vf"       "Upper_and_lower_shoreface_with_fluvial_input"          "Shelf_with_prograding_shoreface_/_estuary_sequence"
2722.0 "6507_7-4"  63.9400 "Sandstone" "Shale"   -999.25    45.0000 55.00000      0.0 "f"     "vf"       "Upper_and_lower_shoreface_with_fluvial_input"          "Shelf_with_prograding_shoreface_/_estuary_sequence"
2722.1 "6507_7-4"  63.2200 "Sandstone" "Shale"   -999.25    45.0000 55.00000      0.0 "f"     "vf"       "Upper_and_lower_shoreface_with_fluvial_input"          "Shelf_with_prograding_shoreface_/_estuary_sequence"
2722.2 "6507_7-4"  63.9500 "Sandstone" "Shale"   -999.25    45.0000 55.00000      0.0 "f"     "vf"       "Upper_and_lower_shoreface_with_fluvial_input"          "Shelf_with_prograding_shoreface_/_estuary_sequence"
2722.3 "6507_7-4"  65.0500 "Sandstone" "Shale"   -999.25    45.0000 55.00000      0.0 "f"     "vf"       "Upper_and_lower_shoreface_with_fluvial_input"          "Shelf_with_prograding_shoreface_/_estuary_sequence"
2722.4 "6507_7-4"  66.4800 "Sandstone" "Shale"   -999.25    45.0000 55.00000      0.0 "f"     "vf"       "Upper_and_lower_shoreface_with_fluvial_input"          "Shelf_with_prograding_shoreface_/_estuary_sequence"
2722.5 "6507_7-4"  67.9100 "Sandstone" "Shale"   -999.25    45.0000 55.00000      0.0 "f"     "vf"       "Upper_and_lower_shoreface_with_fluvial_input"          "Shelf_with_prograding_shoreface_/_estuary_sequence"
2722.6 "6507_7-4"  68.8400 "Sandstone" "Shale"   -999.25    45.0000 55.00000      0.0 "f"     "vf"       "Upper_and_lower_shoreface_with_fluvial_input"          "Shelf_with_prograding_shoreface_/_estuary_sequence"
2722.7 "6507_7-4"  67.9100 "Sandstone" "Shale"   -999.25    45.0000 55.00000      0.0 "f"     "vf"       "Upper_and_lower_shoreface_with_fluvial_input"          "Shelf_with_prograding_shoreface_/_estuary_sequence"
2722.8 "6507_7-4"  66.0200 "Sandstone" "Shale"   -999.25    45.0000 55.00000      0.0 "f"     "vf"       "Upper_and_lower_shoreface_with_fluvial_input"          "Shelf_with_prograding_shoreface_/_estuary_sequence"
2722.9 "6507_7-4"  64.1400 "Sandstone" "Shale"   -999.25    45.0000 55.00000      0.0 "f"     "vf"       "Upper_and_lower_shoreface_with_fluvial_input"          "Shelf_with_prograding_shoreface_/_estuary_sequence"
2723.0 "6507_7-4"  61.4000 "Sandstone" "Shale"   -999.25    45.0000 55.00000      0.0 "f"     "vf"       "Upper_and_lower_shoreface_with_fluvial_input"          "Shelf_with_prograding_shoreface_/_estuary_sequence"
2723.1 "6507_7-4"  57.5000 "Sandstone" "Shale"   -999.25    45.0000 55.00000      0.0 "f"     "vf"       "Upper_and_lower_shoreface_with_fluvial_input"          "Shelf_with_prograding_shoreface_/_estuary_sequence"
2723.2 "6507_7-4"  55.1400 "Sandstone" "Shale"   -999.25    45.0000 55.00000      0.0 "f"     "vf"       "Upper_and_lower_shoreface_with_fluvial_input"          "Shelf_with_prograding_shoreface_/_estuary_sequence"
2723.3 "6507_7-4"  53.5700 "Sandstone" -999.25   -999.25   100.0000      0.0      0.0 "m/c"   "m/c"      "Upper_and_lower_shoreface_with_fluvial_input"          "Shelf_with_prograding_shoreface_/_estuary_sequence"
2723.4 "6507_7-4"  54.3900 "Sandstone" -999.25   -999.25   100.0000      0.0      0.0 "m/c"   "m/c"      "Upper_and_lower_shoreface_with_fluvial_input"          "Shelf_with_prograding_shoreface_/_estuary_sequence"
2723.5 "6507_7-4"  57.3700 "Sandstone" "Shale"   -999.25    70.0000 30.00000      0.0 "vf/f"  "vf/f"     "Upper_and_lower_shoreface_with_fluvial_input"          "Shelf_with_prograding_shoreface_/_estuary_sequence"
2723.6 "6507_7-4"  58.9700 "Sandstone" "Shale"   -999.25    70.0000 30.00000      0.0 "vf/f"  "vf/f"     "Upper_and_lower_shoreface_with_fluvial_input"          "Shelf_with_prograding_shoreface_/_estuary_sequence"
2723.7 "6507_7-4"  57.6400 "Sandstone" "Shale"   -999.25    70.0000 30.00000      0.0 "vf"    "f"        "Upper_and_lower_shoreface_with_fluvial_input"          "Shelf_with_prograding_shoreface_/_estuary_sequence"
2723.8 "6507_7-4"  55.8700 "Sandstone" "Shale"   -999.25    70.0000 30.00000      0.0 "vf"    "f"        "Upper_and_lower_shoreface_with_fluvial_input"          "Shelf_with_prograding_shoreface_/_estuary_sequence"
2723.9 "6507_7-4"  54.6900 "Sandstone" "Shale"   -999.25    70.0000 30.00000      0.0 "vf"    "f"        "Upper_and_lower_shoreface_with_fluvial_input"          "Shelf_with_prograding_shoreface_/_estuary_sequence"
2724.0 "6507_7-4"  54.3700 "Sandstone" "Shale"   -999.25    70.0000 30.00000      0.0 "vf"    "f"        "Lower_shoreface_(storm_dominated)"                     "Shelf_with_prograding_shoreface_/_estuary_sequence"
2724.1 "6507_7-4"  54.9300 "Sandstone" "Shale"   -999.25    70.0000 30.00000      0.0 "vf"    "vf"       "Lower_shoreface_(storm_dominated)"                     "Shelf_with_prograding_shoreface_/_estuary_sequence"
