~Version
VERS  .                                 3.0 : CWLS LAS ASCII Standard - Version 3.0
WRAP  . NO                                  : One line per depth step
DLM   . SPACE                               : Column data section delimiter
SOURCE. Converted to LAS by Log Studio 4.76 : GeoProvider

~Well
STRT.         2435.0 : Start depth
STOP.         2766.7 : Stop depth
STEP.              1 : Step
NULL.        -999.25 : No-value
COMP.                : Company
WELL. 6507/7-4       : Well
FLD .                : Field
LOC .                : Location
LATI.                : Latitude
LONG.                : Longitude
GDAT.                : Geodetic datum
CNTY.                : County
STAT.                : State
CTRY.                : Country
SRVC. GeoProvider AS : Service company
DATE.                : Date
API .                : API number
RUN .                : Run number

~Parameters
WellboreName.  : Wellbore name
RigName     .  : Rig name
StartDate   .  : Start date

~Curves
DEPTH.m            .  : null {F}Depth mMD
Hole_ID.-          .  : null {S}Hole ID
GR.API             .  : null {F}Gamma Ray
Lithology1.-       .  : null {S}Lithology 1
Lithology2.-       .  : null {S}Lithology 2
Lithology3.-       .  : null {S}Lithology 3
Lithology1.%       .  : null {F}Lithology 1 percentage
Lithology2.%       .  : null {F}Lithology 2 percentage
Lithology3.%       .  : null {F}Lithology 3 percentage
Grain_size_Top.-   .  : null {S}Grain size at the top 
Grain_size_Base.-  .  : null {S}Grain size at the bottom
Sub_Environment.-  .  : null {S}Sub Environment
Gross_Environment.-.  : null {S}Gross Environment

~Ascii
# ...
2762.2 "6507_7-4"  48.6700 "Sandstone" "Shale"   -999.25    80.0000 20.00000      0.0 "f/m"   "f/m"      "Tidal_flat"                                            "Tidal_flat_/_estuary"                            
2762.3 "6507_7-4"  47.4600 "Sandstone" "Shale"   -999.25    80.0000 20.00000      0.0 "f/m"   "f/m"      "Tidal_flat"                                            "Tidal_flat_/_estuary"                            
2762.4 "6507_7-4"  44.7500 "Sandstone" "Shale"   -999.25    80.0000 20.00000      0.0 "f/m"   "f/m"      "Tidal_flat"                                            "Tidal_flat_/_estuary"                            
2762.5 "6507_7-4"  42.1400 "Sandstone" "Shale"   -999.25    75.0000 25.00000      0.0 "f/m"   "f"        "Tidal_flat"                                            "Tidal_flat_/_estuary"                            
2762.6 "6507_7-4"  43.0900 "Sandstone" "Shale"   -999.25    75.0000 25.00000      0.0 "f/m"   "f"        "Tidal_flat"                                            "Tidal_flat_/_estuary"                            
2762.7 "6507_7-4"  44.0300 "Sandstone" "Shale"   -999.25    75.0000 25.00000      0.0 "f/m"   "f"        "Tidal_flat"                                            "Tidal_flat_/_estuary"                            
2762.8 "6507_7-4"  44.4300 "Sandstone" "Shale"   -999.25    75.0000 25.00000      0.0 "f/m"   "f"        "Tidal_flat"                                            "Tidal_flat_/_estuary"                            
2762.9 "6507_7-4"  44.5800 "Sandstone" "Shale"   -999.25    80.0000 20.00000      0.0 "f/m"   "f/m"      "Tidal_flat"                                            "Tidal_flat_/_estuary"                            
2763.0 "6507_7-4"  44.7300 "Sandstone" "Shale"   -999.25    80.0000 20.00000      0.0 "f/m"   "f/m"      "Tidal_flat"                                            "Tidal_flat_/_estuary"                            
2763.1 "6507_7-4"  43.6400 "Sandstone" "Shale"   -999.25    80.0000 20.00000      0.0 "f/m"   "f/m"      "Tidal_flat"                                            "Tidal_flat_/_estuary"                            
2763.2 "6507_7-4"  42.5400 "Sandstone" "Shale"   -999.25    80.0000 20.00000      0.0 "f/m"   "f/m"      "Tidal_flat"                                            "Tidal_flat_/_estuary"                            
2763.3 "6507_7-4"  41.4500 "Sandstone" "Shale"   -999.25    80.0000 20.00000      0.0 "f/m"   "f/m"      "Tidal_flat"                                            "Tidal_flat_/_estuary"                            
2763.4 "6507_7-4"  41.0000 "Sandstone" "Shale"   -999.25    80.0000 20.00000      0.0 "f/m"   "f/m"      "Tidal_flat"                                            "Tidal_flat_/_estuary"                            
2763.5 "6507_7-4"  40.6600 "Sandstone" "Shale"   -999.25    80.0000 20.00000      0.0 "m/c"   "m/c"      "Tidal_flat"                                            "Tidal_flat_/_estuary"                            
2763.6 "6507_7-4"  40.3100 "Sandstone" "Shale"   -999.25    80.0000 20.00000      0.0 "m/c"   "m/c"      "Tidal_flat"                                            "Tidal_flat_/_estuary"                            
2763.7 "6507_7-4"  40.2900 "Sandstone" "Shale"   -999.25    80.0000 20.00000      0.0 "m/c"   "m/c"      "Tidal_flat"                                            "Tidal_flat_/_estuary"                            
2763.8 "6507_7-4"  40.9500 "Sandstone" "Shale"   -999.25    70.0000 30.00000      0.0 "silt/vf" "silt/vf"  "Tidal_flat"                                            "Tidal_flat_/_estuary"                            
2763.9 "6507_7-4"  41.6200 "Sandstone" "Shale"   -999.25    70.0000 30.00000      0.0 "silt/vf" "silt/vf"  "Tidal_flat"                                            "Tidal_flat_/_estuary"                            
2764.0 "6507_7-4"  42.2900 "Sandstone" "Shale"   -999.25    70.0000 30.00000      0.0 "silt/vf" "silt/vf"  "Tidal_flat"                                            "Tidal_flat_/_estuary"                            
2764.1 "6507_7-4"  42.9200 "Sandstone" "Shale"   -999.25    80.0000 20.00000      0.0 -999.25 -999.25    "Tidal_flat"                                            "Tidal_flat_/_estuary"                            
2764.2 "6507_7-4"  43.5400 "Sandstone" "Shale"   -999.25    80.0000 20.00000      0.0 -999.25 -999.25    "Tidal_flat"                                            "Tidal_flat_/_estuary"                            
2764.3 "6507_7-4"  46.7500 "Sandstone" "Shale"   -999.25    60.0000 40.00000      0.0 "f"     "f"        "Tidal_flat"                                            "Tidal_flat_/_estuary"                            
2764.4 "6507_7-4"  48.9100 "Sandstone" "Shale"   -999.25    60.0000 40.00000      0.0 "f"     "f"        "Tidal_flat"                                            "Tidal_flat_/_estuary"                            
2764.5 "6507_7-4"  51.0700 "Sandstone" "Shale"   -999.25    80.0000 20.00000      0.0 "f"     "f"        "Tidal_flat"                                            "Tidal_flat_/_estuary"                            
2764.6 "6507_7-4"  53.2400 "Sandstone" "Shale"   -999.25    80.0000 20.00000      0.0 "f"     "f"        "Tidal_flat"                                            "Tidal_flat_/_estuary"                            
2764.7 "6507_7-4"  55.4000 "Sandstone" "Shale"   -999.25    80.0000 20.00000      0.0 "f"     "f"        "Tidal_flat"                                            "Tidal_flat_/_estuary"                            
2764.8 "6507_7-4"  57.5600 "Sandstone" "Shale"   -999.25    80.0000 20.00000      0.0 "f"     "f"        "Tidal_flat"                                            "Tidal_flat_/_estuary"                            
2764.9 "6507_7-4"  59.7300 "Sandstone" "Shale"   -999.25    80.0000 20.00000      0.0 "f"     "f"        "Tidal_flat"                                            "Tidal_flat_/_estuary"                            
2765.0 "6507_7-4"  61.8900 "Sandstone" "Shale"   -999.25    80.0000 20.00000      0.0 "f"     "f"        "Tidal_flat"                                            "Tidal_flat_/_estuary"                            
2765.1 "6507_7-4"  62.3900 "Sandstone" "Shale"   -999.25    80.0000 20.00000      0.0 "f"     "f"        "Tidal_flat"                                            "Tidal_flat_/_estuary"                            
2765.2 "6507_7-4"  62.7400 "Sandstone" "Shale"   -999.25    80.0000 20.00000      0.0 "f"     "f"        "Tidal_flat"                                            "Tidal_flat_/_estuary"                            
2765.3 "6507_7-4"  62.3900 "Sandstone" "Shale"   -999.25    80.0000 20.00000      0.0 "f"     "f"        "Tidal_flat"                                            "Tidal_flat_/_estuary"                            
2765.4 "6507_7-4"  61.9800 "Sandstone" "Shale"   -999.25    70.0000 30.00000      0.0 -999.25 -999.25    "Tidal_flat"                                            "Tidal_flat_/_estuary"                            
2765.5 "6507_7-4"  61.5800 "Sandstone" "Shale"   -999.25    70.0000 30.00000      0.0 -999.25 -999.25    "Tidal_flat"                                            "Tidal_flat_/_estuary"                            
2765.6 "6507_7-4"  61.1800 "Sandstone" "Shale"   -999.25    80.0000 20.00000      0.0 "m"     "f"        "Tidal_flat"                                            "Tidal_flat_/_estuary"                            
2765.7 "6507_7-4"  61.5200 "Sandstone" "Shale"   -999.25    80.0000 20.00000      0.0 "m"     "f"        "Tidal_flat"                                            "Tidal_flat_/_estuary"                            
2765.8 "6507_7-4"  62.5900 "Sandstone" "Shale"   -999.25    80.0000 20.00000      0.0 "m"     "f"        "Tidal_flat"                                            "Tidal_flat_/_estuary"                            
2765.9 "6507_7-4"  64.3700 "Sandstone" "Shale"   -999.25    80.0000 20.00000      0.0 "m"     "f"        "Tidal_flat"                                            "Tidal_flat_/_estuary"                            
