~Version
VERS  .                                 3.0 : CWLS LAS ASCII Standard - Version 3.0
WRAP  . NO                                  : One line per depth step
DLM   . SPACE                               : Column data section delimiter
SOURCE. Converted to LAS by Log Studio 4.76 : GeoProvider

~Well
STRT.         2435.0 : Start depth
STOP.         2766.7 : Stop depth
STEP.              1 : Step
NULL.        -999.25 : No-value
COMP.                : Company
WELL. 6507/7-4       : Well
FLD .                : Field
LOC .                : Location
LATI.                : Latitude
LONG.                : Longitude
GDAT.                : Geodetic datum
CNTY.                : County
STAT.                : State
CTRY.                : Country
SRVC. GeoProvider AS : Service company
DATE.                : Date
API .                : API number
RUN .                : Run number

~Parameters
WellboreName.  : Wellbore name
RigName     .  : Rig name
StartDate   .  : Start date

~Curves
DEPTH.m            .  : null {F}Depth mMD
Hole_ID.-          .  : null {S}Hole ID
GR.API             .  : null {F}Gamma Ray
Lithology1.-       .  : null {S}Lithology 1
Lithology2.-       .  : null {S}Lithology 2
Lithology3.-       .  : null {S}Lithology 3
Lithology1.%       .  : null {F}Lithology 1 percentage
Lithology2.%       .  : null {F}Lithology 2 percentage
Lithology3.%       .  : null {F}Lithology 3 percentage
Grain_size_Top.-   .  : null {S}Grain size at the top 
Grain_size_Base.-  .  : null {S}Grain size at the bottom
Sub_Environment.-  .  : null {S}Sub Environment
Gross_Environment.-.  : null {S}Gross Environment

~Ascii
# ...
2633.0 "6507_7-4"  53.4100 "Sandstone" "Mudstone" -999.25    90.0000 10.00000      0.0 "vf"    "f"        "Lower_shoreface_storm_influenced"                      "Tidal_flat_sequence"                             
2633.1 "6507_7-4"  54.1600 "Sandstone" "Mudstone" -999.25    90.0000 10.00000      0.0 "vf"    "f"        "Lower_shoreface_storm_influenced"                      "Tidal_flat_sequence"                             
2633.2 "6507_7-4"  54.3000 "Sandstone" "Mudstone" -999.25    90.0000 10.00000      0.0 "vf"    "f"        "Lower_shoreface_storm_influenced"                      "Tidal_flat_sequence"                             
2633.3 "6507_7-4"  54.2000 "Sandstone" "Mudstone" -999.25    90.0000 10.00000      0.0 "vf"    "f"        "Shallow_subtidal"                                      "Tidal_flat_sequence"                             
2633.4 "6507_7-4"  54.1100 "Sandstone" "Mudstone" -999.25    90.0000 10.00000      0.0 "vf"    "f"        "Shallow_subtidal"                                      "Tidal_flat_sequence"                             
2633.5 "6507_7-4"  55.1000 "Sandstone" "Mudstone" -999.25    90.0000 10.00000      0.0 "vf"    "f"        "Shallow_subtidal"                                      "Tidal_flat_sequence"                             
2633.6 "6507_7-4"  56.2800 "Sandstone" "Mudstone" -999.25    90.0000 10.00000      0.0 "vf"    "f"        "Shallow_subtidal"                                      "Tidal_flat_sequence"                             
2633.7 "6507_7-4"  57.1700 "Sandstone" "Mudstone" -999.25    90.0000 10.00000      0.0 "vf"    "f"        "Shallow_subtidal"                                      "Tidal_flat_sequence"                             
2633.8 "6507_7-4"  57.6400 "Sandstone" "Mudstone" -999.25    90.0000 10.00000      0.0 "vf"    "f"        "Shallow_subtidal"                                      "Tidal_flat_sequence"                             
2633.9 "6507_7-4"  58.2000 "Sandstone" "Mudstone" -999.25    90.0000 10.00000      0.0 "vf"    "f"        "Shallow_subtidal"                                      "Tidal_flat_sequence"                             
2634.0 "6507_7-4"  59.9300 "Sandstone" "Mudstone" -999.25    90.0000 10.00000      0.0 "vf"    "f"        "Shallow_subtidal"                                      "Tidal_flat_sequence"                             
2634.1 "6507_7-4"  61.6700 "Sandstone" "Mudstone" -999.25    90.0000 10.00000      0.0 "vf"    "f"        "Shallow_subtidal"                                      "Tidal_flat_sequence"                             
2634.2 "6507_7-4"  63.7100 "Sandstone" "Mudstone" -999.25    90.0000 10.00000      0.0 "vf"    "f"        "Shallow_subtidal"                                      "Tidal_flat_sequence"                             
2634.3 "6507_7-4"  65.9400 "Sandstone" "Mudstone" -999.25    90.0000 10.00000      0.0 "vf"    "f"        "Shallow_subtidal"                                      "Tidal_flat_sequence"                             
2634.4 "6507_7-4"  68.1600 "Sandstone" "Mudstone" -999.25    90.0000 10.00000      0.0 "vf"    "f"        "Shallow_subtidal"                                      "Tidal_flat_sequence"                             
2634.5 "6507_7-4"  70.0900 "Sandstone" "Mudstone" -999.25    90.0000 10.00000      0.0 "vf"    "f"        "Shallow_subtidal"                                      "Tidal_flat_sequence"                             
2634.6 "6507_7-4"  69.4700 "Sandstone" "Mudstone" -999.25    90.0000 10.00000      0.0 "vf"    "f"        "Shallow_subtidal"                                      "Tidal_flat_sequence"                             
2634.7 "6507_7-4"  66.2100 "Sandstone" "Mudstone" -999.25    90.0000 10.00000      0.0 "vf"    "f"        "Shallow_subtidal"                                      "Tidal_flat_sequence"                             
2634.8 "6507_7-4"  62.5400 "Sandstone" "Mudstone" -999.25    90.0000 10.00000      0.0 "vf"    "f"        "Shallow_subtidal"                                      "Tidal_flat_sequence"                             
2634.9 "6507_7-4"  58.7300 "Sandstone" "Mudstone" -999.25    90.0000 10.00000      0.0 "vf"    "f"        "Shallow_subtidal"                                      "Tidal_flat_sequence"                             
2635.0 "6507_7-4"  54.0100 "Sandstone" "Mudstone" -999.25    90.0000 10.00000      0.0 "vf"    "f"        "Shallow_subtidal"                                      "Tidal_flat_sequence"                             
2635.1 "6507_7-4"  48.5000 "Sandstone" "Mudstone" -999.25    90.0000 10.00000      0.0 "vf"    "f"        "Shallow_subtidal"                                      "Tidal_flat_sequence"                             
2635.2 "6507_7-4"  44.4000 "Sandstone" "Mudstone" -999.25    90.0000 10.00000      0.0 "vf"    "f"        "Shallow_subtidal"                                      "Tidal_flat_sequence"                             
2635.3 "6507_7-4"  43.9900 "Sandstone" "Mudstone" -999.25    90.0000 10.00000      0.0 "vf"    "f"        "Shallow_subtidal"                                      "Tidal_flat_sequence"                             
2635.4 "6507_7-4"  45.0600 "Sandstone" "Mudstone" -999.25    90.0000 10.00000      0.0 "vf"    "f"        "Shallow_subtidal"                                      "Tidal_flat_sequence"                             
2635.5 "6507_7-4"  46.3600 "Sandstone" "Mudstone" -999.25    90.0000 10.00000      0.0 "vf"    "f"        "Shallow_subtidal"                                      "Tidal_flat_sequence"                             
2635.6 "6507_7-4"  47.9700 "Sandstone" "Mudstone" -999.25    90.0000 10.00000      0.0 "vf"    "f"        "Shallow_subtidal"                                      "Tidal_flat_sequence"                             
2635.7 "6507_7-4"  49.3800 "Sandstone" "Mudstone" -999.25    90.0000 10.00000      0.0 "vf"    "f"        "Shallow_subtidal"                                      "Tidal_flat_sequence"                             
2635.8 "6507_7-4"  49.9100 "Sandstone" "Mudstone" -999.25    90.0000 10.00000      0.0 "vf"    "f"        "Shallow_subtidal"                                      "Tidal_flat_sequence"                             
2635.9 "6507_7-4"  49.7000 "Sandstone" "Mudstone" -999.25    90.0000 10.00000      0.0 "vf"    "f"        "Shallow_subtidal"                                      "Tidal_flat_sequence"                             
2636.0 "6507_7-4"  49.4000 "Sandstone" "Mudstone" -999.25    90.0000 10.00000      0.0 "vf"    "f"        "Shallow_subtidal"                                      "Tidal_flat_sequence"                             
2636.1 "6507_7-4"  48.5600 "Sandstone" "Mudstone" -999.25    90.0000 10.00000      0.0 "vf"    "f/m"      "Shallow_subtidal"                                      "Tidal_flat_sequence"                             
2636.2 "6507_7-4"  47.3000 "Sandstone" "Mudstone" -999.25    90.0000 10.00000      0.0 "vf"    "f/m"      "Shallow_subtidal"                                      "Tidal_flat_sequence"                             
2636.3 "6507_7-4"  46.0500 "Sandstone" "Mudstone" -999.25    90.0000 10.00000      0.0 "vf"    "f/m"      "Shallow_subtidal"                                      "Tidal_flat_sequence"                             
2636.4 "6507_7-4"  44.7900 "Sandstone" "Mudstone" -999.25    90.0000 10.00000      0.0 "vf"    "f/m"      "Shallow_subtidal"                                      "Tidal_flat_sequence"                             
2636.5 "6507_7-4"  43.7400 "Sandstone" "Mudstone" -999.25    90.0000 10.00000      0.0 "vf"    "f/m"      "Shallow_subtidal"                                      "Tidal_flat_sequence"                             
2636.6 "6507_7-4"  42.6900 "Sandstone" "Mudstone" -999.25    90.0000 10.00000      0.0 "vf"    "f/m"      "Shallow_subtidal"                                      "Tidal_flat_sequence"                             
2636.7 "6507_7-4"  42.5300 "Sandstone" "Mudstone" -999.25    90.0000 10.00000      0.0 "vf"    "f/m"      "Shallow_subtidal"                                      "Tidal_flat_sequence"                             
