~Version
VERS  .                                 3.0 : CWLS LAS ASCII Standard - Version 3.0
WRAP  . NO                                  : One line per depth step
DLM   . SPACE                               : Column data section delimiter
SOURCE. Converted to LAS by Log Studio 4.76 : GeoProvider

~Well
STRT.         2435.0 : Start depth
STOP.         2766.7 : Stop depth
STEP.              1 : Step
NULL.        -999.25 : No-value
COMP.                : Company
WELL. 6507/7-4       : Well
FLD .                : Field
LOC .                : Location
LATI.                : Latitude
LONG.                : Longitude
GDAT.                : Geodetic datum
CNTY.                : County
STAT.                : State
CTRY.                : Country
SRVC. GeoProvider AS : Service company
DATE.                : Date
API .                : API number
RUN .                : Run number

~Parameters
WellboreName.  : Wellbore name
RigName     .  : Rig name
StartDate   .  : Start date

~Curves
DEPTH.m            .  : null {F}Depth mMD
Hole_ID.-          .  : null {S}Hole ID
GR.API             .  : null {F}Gamma Ray
Lithology1.-       .  : null {S}Lithology 1
Lithology2.-       .  : null {S}Lithology 2
Lithology3.-       .  : null {S}Lithology 3
Lithology1.%       .  : null {F}Lithology 1 percentage
Lithology2.%       .  : null {F}Lithology 2 percentage
Lithology3.%       .  : null {F}Lithology 3 percentage
Grain_size_Top.-   .  : null {S}Grain size at the top 
Grain_size_Base.-  .  : null {S}Grain size at the bottom
Sub_Environment.-  .  : null {S}Sub Environment
Gross_Environment.-.  : null {S}Gross Environment

~Ascii
# ...
2591.2 "6507_7-4"  68.9000 "Sandstone" "Mudstone" "Limestone"   5.0000 90.00000  5.00000 "m"     "m"        "Offshore"                                              "Offshore"                                        
2591.3 "6507_7-4"  69.0200 "Sandstone" "Mudstone" "Limestone"   5.0000 90.00000  5.00000 "m"     "m"        "Offshore"                                              "Offshore"                                        
2591.4 "6507_7-4"  69.9300 -999.25   -999.25   -999.25   100.0000      0.0      0.0 -999.25 -999.25    "Offshore"                                              "Offshore"                                        
2591.5 "6507_7-4"  70.8400 "Sandstone" "Mudstone" "Limestone"  10.0000 85.00000  5.00000 "c"     "m"        "Offshore"                                              "Offshore"                                        
2591.6 "6507_7-4"  70.5400 "Sandstone" "Mudstone" "Limestone"  10.0000 85.00000  5.00000 "c"     "m"        "Offshore"                                              "Offshore"                                        
2591.7 "6507_7-4"  69.9300 "Sandstone" "Mudstone" "Limestone"  10.0000 85.00000  5.00000 "c"     "m"        "Offshore"                                              "Offshore"                                        
2591.8 "6507_7-4"  69.0200 "Sandstone" "Mudstone" "Limestone"  10.0000 85.00000  5.00000 "c"     "m"        "Offshore"                                              "Offshore"                                        
2591.9 "6507_7-4"  68.6200 "Sandstone" "Mudstone" "Limestone"  10.0000 85.00000  5.00000 "c"     "m"        "Offshore"                                              "Offshore"                                        
2592.0 "6507_7-4"  69.7600 "Sandstone" "Mudstone" "Limestone"  10.0000 85.00000  5.00000 "c"     "m"        "Offshore"                                              "Offshore"                                        
2592.1 "6507_7-4"  71.7300 "Sandstone" "Mudstone" "Limestone"  10.0000 85.00000  5.00000 "c"     "m"        "Offshore"                                              "Offshore"                                        
2592.2 "6507_7-4"  72.4200 "Sandstone" "Mudstone" "Limestone"  10.0000 85.00000  5.00000 "c"     "m"        "Offshore"                                              "Offshore"                                        
2592.3 "6507_7-4"  71.7900 "Sandstone" "Mudstone" "Limestone"  10.0000 85.00000  5.00000 "c"     "m"        "Offshore"                                              "Offshore"                                        
2592.4 "6507_7-4"  70.8900 "Sandstone" "Mudstone" "Limestone"  10.0000 85.00000  5.00000 "c"     "m"        "Offshore"                                              "Offshore"                                        
2592.5 "6507_7-4"  69.7700 "Sandstone" "Mudstone" "Limestone"  10.0000 85.00000  5.00000 "c"     "m"        "Offshore"                                              "Offshore"                                        
2592.6 "6507_7-4"  68.2800 "Sandstone" "Mudstone" "Limestone"  10.0000 85.00000  5.00000 "c"     "m"        "Offshore"                                              "Offshore"                                        
2592.7 "6507_7-4"  67.3500 "Sandstone" "Mudstone" "Limestone"  10.0000 85.00000  5.00000 "c"     "m"        "Offshore"                                              "Offshore"                                        
2592.8 "6507_7-4"  66.7600 "Sandstone" "Mudstone" "Limestone"  10.0000 85.00000  5.00000 "c"     "m"        "Offshore"                                              "Offshore"                                        
2592.9 "6507_7-4"  66.9400 "Sandstone" "Mudstone" "Limestone"  10.0000 85.00000  5.00000 "c"     "m"        "Offshore"                                              "Offshore"                                        
2593.0 "6507_7-4"  67.3800 "Sandstone" "Mudstone" "Limestone"  10.0000 85.00000  5.00000 "c"     "m"        "Offshore"                                              "Offshore"                                        
2593.1 "6507_7-4"  68.4800 "Sandstone" "Mudstone" "Limestone"  10.0000 85.00000  5.00000 "c"     "m"        "Offshore"                                              "Offshore"                                        
2593.2 "6507_7-4"  70.1700 "Sandstone" "Mudstone" "Limestone"  10.0000 85.00000  5.00000 "c"     "m"        "Offshore"                                              "Offshore"                                        
2593.3 "6507_7-4"  72.2400 "Sandstone" "Mudstone" "Limestone"  10.0000 85.00000  5.00000 "c"     "m"        "Offshore"                                              "Offshore"                                        
2593.4 "6507_7-4"  73.9500 "Sandstone" "Mudstone" "Limestone"  10.0000 85.00000  5.00000 "c"     "m"        "Offshore"                                              "Offshore"                                        
2593.5 "6507_7-4"  73.2800 "Sandstone" "Mudstone" "Limestone"  10.0000 85.00000  5.00000 "c"     "m"        "Offshore"                                              "Offshore"                                        
2593.6 "6507_7-4"  72.0700 "Sandstone" "Mudstone" "Limestone"  10.0000 85.00000  5.00000 "c"     "m"        "Offshore"                                              "Offshore"                                        
2593.7 "6507_7-4"  70.3600 "Sandstone" "Mudstone" "Limestone"  10.0000 85.00000  5.00000 "c"     "m"        "Offshore"                                              "Offshore"                                        
2593.8 "6507_7-4"  68.6400 "Sandstone" "Mudstone" "Limestone"  10.0000 85.00000  5.00000 "c"     "m"        "Offshore"                                              "Offshore"                                        
2593.9 "6507_7-4"  68.5400 "Sandstone" "Mudstone" "Limestone"  10.0000 85.00000  5.00000 "c"     "m"        "Offshore"                                              "Offshore"                                        
2594.0 "6507_7-4"  69.7400 "Sandstone" "Mudstone" "Limestone"  10.0000 85.00000  5.00000 "c"     "m"        "Offshore"                                              "Offshore"                                        
2594.1 "6507_7-4"  70.8500 "Sandstone" "Mudstone" "Limestone"  10.0000 85.00000  5.00000 "c"     "m"        "Offshore"                                              "Offshore"                                        
2594.2 "6507_7-4"  70.7000 "Sandstone" "Mudstone" "Limestone"  10.0000 85.00000  5.00000 "c"     "m"        "Offshore"                                              "Offshore"                                        
2594.3 "6507_7-4"  69.9100 "Sandstone" "Mudstone" "Limestone"  10.0000 85.00000  5.00000 "c"     "m"        "Offshore"                                              "Offshore"                                        
2594.4 "6507_7-4"  68.1000 "Sandstone" "Mudstone" "Limestone"  10.0000 85.00000  5.00000 "c"     "m"        "Offshore"                                              "Offshore"                                        
2594.5 "6507_7-4"  66.3200 "Sandstone" "Mudstone" "Limestone"  10.0000 85.00000  5.00000 "c"     "m"        "Offshore"                                              "Offshore"                                        
2594.6 "6507_7-4"  65.0900 "Sandstone" "Mudstone" "Limestone"  10.0000 85.00000  5.00000 "c"     "m"        "Offshore"                                              "Offshore"                                        
2594.7 "6507_7-4"  65.6400 "Sandstone" "Mudstone" "Limestone"  10.0000 85.00000  5.00000 "c"     "m"        "Offshore"                                              "Offshore"                                        
2594.8 "6507_7-4"  65.7300 "Sandstone" "Mudstone" "Limestone"  10.0000 85.00000  5.00000 "c"     "m"        "Offshore"                                              "Offshore"                                        
2594.9 "6507_7-4"  65.6600 "Sandstone" "Mudstone" "Limestone"  10.0000 85.00000  5.00000 "c"     "m"        "Offshore"                                              "Offshore"                                        
