~Version
VERS  .                                 3.0 : CWLS LAS ASCII Standard - Version 3.0
WRAP  . NO                                  : One line per depth step
DLM   . SPACE                               : Column data section delimiter
SOURCE. Converted to LAS by Log Studio 4.76 : GeoProvider

~Well
STRT.         2435.0 : Start depth
STOP.         2766.7 : Stop depth
STEP.              1 : Step
NULL.        -999.25 : No-value
COMP.                : Company
WELL. 6507/7-4       : Well
FLD .                : Field
LOC .                : Location
LATI.                : Latitude
LONG.                : Longitude
GDAT.                : Geodetic datum
CNTY.                : County
STAT.                : State
CTRY.                : Country
SRVC. GeoProvider AS : Service company
DATE.                : Date
API .                : API number
RUN .                : Run number

~Parameters
WellboreName.  : Wellbore name
RigName     .  : Rig name
StartDate   .  : Start date

~Curves
DEPTH.m            .  : null {F}Depth mMD
Hole_ID.-          .  : null {S}Hole ID
GR.API             .  : null {F}Gamma Ray
Lithology1.-       .  : null {S}Lithology 1
Lithology2.-       .  : null {S}Lithology 2
Lithology3.-       .  : null {S}Lithology 3
Lithology1.%       .  : null {F}Lithology 1 percentage
Lithology2.%       .  : null {F}Lithology 2 percentage
Lithology3.%       .  : null {F}Lithology 3 percentage
Grain_size_Top.-   .  : null {S}Grain size at the top 
Grain_size_Base.-  .  : null {S}Grain size at the bottom
Sub_Environment.-  .  : null {S}Sub Environment
Gross_Environment.-.  : null {S}Gross Environment

~Ascii
# ...
2465.8 "6507_7-4"  36.7900 "Sandstone" "Shale"   -999.25    85.0000 15.00000      0.0 "silt/vf" "f/m"      "Mouth_bar"                                             "Prograding_delta_(braid_delta)_sequence"         
2465.9 "6507_7-4"  37.2600 "Sandstone" "Shale"   -999.25    85.0000 15.00000      0.0 "silt/vf" "f/m"      "Mouth_bar"                                             "Prograding_delta_(braid_delta)_sequence"         
2466.0 "6507_7-4"  37.7300 "Sandstone" "Shale"   -999.25    85.0000 15.00000      0.0 "silt/vf" "f/m"      "Mouth_bar"                                             "Prograding_delta_(braid_delta)_sequence"         
2466.1 "6507_7-4"  39.3100 "Sandstone" "Shale"   -999.25    85.0000 15.00000      0.0 "silt/vf" "f/m"      "Mouth_bar"                                             "Prograding_delta_(braid_delta)_sequence"         
2466.2 "6507_7-4"  42.2300 "Sandstone" "Shale"   -999.25    85.0000 15.00000      0.0 "silt/vf" "f/m"      "Mouth_bar"                                             "Prograding_delta_(braid_delta)_sequence"         
2466.3 "6507_7-4"  45.1500 "Sandstone" "Shale"   -999.25    85.0000 15.00000      0.0 "silt/vf" "f/m"      "Mouth_bar"                                             "Prograding_delta_(braid_delta)_sequence"         
2466.4 "6507_7-4"  48.0800 "Sandstone" "Shale"   -999.25    85.0000 15.00000      0.0 "silt/vf" "f/m"      "Mouth_bar"                                             "Prograding_delta_(braid_delta)_sequence"         
2466.5 "6507_7-4"  51.0000 "Sandstone" "Shale"   -999.25    85.0000 15.00000      0.0 "silt/vf" "f/m"      "Mouth_bar"                                             "Prograding_delta_(braid_delta)_sequence"         
2466.6 "6507_7-4"  53.9200 "Sandstone" "Shale"   -999.25    85.0000 15.00000      0.0 "silt/vf" "f/m"      "Mouth_bar"                                             "Prograding_delta_(braid_delta)_sequence"         
2466.7 "6507_7-4"  55.2400 "Sandstone" "Shale"   -999.25    85.0000 15.00000      0.0 "silt/vf" "f/m"      "Mouth_bar"                                             "Prograding_delta_(braid_delta)_sequence"         
2466.8 "6507_7-4"  55.5600 "Sandstone" "Shale"   -999.25    85.0000 15.00000      0.0 "silt/vf" "f/m"      "Mouth_bar"                                             "Prograding_delta_(braid_delta)_sequence"         
2466.9 "6507_7-4"  55.4100 "Sandstone" "Shale"   -999.25    85.0000 15.00000      0.0 "silt/vf" "f/m"      "Mouth_bar"                                             "Prograding_delta_(braid_delta)_sequence"         
2467.0 "6507_7-4"  54.5500 "Sandstone" "Shale"   -999.25    85.0000 15.00000      0.0 "silt/vf" "f/m"      "Mouth_bar"                                             "Prograding_delta_(braid_delta)_sequence"         
2467.1 "6507_7-4"  53.6900 "Sandstone" "Shale"   -999.25    85.0000 15.00000      0.0 "silt/vf" "f/m"      "Mouth_bar"                                             "Prograding_delta_(braid_delta)_sequence"         
2467.2 "6507_7-4"  52.8400 "Sandstone" "Shale"   -999.25    85.0000 15.00000      0.0 "silt/vf" "f/m"      "Mouth_bar"                                             "Prograding_delta_(braid_delta)_sequence"         
2467.3 "6507_7-4"  52.5800 "Sandstone" "Shale"   -999.25    85.0000 15.00000      0.0 "silt/vf" "f/m"      "Mouth_bar"                                             "Prograding_delta_(braid_delta)_sequence"         
2467.4 "6507_7-4"  52.8400 "Sandstone" "Shale"   -999.25    85.0000 15.00000      0.0 "silt/vf" "f/m"      "Mouth_bar"                                             "Prograding_delta_(braid_delta)_sequence"         
2467.5 "6507_7-4"  53.0900 "Sandstone" "Shale"   -999.25    85.0000 15.00000      0.0 "silt/vf" "f/m"      "Mouth_bar"                                             "Prograding_delta_(braid_delta)_sequence"         
2467.6 "6507_7-4"  53.3500 "Sandstone" "Shale"   -999.25    85.0000 15.00000      0.0 "silt/vf" "f/m"      "Mouth_bar"                                             "Prograding_delta_(braid_delta)_sequence"         
2467.7 "6507_7-4"  52.8000 "Sandstone" "Shale"   -999.25    85.0000 15.00000      0.0 "silt/vf" "f/m"      "Mouth_bar"                                             "Prograding_delta_(braid_delta)_sequence"         
2467.8 "6507_7-4"  51.5100 "Sandstone" "Shale"   -999.25    85.0000 15.00000      0.0 "silt/vf" "f/m"      "Mouth_bar"                                             "Prograding_delta_(braid_delta)_sequence"         
2467.9 "6507_7-4"  49.7100 "Sandstone" "Shale"   -999.25    85.0000 15.00000      0.0 "silt/vf" "f/m"      "Mouth_bar"                                             "Prograding_delta_(braid_delta)_sequence"         
2468.0 "6507_7-4"  48.7400 "Sandstone" "Shale"   -999.25    85.0000 15.00000      0.0 "silt/vf" "f/m"      "Mouth_bar"                                             "Prograding_delta_(braid_delta)_sequence"         
2468.1 "6507_7-4"  48.5000 "Sandstone" "Shale"   -999.25    85.0000 15.00000      0.0 "silt/vf" "f/m"      "Mouth_bar"                                             "Prograding_delta_(braid_delta)_sequence"         
2468.2 "6507_7-4"  49.5200 "Sandstone" "Shale"   -999.25    85.0000 15.00000      0.0 "silt/vf" "f/m"      "Mouth_bar"                                             "Prograding_delta_(braid_delta)_sequence"         
2468.3 "6507_7-4"  51.7500 "Sandstone" "Shale"   -999.25    85.0000 15.00000      0.0 "silt/vf" "f/m"      "Mouth_bar"                                             "Prograding_delta_(braid_delta)_sequence"         
2468.4 "6507_7-4"  55.6100 "Sandstone" "Shale"   -999.25    85.0000 15.00000      0.0 "silt/vf" "f/m"      "Mouth_bar"                                             "Prograding_delta_(braid_delta)_sequence"         
2468.5 "6507_7-4"  61.6800 "Sandstone" "Shale"   -999.25    85.0000 15.00000      0.0 "silt/vf" "f/m"      "Mouth_bar"                                             "Prograding_delta_(braid_delta)_sequence"         
2468.6 "6507_7-4"  67.7500 "Sandstone" "Shale"   -999.25    85.0000 15.00000      0.0 "silt/vf" "f/m"      "Mouth_bar"                                             "Prograding_delta_(braid_delta)_sequence"         
2468.7 "6507_7-4"  73.8200 "Sandstone" "Shale"   -999.25    85.0000 15.00000      0.0 "silt/vf" "f/m"      "Mouth_bar"                                             "Prograding_delta_(braid_delta)_sequence"         
2468.8 "6507_7-4"  79.6400 "Sandstone" "Shale"   -999.25    85.0000 15.00000      0.0 "silt/vf" "f/m"      "Mouth_bar"                                             "Prograding_delta_(braid_delta)_sequence"         
2468.9 "6507_7-4"  84.6500 "Sandstone" "Shale"   -999.25    85.0000 15.00000      0.0 "silt/vf" "f/m"      "Mouth_bar"                                             "Prograding_delta_(braid_delta)_sequence"         
2469.0 "6507_7-4"  86.3400 "Sandstone" "Shale"   -999.25    85.0000 15.00000      0.0 "silt/vf" "f/m"      "Mouth_bar"                                             "Prograding_delta_(braid_delta)_sequence"         
2469.1 "6507_7-4"  87.3900 "Sandstone" "Shale"   -999.25    85.0000 15.00000      0.0 "silt/vf" "f/m"      "Mouth_bar"                                             "Prograding_delta_(braid_delta)_sequence"         
2469.2 "6507_7-4"  88.4300 "Sandstone" "Shale"   -999.25    85.0000 15.00000      0.0 "silt/vf" "f/m"      "Mouth_bar"                                             "Prograding_delta_(braid_delta)_sequence"         
2469.3 "6507_7-4"  88.2400 "Sandstone" "Shale"   -999.25    85.0000 15.00000      0.0 "silt/vf" "f/m"      "Mouth_bar"                                             "Prograding_delta_(braid_delta)_sequence"         
2469.4 "6507_7-4"  86.3400 "Sandstone" "Shale"   -999.25    85.0000 15.00000      0.0 "silt/vf" "f/m"      "Mouth_bar"                                             "Prograding_delta_(braid_delta)_sequence"         
2469.5 "6507_7-4"  80.5600 "Sandstone" "Shale"   -999.25    85.0000 15.00000      0.0 "silt/vf" "f/m"      "Mouth_bar"                                             "Prograding_delta_(braid_delta)_sequence"         
