~Version
VERS  .                                 3.0 : CWLS LAS ASCII Standard - Version 3.0
WRAP  . NO                                  : One line per depth step
DLM   . SPACE                               : Column data section delimiter
SOURCE. Converted to LAS by Log Studio 4.76 : GeoProvider

~Well
STRT.         2435.0 : Start depth
STOP.         2766.7 : Stop depth
STEP.              1 : Step
NULL.        -999.25 : No-value
COMP.                : Company
WELL. 6507/7-4       : Well
FLD .                : Field
LOC .                : Location
LATI.                : Latitude
LONG.                : Longitude
GDAT.                : Geodetic datum
CNTY.                : County
STAT.                : State
CTRY.                : Country
SRVC. GeoProvider AS : Service company
DATE.                : Date
API .                : API number
RUN .                : Run number

~Parameters
WellboreName.  : Wellbore name
RigName     .  : Rig name
StartDate   .  : Start date

~Curves
DEPTH.m            .  : null {F}Depth mMD
Hole_ID.-          .  : null {S}Hole ID
GR.API             .  : null {F}Gamma Ray
Lithology1.-       .  : null {S}Lithology 1
Lithology2.-       .  : null {S}Lithology 2
Lithology3.-       .  : null {S}Lithology 3
Lithology1.%       .  : null {F}Lithology 1 percentage
Lithology2.%       .  : null {F}Lithology 2 percentage
Lithology3.%       .  : null {F}Lithology 3 percentage
Grain_size_Top.-   .  : null {S}Grain size at the top 
Grain_size_Base.-  .  : null {S}Grain size at the bottom
Sub_Environment.-  .  : null {S}Sub Environment
Gross_Environment.-.  : null {S}Gross Environment

~Ascii
# ...
2442.8 "6507_7-4"  87.1900 "Clay"    -999.25   -999.25   100.0000      0.0      0.0 -999.25 -999.25    -999.25                                                 -999.25                                           
2442.9 "6507_7-4"  89.3900 "Clay"    -999.25   -999.25   100.0000      0.0      0.0 -999.25 -999.25    -999.25                                                 -999.25                                           
2443.0 "6507_7-4"  89.7100 "Clay"    -999.25   -999.25   100.0000      0.0      0.0 -999.25 -999.25    -999.25                                                 -999.25                                           
2443.1 "6507_7-4"  88.2200 "Clay"    -999.25   -999.25   100.0000      0.0      0.0 -999.25 -999.25    -999.25                                                 -999.25                                           
2443.2 "6507_7-4"  86.5300 "Clay"    -999.25   -999.25   100.0000      0.0      0.0 -999.25 -999.25    -999.25                                                 -999.25                                           
2443.3 "6507_7-4"  85.5100 "Clay"    -999.25   -999.25   100.0000      0.0      0.0 -999.25 -999.25    -999.25                                                 -999.25                                           
2443.4 "6507_7-4"  85.4700 "Clay"    -999.25   -999.25   100.0000      0.0      0.0 -999.25 -999.25    -999.25                                                 -999.25                                           
2443.5 "6507_7-4"  86.2300 "Clay"    -999.25   -999.25   100.0000      0.0      0.0 -999.25 -999.25    -999.25                                                 -999.25                                           
2443.6 "6507_7-4"  86.7100 "Clay"    -999.25   -999.25   100.0000      0.0      0.0 -999.25 -999.25    -999.25                                                 -999.25                                           
2443.7 "6507_7-4"  85.9600 "Clay"    -999.25   -999.25   100.0000      0.0      0.0 -999.25 -999.25    -999.25                                                 -999.25                                           
2443.8 "6507_7-4"  84.4200 "Clay"    -999.25   -999.25   100.0000      0.0      0.0 -999.25 -999.25    -999.25                                                 -999.25                                           
2443.9 "6507_7-4"  82.8000 "Clay"    -999.25   -999.25   100.0000      0.0      0.0 -999.25 -999.25    -999.25                                                 -999.25                                           
2444.0 "6507_7-4"  81.1800 "Clay"    -999.25   -999.25   100.0000      0.0      0.0 -999.25 -999.25    -999.25                                                 -999.25                                           
2444.1 "6507_7-4"  79.5600 "Clay"    -999.25   -999.25   100.0000      0.0      0.0 -999.25 -999.25    -999.25                                                 -999.25                                           
2444.2 "6507_7-4"  78.9100 "Clay"    -999.25   -999.25   100.0000      0.0      0.0 -999.25 -999.25    -999.25                                                 -999.25                                           
2444.3 "6507_7-4"  81.4900 "Clay"    -999.25   -999.25   100.0000      0.0      0.0 -999.25 -999.25    -999.25                                                 -999.25                                           
2444.4 "6507_7-4"  83.9000 "Clay"    -999.25   -999.25   100.0000      0.0      0.0 -999.25 -999.25    -999.25                                                 -999.25                                           
2444.5 "6507_7-4"  86.0400 "Clay"    -999.25   -999.25   100.0000      0.0      0.0 -999.25 -999.25    -999.25                                                 -999.25                                           
2444.6 "6507_7-4"  88.1700 "Clay"    -999.25   -999.25   100.0000      0.0      0.0 -999.25 -999.25    -999.25                                                 -999.25                                           
2444.7 "6507_7-4"  88.8600 "Clay"    -999.25   -999.25   100.0000      0.0      0.0 -999.25 -999.25    -999.25                                                 -999.25                                           
2444.8 "6507_7-4"  89.1900 "Clay"    -999.25   -999.25   100.0000      0.0      0.0 -999.25 -999.25    -999.25                                                 -999.25                                           
2444.9 "6507_7-4"  89.1900 "Clay"    -999.25   -999.25   100.0000      0.0      0.0 -999.25 -999.25    -999.25                                                 -999.25                                           
2445.0 "6507_7-4"  90.5200 "Clay"    -999.25   -999.25   100.0000      0.0      0.0 -999.25 -999.25    -999.25                                                 -999.25                                           
2445.1 "6507_7-4"  92.7700 "Clay"    -999.25   -999.25   100.0000      0.0      0.0 -999.25 -999.25    -999.25                                                 -999.25                                           
2445.2 "6507_7-4"  92.4100 "Clay"    -999.25   -999.25   100.0000      0.0      0.0 -999.25 -999.25    -999.25                                                 -999.25                                           
2445.3 "6507_7-4"  91.1200 "Clay"    -999.25   -999.25   100.0000      0.0      0.0 -999.25 -999.25    -999.25                                                 -999.25                                           
2445.4 "6507_7-4"  89.1000 "Clay"    -999.25   -999.25   100.0000      0.0      0.0 -999.25 -999.25    -999.25                                                 -999.25                                           
2445.5 "6507_7-4"  86.7300 "Clay"    -999.25   -999.25   100.0000      0.0      0.0 -999.25 -999.25    -999.25                                                 -999.25                                           
2445.6 "6507_7-4"  84.0000 "Clay"    -999.25   -999.25   100.0000      0.0      0.0 -999.25 -999.25    -999.25                                                 -999.25                                           
2445.7 "6507_7-4"  81.2600 "Clay"    -999.25   -999.25   100.0000      0.0      0.0 -999.25 -999.25    -999.25                                                 -999.25                                           
2445.8 "6507_7-4"  79.1900 "Clay"    -999.25   -999.25   100.0000      0.0      0.0 -999.25 -999.25    -999.25                                                 -999.25                                           
2445.9 "6507_7-4"  77.7900 "Clay"    -999.25   -999.25   100.0000      0.0      0.0 -999.25 -999.25    -999.25                                                 -999.25                                           
2446.0 "6507_7-4"  77.8800 "Clay"    -999.25   -999.25   100.0000      0.0      0.0 -999.25 -999.25    -999.25                                                 -999.25                                           
2446.1 "6507_7-4"  78.8200 "Clay"    -999.25   -999.25   100.0000      0.0      0.0 -999.25 -999.25    -999.25                                                 -999.25                                           
2446.2 "6507_7-4"  80.5800 "Clay"    -999.25   -999.25   100.0000      0.0      0.0 -999.25 -999.25    -999.25                                                 -999.25                                           
2446.3 "6507_7-4"  83.3300 "Clay"    -999.25   -999.25   100.0000      0.0      0.0 -999.25 -999.25    -999.25                                                 -999.25                                           
2446.4 "6507_7-4"  83.8700 "Clay"    -999.25   -999.25   100.0000      0.0      0.0 -999.25 -999.25    -999.25                                                 -999.25                                           
2446.5 "6507_7-4"  84.3500 "Clay"    -999.25   -999.25   100.0000      0.0      0.0 -999.25 -999.25    -999.25                                                 -999.25                                           
2446.6 "6507_7-4"  84.8300 "Clay"    -999.25   -999.25   100.0000      0.0      0.0 -999.25 -999.25    -999.25                                                 -999.25                                           
