~Version
VERS  .                                 3.0 : CWLS LAS ASCII Standard - Version 3.0
WRAP  . NO                                  : One line per depth step
DLM   . SPACE                               : Column data section delimiter
SOURCE. Converted to LAS by Log Studio 4.76 : GeoProvider

~Well
STRT.         2435.0 : Start depth
STOP.         2766.7 : Stop depth
STEP.              1 : Step
NULL.        -999.25 : No-value
COMP.                : Company
WELL. 6507/7-4       : Well
FLD .                : Field
LOC .                : Location
LATI.                : Latitude
LONG.                : Longitude
GDAT.                : Geodetic datum
CNTY.                : County
STAT.                : State
CTRY.                : Country
SRVC. GeoProvider AS : Service company
DATE.                : Date
API .                : API number
RUN .                : Run number

~Parameters
WellboreName.  : Wellbore name
RigName     .  : Rig name
StartDate   .  : Start date

~Curves
DEPTH.m            .  : null {F}Depth mMD
Hole_ID.-          .  : null {S}Hole ID
GR.API             .  : null {F}Gamma Ray
Lithology1.-       .  : null {S}Lithology 1
Lithology2.-       .  : null {S}Lithology 2
Lithology3.-       .  : null {S}Lithology 3
Lithology1.%       .  : null {F}Lithology 1 percentage
Lithology2.%       .  : null {F}Lithology 2 percentage
Lithology3.%       .  : null {F}Lithology 3 percentage
Grain_size_Top.-   .  : null {S}Grain size at the top 
Grain_size_Base.-  .  : null {S}Grain size at the bottom
Sub_Environment.-  .  : null {S}Sub Environment
Gross_Environment.-.  : null {S}Gross Environment

~Ascii
# ...
2572.2 "6507_7-4"  62.8100 "Sandstone" "Mudstone" "Limestone"   5.0000 90.00000  5.00000 "m"     "m"        "Offshore"                                              "Offshore"                                        
2572.3 "6507_7-4"  63.0700 "Sandstone" "Mudstone" "Limestone"   5.0000 90.00000  5.00000 "m"     "m"        "Offshore"                                              "Offshore"                                        
2572.4 "6507_7-4"  62.8700 "Sandstone" "Mudstone" "Limestone"   5.0000 90.00000  5.00000 "m"     "m"        "Offshore"                                              "Offshore"                                        
2572.5 "6507_7-4"  62.1100 "Sandstone" "Mudstone" "Limestone"   5.0000 90.00000  5.00000 "m"     "m"        "Offshore"                                              "Offshore"                                        
2572.6 "6507_7-4"  61.3500 "Sandstone" "Mudstone" "Limestone"   5.0000 90.00000  5.00000 "m"     "m"        "Offshore"                                              "Offshore"                                        
2572.7 "6507_7-4"  60.5900 "Sandstone" "Mudstone" "Limestone"   5.0000 90.00000  5.00000 "m"     "m"        "Offshore"                                              "Offshore"                                        
2572.8 "6507_7-4"  60.4200 "Sandstone" "Mudstone" "Limestone"   5.0000 90.00000  5.00000 "m"     "m"        "Offshore"                                              "Offshore"                                        
2572.9 "6507_7-4"  60.9600 "Sandstone" "Mudstone" "Limestone"   5.0000 90.00000  5.00000 "m"     "m"        "Offshore"                                              "Offshore"                                        
2573.0 "6507_7-4"  61.8500 "Sandstone" "Mudstone" "Limestone"   5.0000 90.00000  5.00000 "m"     "m"        "Offshore"                                              "Offshore"                                        
2573.1 "6507_7-4"  62.7300 "Sandstone" "Mudstone" "Limestone"   5.0000 90.00000  5.00000 "m"     "m"        "Offshore"                                              "Offshore"                                        
2573.2 "6507_7-4"  63.6100 "Sandstone" "Mudstone" "Limestone"   5.0000 90.00000  5.00000 "m"     "m"        "Offshore"                                              "Offshore"                                        
2573.3 "6507_7-4"  64.2800 "Sandstone" "Mudstone" "Limestone"   5.0000 90.00000  5.00000 "m"     "m"        "Offshore"                                              "Offshore"                                        
2573.4 "6507_7-4"  64.5700 "Sandstone" "Mudstone" "Limestone"   5.0000 90.00000  5.00000 "m"     "m"        "Offshore"                                              "Offshore"                                        
2573.5 "6507_7-4"  64.2400 "Sandstone" "Mudstone" "Limestone"   5.0000 90.00000  5.00000 "m"     "m"        "Offshore"                                              "Offshore"                                        
2573.6 "6507_7-4"  63.9100 "Sandstone" "Mudstone" "Limestone"   5.0000 90.00000  5.00000 "m"     "m"        "Offshore"                                              "Offshore"                                        
2573.7 "6507_7-4"  63.8400 "Sandstone" "Mudstone" "Limestone"   5.0000 90.00000  5.00000 "m"     "m"        "Offshore"                                              "Offshore"                                        
2573.8 "6507_7-4"  64.1200 "Sandstone" "Mudstone" "Limestone"   5.0000 90.00000  5.00000 "m"     "m"        "Offshore"                                              "Offshore"                                        
2573.9 "6507_7-4"  64.3900 "Sandstone" "Mudstone" "Limestone"   5.0000 90.00000  5.00000 "m"     "m"        "Offshore"                                              "Offshore"                                        
2574.0 "6507_7-4"  64.9100 "Sandstone" "Mudstone" "Limestone"   5.0000 90.00000  5.00000 "m"     "m"        "Offshore"                                              "Offshore"                                        
2574.1 "6507_7-4"  65.8100 "Sandstone" "Mudstone" "Limestone"   5.0000 90.00000  5.00000 "m"     "m"        "Offshore"                                              "Offshore"                                        
2574.2 "6507_7-4"  66.9100 "Sandstone" "Mudstone" "Limestone"   5.0000 90.00000  5.00000 "m"     "m"        "Offshore"                                              "Offshore"                                        
2574.3 "6507_7-4"  68.3100 "Sandstone" "Mudstone" "Limestone"   5.0000 90.00000  5.00000 "m"     "m"        "Offshore"                                              "Offshore"                                        
2574.4 "6507_7-4"  69.7000 "Sandstone" "Mudstone" "Limestone"   5.0000 90.00000  5.00000 "m"     "m"        "Offshore"                                              "Offshore"                                        
2574.5 "6507_7-4"  70.4700 "Sandstone" "Mudstone" "Limestone"   5.0000 90.00000  5.00000 "m"     "m"        "Offshore"                                              "Offshore"                                        
2574.6 "6507_7-4"  70.1800 "Sandstone" "Mudstone" "Limestone"   5.0000 90.00000  5.00000 "m"     "m"        "Offshore"                                              "Offshore"                                        
2574.7 "6507_7-4"  69.2300 "Sandstone" "Mudstone" "Limestone"   5.0000 90.00000  5.00000 "m"     "m"        "Offshore"                                              "Offshore"                                        
2574.8 "6507_7-4"  67.2000 "Sandstone" "Mudstone" "Limestone"   5.0000 90.00000  5.00000 "m"     "m"        "Offshore"                                              "Offshore"                                        
2574.9 "6507_7-4"  65.1700 "Sandstone" "Mudstone" "Limestone"   5.0000 90.00000  5.00000 "m"     "m"        "Offshore"                                              "Offshore"                                        
2575.0 "6507_7-4"  63.1400 "Sandstone" "Mudstone" "Limestone"   5.0000 90.00000  5.00000 "m"     "m"        "Offshore"                                              "Offshore"                                        
2575.1 "6507_7-4"  61.6500 "Sandstone" "Mudstone" "Limestone"   5.0000 90.00000  5.00000 "m"     "m"        "Offshore"                                              "Offshore"                                        
2575.2 "6507_7-4"  61.8300 "Sandstone" "Mudstone" "Limestone"   5.0000 90.00000  5.00000 "m"     "m"        "Offshore"                                              "Offshore"                                        
2575.3 "6507_7-4"  62.4200 "Sandstone" "Mudstone" "Limestone"   5.0000 90.00000  5.00000 "m"     "m"        "Offshore"                                              "Offshore"                                        
2575.4 "6507_7-4"  62.0500 "Sandstone" "Mudstone" "Limestone"   5.0000 90.00000  5.00000 "m"     "m"        "Offshore"                                              "Offshore"                                        
2575.5 "6507_7-4"  60.6200 "Sandstone" "Mudstone" "Limestone"   5.0000 90.00000  5.00000 "m"     "m"        "Offshore"                                              "Offshore"                                        
2575.6 "6507_7-4"  58.6800 "Sandstone" "Mudstone" "Limestone"   5.0000 90.00000  5.00000 "m"     "m"        "Offshore"                                              "Offshore"                                        
2575.7 "6507_7-4"  56.5100 "Sandstone" "Mudstone" "Limestone"   5.0000 90.00000  5.00000 "m"     "m"        "Offshore"                                              "Offshore"                                        
2575.8 "6507_7-4"  54.3700 "Sandstone" "Mudstone" "Limestone"   5.0000 90.00000  5.00000 "m"     "m"        "Offshore"                                              "Offshore"                                        
2575.9 "6507_7-4"  54.5900 "Sandstone" "Mudstone" "Limestone"   5.0000 90.00000  5.00000 "m"     "m"        "Offshore"                                              "Offshore"                                        
