~Version
VERS  .                                 3.0 : CWLS LAS ASCII Standard - Version 3.0
WRAP  . NO                                  : One line per depth step
DLM   . SPACE                               : Column data section delimiter
SOURCE. Converted to LAS by Log Studio 4.76 : GeoProvider

~Well
STRT.         2435.0 : Start depth
STOP.         2766.7 : Stop depth
STEP.              1 : Step
NULL.        -999.25 : No-value
COMP.                : Company
WELL. 6507/7-4       : Well
FLD .                : Field
LOC .                : Location
LATI.                : Latitude
LONG.                : Longitude
GDAT.                : Geodetic datum
CNTY.                : County
STAT.                : State
CTRY.                : Country
SRVC. GeoProvider AS : Service company
DATE.                : Date
API .                : API number
RUN .                : Run number

~Parameters
WellboreName.  : Wellbore name
RigName     .  : Rig name
StartDate   .  : Start date

~Curves
DEPTH.m            .  : null {F}Depth mMD
Hole_ID.-          .  : null {S}Hole ID
GR.API             .  : null {F}Gamma Ray
Lithology1.-       .  : null {S}Lithology 1
Lithology2.-       .  : null {S}Lithology 2
Lithology3.-       .  : null {S}Lithology 3
Lithology1.%       .  : null {F}Lithology 1 percentage
Lithology2.%       .  : null {F}Lithology 2 percentage
Lithology3.%       .  : null {F}Lithology 3 percentage
Grain_size_Top.-   .  : null {S}Grain size at the top 
Grain_size_Base.-  .  : null {S}Grain size at the bottom
Sub_Environment.-  .  : null {S}Sub Environment
Gross_Environment.-.  : null {S}Gross Environment

~Ascii
# ...
2507.6 "6507_7-4"  76.1600 "Sandstone" "Mudstone" -999.25    95.0000  5.00000      0.0 "vf"    "vf"       "Upper_lower_shoreface"                                 "Shoreface_beach_sequence"                        
2507.7 "6507_7-4"  75.0200 "Sandstone" "Mudstone" -999.25    95.0000  5.00000      0.0 "vf"    "vf"       "Upper_lower_shoreface"                                 "Shoreface_beach_sequence"                        
2507.8 "6507_7-4"  75.7900 "Sandstone" "Mudstone" -999.25    95.0000  5.00000      0.0 "vf"    "vf"       "Upper_lower_shoreface"                                 "Shoreface_beach_sequence"                        
2507.9 "6507_7-4"  77.8100 "Sandstone" "Mudstone" -999.25    95.0000  5.00000      0.0 "vf"    "vf"       "Upper_lower_shoreface"                                 "Shoreface_beach_sequence"                        
2508.0 "6507_7-4"  81.5900 "Sandstone" "Mudstone" -999.25    95.0000  5.00000      0.0 "vf"    "vf"       "Upper_lower_shoreface"                                 "Shoreface_beach_sequence"                        
2508.1 "6507_7-4"  84.1600 "Sandstone" "Mudstone" -999.25    95.0000  5.00000      0.0 "vf"    "vf"       "Upper_lower_shoreface"                                 "Shoreface_beach_sequence"                        
2508.2 "6507_7-4"  83.0800 "Sandstone" "Mudstone" -999.25    95.0000  5.00000      0.0 "vf"    "vf"       "Upper_lower_shoreface"                                 "Shoreface_beach_sequence"                        
2508.3 "6507_7-4"  79.7200 "Sandstone" "Mudstone" -999.25    95.0000  5.00000      0.0 "vf"    "vf"       "Upper_lower_shoreface"                                 "Shoreface_beach_sequence"                        
2508.4 "6507_7-4"  75.7000 "Sandstone" "Mudstone" -999.25    95.0000  5.00000      0.0 "vf"    "vf"       "Upper_lower_shoreface"                                 "Shoreface_beach_sequence"                        
2508.5 "6507_7-4"  71.2300 "Sandstone" "Mudstone" -999.25    95.0000  5.00000      0.0 "vf"    "vf"       "Upper_lower_shoreface"                                 "Shoreface_beach_sequence"                        
2508.6 "6507_7-4"  66.7500 "Sandstone" "Mudstone" -999.25    95.0000  5.00000      0.0 "vf"    "vf"       "Upper_lower_shoreface"                                 "Shoreface_beach_sequence"                        
2508.7 "6507_7-4"  63.3300 "Sandstone" "Mudstone" -999.25    95.0000  5.00000      0.0 "vf"    "vf"       "Upper_lower_shoreface"                                 "Shoreface_beach_sequence"                        
2508.8 "6507_7-4"  62.6300 "Sandstone" -999.25   -999.25   100.0000      0.0      0.0 "vf/f"  "vf"       "Upper_lower_shoreface"                                 "Shoreface_beach_sequence"                        
2508.9 "6507_7-4"  63.3400 "Sandstone" -999.25   -999.25   100.0000      0.0      0.0 "vf/f"  "vf"       "Upper_lower_shoreface"                                 "Shoreface_beach_sequence"                        
2509.0 "6507_7-4"  64.8500 "Sandstone" -999.25   -999.25   100.0000      0.0      0.0 "vf/f"  "vf"       "Upper_lower_shoreface"                                 "Shoreface_beach_sequence"                        
2509.1 "6507_7-4"  65.9400 "Sandstone" -999.25   -999.25   100.0000      0.0      0.0 "vf/f"  "vf"       "Upper_lower_shoreface"                                 "Shoreface_beach_sequence"                        
2509.2 "6507_7-4"  66.3300 "Sandstone" -999.25   -999.25   100.0000      0.0      0.0 "vf/f"  "vf"       "Upper_lower_shoreface"                                 "Shoreface_beach_sequence"                        
2509.3 "6507_7-4"  65.5200 "Sandstone" -999.25   -999.25   100.0000      0.0      0.0 "vf/f"  "vf"       "Upper_lower_shoreface"                                 "Shoreface_beach_sequence"                        
2509.4 "6507_7-4"  63.9500 "Sandstone" -999.25   -999.25   100.0000      0.0      0.0 "vf/f"  "vf"       "Upper_lower_shoreface"                                 "Shoreface_beach_sequence"                        
2509.5 "6507_7-4"  62.1000 "Sandstone" -999.25   -999.25   100.0000      0.0      0.0 "vf/f"  "vf"       "Upper_lower_shoreface"                                 "Shoreface_beach_sequence"                        
2509.6 "6507_7-4"  61.2100 "Sandstone" -999.25   -999.25   100.0000      0.0      0.0 "vf/f"  "vf"       "Upper_lower_shoreface"                                 "Shoreface_beach_sequence"                        
2509.7 "6507_7-4"  61.7400 "Sandstone" -999.25   -999.25   100.0000      0.0      0.0 "vf/f"  "vf"       "Upper_lower_shoreface"                                 "Shoreface_beach_sequence"                        
2509.8 "6507_7-4"  63.7100 "Sandstone" -999.25   -999.25   100.0000      0.0      0.0 "vf/f"  "vf"       "Upper_lower_shoreface"                                 "Shoreface_beach_sequence"                        
2509.9 "6507_7-4"  65.7200 "Sandstone" -999.25   -999.25   100.0000      0.0      0.0 "vf/f"  "vf"       "Upper_lower_shoreface"                                 "Shoreface_beach_sequence"                        
2510.0 "6507_7-4"  68.3600 "Sandstone" "Mudstone" -999.25    40.0000 60.00000      0.0 "vf/f"  "vf/f"     "Upper_lower_shoreface"                                 "Shoreface_beach_sequence"                        
2510.1 "6507_7-4"  70.7500 "Sandstone" "Mudstone" -999.25    40.0000 60.00000      0.0 "vf/f"  "vf/f"     "Upper_lower_shoreface"                                 "Shoreface_beach_sequence"                        
2510.2 "6507_7-4"  70.7500 "Sandstone" -999.25   -999.25   100.0000      0.0      0.0 "m"     "vf"       "Upper_lower_shoreface"                                 "Shoreface_beach_sequence"                        
2510.3 "6507_7-4"  71.9900 "Sandstone" -999.25   -999.25   100.0000      0.0      0.0 "m"     "vf"       "Upper_lower_shoreface"                                 "Shoreface_beach_sequence"                        
2510.4 "6507_7-4"  74.7000 "Sandstone" -999.25   -999.25   100.0000      0.0      0.0 "m"     "vf"       "Upper_lower_shoreface"                                 "Shoreface_beach_sequence"                        
2510.5 "6507_7-4"  77.4200 "Sandstone" -999.25   -999.25   100.0000      0.0      0.0 "m"     "vf"       "Upper_lower_shoreface"                                 "Shoreface_beach_sequence"                        
2510.6 "6507_7-4"  77.9800 "Sandstone" -999.25   -999.25   100.0000      0.0      0.0 "m"     "vf"       "Upper_lower_shoreface"                                 "Shoreface_beach_sequence"                        
2510.7 "6507_7-4"  77.8400 "Sandstone" -999.25   -999.25   100.0000      0.0      0.0 "m"     "vf"       "Upper_lower_shoreface"                                 "Shoreface_beach_sequence"                        
2510.8 "6507_7-4"  74.5700 "Sandstone" -999.25   -999.25   100.0000      0.0      0.0 "m"     "vf"       "Upper_lower_shoreface"                                 "Shoreface_beach_sequence"                        
2510.9 "6507_7-4"  71.2900 "Sandstone" -999.25   -999.25   100.0000      0.0      0.0 "m"     "vf"       "Upper_lower_shoreface"                                 "Shoreface_beach_sequence"                        
2511.0 "6507_7-4"  70.7500 "Sandstone" -999.25   -999.25   100.0000      0.0      0.0 "m"     "vf"       "Upper_lower_shoreface"                                 "Shoreface_beach_sequence"                        
2511.1 "6507_7-4"  72.1300 "Sandstone" -999.25   -999.25   100.0000      0.0      0.0 "m"     "vf"       "Upper_lower_shoreface"                                 "Shoreface_beach_sequence"                        
2511.2 "6507_7-4"  75.0400 "Sandstone" -999.25   -999.25   100.0000      0.0      0.0 "m"     "vf"       "Upper_lower_shoreface"                                 "Shoreface_beach_sequence"                        
2511.3 "6507_7-4"  76.9000 "Sandstone" -999.25   -999.25   100.0000      0.0      0.0 "m"     "m"        "Upper_lower_shoreface"                                 "Shoreface_beach_sequence"                        
