~Version
VERS  .                                 3.0 : CWLS LAS ASCII Standard - Version 3.0
WRAP  . NO                                  : One line per depth step
DLM   . SPACE                               : Column data section delimiter
SOURCE. Converted to LAS by Log Studio 4.76 : GeoProvider

~Well
STRT.         2435.0 : Start depth
STOP.         2766.7 : Stop depth
STEP.              1 : Step
NULL.        -999.25 : No-value
COMP.                : Company
WELL. 6507/7-4       : Well
FLD .                : Field
LOC .                : Location
LATI.                : Latitude
LONG.                : Longitude
GDAT.                : Geodetic datum
CNTY.                : County
STAT.                : State
CTRY.                : Country
SRVC. GeoProvider AS : Service company
DATE.                : Date
API .                : API number
RUN .                : Run number

~Parameters
WellboreName.  : Wellbore name
RigName     .  : Rig name
StartDate   .  : Start date

~Curves
DEPTH.m            .  : null {F}Depth mMD
Hole_ID.-          .  : null {S}Hole ID
GR.API             .  : null {F}Gamma Ray
Lithology1.-       .  : null {S}Lithology 1
Lithology2.-       .  : null {S}Lithology 2
Lithology3.-       .  : null {S}Lithology 3
Lithology1.%       .  : null {F}Lithology 1 percentage
Lithology2.%       .  : null {F}Lithology 2 percentage
Lithology3.%       .  : null {F}Lithology 3 percentage
Grain_size_Top.-   .  : null {S}Grain size at the top 
Grain_size_Base.-  .  : null {S}Grain size at the bottom
Sub_Environment.-  .  : null {S}Sub Environment
Gross_Environment.-.  : null {S}Gross Environment

~Ascii
# ...
2739.4 "6507_7-4"  71.8800 "Sandstone" "Shale"   -999.25    60.0000 40.00000      0.0 "m"     "f"        "Tidal_flat"                                            "Tidal_flat_/_estuary"                            
2739.5 "6507_7-4"  72.7100 "Sandstone" "Shale"   -999.25    60.0000 40.00000      0.0 "m"     "f"        "Tidal_flat"                                            "Tidal_flat_/_estuary"                            
2739.6 "6507_7-4"  71.9900 "Sandstone" "Shale"   -999.25    60.0000 40.00000      0.0 "m"     "f"        "Tidal_flat"                                            "Tidal_flat_/_estuary"                            
2739.7 "6507_7-4"  70.0100 "Sandstone" "Shale"   -999.25    60.0000 40.00000      0.0 "m"     "f"        "Tidal_flat"                                            "Tidal_flat_/_estuary"                            
2739.8 "6507_7-4"  68.0400 "Sandstone" "Shale"   -999.25    60.0000 40.00000      0.0 "m"     "f"        "Tidal_flat"                                            "Tidal_flat_/_estuary"                            
2739.9 "6507_7-4"  66.6200 "Sandstone" "Shale"   -999.25    60.0000 40.00000      0.0 "m"     "f"        "Tidal_flat"                                            "Tidal_flat_/_estuary"                            
2740.0 "6507_7-4"  67.3500 "Sandstone" "Shale"   -999.25    60.0000 40.00000      0.0 "m"     "f"        "Tidal_flat"                                            "Tidal_flat_/_estuary"                            
2740.1 "6507_7-4"  70.3400 "Sandstone" "Shale"   -999.25    60.0000 40.00000      0.0 "m"     "f"        "Tidal_flat"                                            "Tidal_flat_/_estuary"                            
2740.2 "6507_7-4"  70.4300 "Sandstone" "Shale"   -999.25    60.0000 40.00000      0.0 "m"     "f"        "Tidal_flat"                                            "Tidal_flat_/_estuary"                            
2740.3 "6507_7-4"  68.5900 "Sandstone" "Shale"   -999.25    60.0000 40.00000      0.0 "m"     "f"        "Tidal_flat"                                            "Tidal_flat_/_estuary"                            
2740.4 "6507_7-4"  65.1400 "Sandstone" "Shale"   -999.25    60.0000 40.00000      0.0 "m"     "f"        "Tidal_flat"                                            "Tidal_flat_/_estuary"                            
2740.5 "6507_7-4"  63.3100 "Sandstone" "Shale"   -999.25    60.0000 40.00000      0.0 "m"     "f"        "Tidal_flat"                                            "Tidal_flat_/_estuary"                            
2740.6 "6507_7-4"  61.6400 "Sandstone" "Shale"   -999.25    60.0000 40.00000      0.0 "m"     "f"        "Tidal_flat"                                            "Tidal_flat_/_estuary"                            
2740.7 "6507_7-4"  60.2400 "Sandstone" "Shale"   -999.25    60.0000 40.00000      0.0 "m"     "f"        "Tidal_flat"                                            "Tidal_flat_/_estuary"                            
2740.8 "6507_7-4"  61.1200 "Sandstone" "Shale"   -999.25    60.0000 40.00000      0.0 "m"     "f"        "Tidal_flat"                                            "Tidal_flat_/_estuary"                            
2740.9 "6507_7-4"  62.0100 "Sandstone" "Shale"   -999.25    60.0000 40.00000      0.0 "m"     "f"        "Tidal_flat"                                            "Tidal_flat_/_estuary"                            
2741.0 "6507_7-4"  63.6000 "Sandstone" "Shale"   -999.25    60.0000 40.00000      0.0 "m"     "f"        "Tidal_flat"                                            "Tidal_flat_/_estuary"                            
2741.1 "6507_7-4"  65.4100 "Sandstone" "Shale"   -999.25    60.0000 40.00000      0.0 "vf/f"  "vf/f"     "Tidal_flat"                                            "Tidal_flat_/_estuary"                            
2741.2 "6507_7-4"  67.2200 "Sandstone" "Shale"   -999.25    60.0000 40.00000      0.0 "vf/f"  "vf/f"     "Tidal_flat"                                            "Tidal_flat_/_estuary"                            
2741.3 "6507_7-4"  69.0300 "Sandstone" "Shale"   -999.25    60.0000 40.00000      0.0 "vf/f"  "vf/f"     "Tidal_flat"                                            "Tidal_flat_/_estuary"                            
2741.4 "6507_7-4"  70.8900 "Sandstone" "Shale"   -999.25    60.0000 40.00000      0.0 "vf/f"  "vf/f"     "Tidal_flat"                                            "Tidal_flat_/_estuary"                            
2741.5 "6507_7-4"  72.7400 "Sandstone" "Shale"   -999.25    60.0000 40.00000      0.0 "c/vc"  "c/vc"     "Tidal_flat"                                            "Tidal_flat_/_estuary"                            
2741.6 "6507_7-4"  72.6100 "Sandstone" "Shale"   -999.25    60.0000 40.00000      0.0 "c/vc"  "c/vc"     "Tidal_flat"                                            "Tidal_flat_/_estuary"                            
2741.7 "6507_7-4"  69.9400 "Sandstone" "Shale"   -999.25    60.0000 40.00000      0.0 "c/vc"  "c/vc"     "Tidal_flat"                                            "Tidal_flat_/_estuary"                            
2741.8 "6507_7-4"  66.1300 "Limestone" "Shale"   -999.25    70.0000 30.00000      0.0 "f/m"   "f/m"      "Tidal_flat"                                            "Tidal_flat_/_estuary"                            
2741.9 "6507_7-4"  61.5800 "Limestone" "Shale"   -999.25    70.0000 30.00000      0.0 "f/m"   "f/m"      "Tidal_flat"                                            "Tidal_flat_/_estuary"                            
2742.0 "6507_7-4"  56.6400 "Limestone" "Shale"   -999.25    70.0000 30.00000      0.0 "f/m"   "f/m"      "Tidal_flat"                                            "Tidal_flat_/_estuary"                            
2742.1 "6507_7-4"  54.3700 "Limestone" "Shale"   -999.25    70.0000 30.00000      0.0 "f/m"   "f/m"      "Tidal_flat"                                            "Tidal_flat_/_estuary"                            
2742.2 "6507_7-4"  55.6900 "Limestone" "Shale"   -999.25    70.0000 30.00000      0.0 "f/m"   "f/m"      "Tidal_flat"                                            "Tidal_flat_/_estuary"                            
2742.3 "6507_7-4"  58.4100 "Limestone" "Shale"   -999.25    70.0000 30.00000      0.0 "f/m"   "f/m"      "Tidal_flat"                                            "Tidal_flat_/_estuary"                            
2742.4 "6507_7-4"  64.2100 "Sandstone" "Shale"   -999.25    70.0000 30.00000      0.0 "m/c"   "m/c"      "Tidal_flat"                                            "Tidal_flat_/_estuary"                            
2742.5 "6507_7-4"  70.0100 "Sandstone" "Shale"   -999.25    70.0000 30.00000      0.0 "m/c"   "m/c"      "Tidal_flat"                                            "Tidal_flat_/_estuary"                            
2742.6 "6507_7-4"  75.5400 "Sandstone" "Shale"   -999.25    70.0000 30.00000      0.0 "m/c"   "m/c"      "Tidal_flat"                                            "Tidal_flat_/_estuary"                            
2742.7 "6507_7-4"  75.7600 "Sandstone" "Shale"   -999.25    70.0000 30.00000      0.0 "m/c"   "m/c"      "Tidal_flat"                                            "Tidal_flat_/_estuary"                            
2742.8 "6507_7-4"  74.5900 "Sandstone" "Shale"   -999.25    50.0000 50.00000      0.0 "silt"  "silt"     "Tidal_flat"                                            "Tidal_flat_/_estuary"                            
2742.9 "6507_7-4"  69.3400 "Sandstone" "Shale"   -999.25    80.0000 20.00000      0.0 "f/m"   "f/m"      "Tidal_flat"                                            "Tidal_flat_/_estuary"                            
2743.0 "6507_7-4"  65.9300 "Sandstone" "Shale"   -999.25    80.0000 20.00000      0.0 "f/m"   "f/m"      "Tidal_flat"                                            "Tidal_flat_/_estuary"                            
2743.1 "6507_7-4"  64.3600 "Sandstone" "Shale"   -999.25    80.0000 20.00000      0.0 "f/m"   "f/m"      "Tidal_flat"                                            "Tidal_flat_/_estuary"                            
