~Version
VERS  .                                 3.0 : CWLS LAS ASCII Standard - Version 3.0
WRAP  . NO                                  : One line per depth step
DLM   . SPACE                               : Column data section delimiter
SOURCE. Converted to LAS by Log Studio 4.76 : GeoProvider

~Well
STRT.         2435.0 : Start depth
STOP.         2766.7 : Stop depth
STEP.              1 : Step
NULL.        -999.25 : No-value
COMP.                : Company
WELL. 6507/7-4       : Well
FLD .                : Field
LOC .                : Location
LATI.                : Latitude
LONG.                : Longitude
GDAT.                : Geodetic datum
CNTY.                : County
STAT.                : State
CTRY.                : Country
SRVC. GeoProvider AS : Service company
DATE.                : Date
API .                : API number
RUN .                : Run number

~Parameters
WellboreName.  : Wellbore name
RigName     .  : Rig name
StartDate   .  : Start date

~Curves
DEPTH.m            .  : null {F}Depth mMD
Hole_ID.-          .  : null {S}Hole ID
GR.API             .  : null {F}Gamma Ray
Lithology1.-       .  : null {S}Lithology 1
Lithology2.-       .  : null {S}Lithology 2
Lithology3.-       .  : null {S}Lithology 3
Lithology1.%       .  : null {F}Lithology 1 percentage
Lithology2.%       .  : null {F}Lithology 2 percentage
Lithology3.%       .  : null {F}Lithology 3 percentage
Grain_size_Top.-   .  : null {S}Grain size at the top 
Grain_size_Base.-  .  : null {S}Grain size at the bottom
Sub_Environment.-  .  : null {S}Sub Environment
Gross_Environment.-.  : null {S}Gross Environment

~Ascii
# ...
2655.8 "6507_7-4"  69.6400 "Sandstone" "Mudstone" -999.25    30.0000 70.00000      0.0 "silt/vf" "vf"       "Tidal_mudflat"                                         "Tidal_flat_sequence"                             
2655.9 "6507_7-4"  69.9700 "Sandstone" "Mudstone" -999.25    30.0000 70.00000      0.0 "silt/vf" "vf"       "Tidal_mudflat"                                         "Tidal_flat_sequence"                             
2656.0 "6507_7-4"  70.1200 "Sandstone" "Mudstone" -999.25    30.0000 70.00000      0.0 "silt/vf" "vf"       "Tidal_mudflat"                                         "Tidal_flat_sequence"                             
2656.1 "6507_7-4"  69.8700 "Sandstone" "Mudstone" -999.25    30.0000 70.00000      0.0 "silt/vf" "vf"       "Tidal_mudflat"                                         "Tidal_flat_sequence"                             
2656.2 "6507_7-4"  68.6600 "Sandstone" "Mudstone" -999.25    30.0000 70.00000      0.0 "silt/vf" "vf"       "Tidal_mudflat"                                         "Tidal_flat_sequence"                             
2656.3 "6507_7-4"  66.9800 "Sandstone" "Mudstone" -999.25    30.0000 70.00000      0.0 "silt/vf" "vf"       "Tidal_mudflat"                                         "Tidal_flat_sequence"                             
2656.4 "6507_7-4"  64.9300 "Sandstone" "Mudstone" -999.25    30.0000 70.00000      0.0 "silt/vf" "vf"       "Tidal_mudflat"                                         "Tidal_flat_sequence"                             
2656.5 "6507_7-4"  61.5000 "Sandstone" "Mudstone" -999.25    30.0000 70.00000      0.0 "silt/vf" "vf"       "Tidal_mudflat"                                         "Tidal_flat_sequence"                             
2656.6 "6507_7-4"  58.0700 "Sandstone" "Mudstone" -999.25    30.0000 70.00000      0.0 "silt/vf" "vf"       "Tidal_mudflat"                                         "Tidal_flat_sequence"                             
2656.7 "6507_7-4"  53.8900 "Sandstone" "Mudstone" -999.25    30.0000 70.00000      0.0 "silt/vf" "vf"       "Tidal_mudflat"                                         "Tidal_flat_sequence"                             
2656.8 "6507_7-4"  49.3000 "Sandstone" "Mudstone" -999.25    30.0000 70.00000      0.0 "silt/vf" "vf"       "Tidal_mudflat"                                         "Tidal_flat_sequence"                             
2656.9 "6507_7-4"  44.5700 "Sandstone" "Mudstone" -999.25    30.0000 70.00000      0.0 "silt/vf" "vf"       "Tidal_mudflat"                                         "Tidal_flat_sequence"                             
2657.0 "6507_7-4"  39.5500 "Sandstone" "Mudstone" -999.25    30.0000 70.00000      0.0 "silt/vf" "vf"       "Tidal_mudflat"                                         "Tidal_flat_sequence"                             
2657.1 "6507_7-4"  36.3400 -999.25   -999.25   -999.25   100.0000      0.0      0.0 -999.25 -999.25    "Tidal_mudflat"                                         "Tidal_flat_sequence"                             
2657.2 "6507_7-4"  36.4600 -999.25   -999.25   -999.25   100.0000      0.0      0.0 -999.25 -999.25    "Tidal_mudflat"                                         "Tidal_flat_sequence"                             
2657.3 "6507_7-4"  39.8100 -999.25   -999.25   -999.25   100.0000      0.0      0.0 -999.25 -999.25    "Tidal_mudflat"                                         "Tidal_flat_sequence"                             
2657.4 "6507_7-4"  42.7200 -999.25   -999.25   -999.25   100.0000      0.0      0.0 -999.25 -999.25    "Tidal_mudflat"                                         "Tidal_flat_sequence"                             
2657.5 "6507_7-4"  45.2200 -999.25   -999.25   -999.25   100.0000      0.0      0.0 -999.25 -999.25    "Tidal_mudflat"                                         "Tidal_flat_sequence"                             
2657.6 "6507_7-4"  46.2000 -999.25   -999.25   -999.25   100.0000      0.0      0.0 -999.25 -999.25    "Tidal_mudflat"                                         "Tidal_flat_sequence"                             
2657.7 "6507_7-4"  45.8600 -999.25   -999.25   -999.25   100.0000      0.0      0.0 -999.25 -999.25    "Tidal_mudflat"                                         "Tidal_flat_sequence"                             
2657.8 "6507_7-4"  45.5200 -999.25   -999.25   -999.25   100.0000      0.0      0.0 -999.25 -999.25    "Tidal_mudflat"                                         "Tidal_flat_sequence"                             
2657.9 "6507_7-4"  45.1800 -999.25   -999.25   -999.25   100.0000      0.0      0.0 -999.25 -999.25    "Tidal_mudflat"                                         "Tidal_flat_sequence"                             
2658.0 "6507_7-4"  46.0500 "Sandstone" "Mudstone" -999.25    30.0000 70.00000      0.0 "silt/vf" "silt/vf"  "Tidal_mudflat"                                         "Tidal_flat_sequence"                             
2658.1 "6507_7-4"  46.4600 "Sandstone" "Mudstone" -999.25    30.0000 70.00000      0.0 "silt/vf" "silt/vf"  "Tidal_mudflat"                                         "Tidal_flat_sequence"                             
2658.2 "6507_7-4"  45.9600 "Sandstone" "Mudstone" -999.25    30.0000 70.00000      0.0 "silt/vf" "silt/vf"  "Tidal_mudflat"                                         "Tidal_flat_sequence"                             
2658.3 "6507_7-4"  45.4500 "Sandstone" "Mudstone" -999.25    30.0000 70.00000      0.0 "silt/vf" "silt/vf"  "Tidal_mudflat"                                         "Tidal_flat_sequence"                             
2658.4 "6507_7-4"  43.8900 "Sandstone" "Mudstone" -999.25    30.0000 70.00000      0.0 "silt/vf" "silt/vf"  "Tidal_mudflat"                                         "Tidal_flat_sequence"                             
2658.5 "6507_7-4"  42.2600 "Sandstone" -999.25   -999.25   200.0000      0.0      0.0 "m"     "vc"       "Tidal_mudflat"                                         "Tidal_flat_sequence"                             
2658.6 "6507_7-4"  40.7500 "Sandstone" -999.25   -999.25   200.0000      0.0      0.0 "m"     "vc"       "Tidal_mudflat"                                         "Tidal_flat_sequence"                             
2658.7 "6507_7-4"  39.7500 "Sandstone" -999.25   -999.25   200.0000      0.0      0.0 "m"     "vc"       "Tidal_mudflat"                                         "Tidal_flat_sequence"                             
2658.8 "6507_7-4"  41.0600 "Sandstone" -999.25   -999.25   200.0000      0.0      0.0 "m"     "vc"       "Tidal_mudflat"                                         "Tidal_flat_sequence"                             
2658.9 "6507_7-4"  46.8300 "Sandstone" -999.25   -999.25   200.0000      0.0      0.0 "m"     "vc"       "Tidal_mudflat"                                         "Tidal_flat_sequence"                             
2659.0 "6507_7-4"  50.1200 "Sandstone" -999.25   -999.25   200.0000      0.0      0.0 "m"     "vc"       "Tidal_mudflat"                                         "Tidal_flat_sequence"                             
2659.1 "6507_7-4"  53.0000 "Sandstone" -999.25   -999.25   200.0000      0.0      0.0 "m"     "vc"       "Tidal_mudflat"                                         "Tidal_flat_sequence"                             
2659.2 "6507_7-4"  53.0400 "Sandstone" -999.25   -999.25   200.0000      0.0      0.0 "m"     "vc"       "Tidal_mudflat"                                         "Tidal_flat_sequence"                             
2659.3 "6507_7-4"  53.0900 "Sandstone" -999.25   -999.25   200.0000      0.0      0.0 "m"     "vc"       "Tidal_mudflat"                                         "Tidal_flat_sequence"                             
2659.4 "6507_7-4"  53.2700 "Sandstone" -999.25   -999.25   200.0000      0.0      0.0 "m"     "vc"       "Tidal_mudflat"                                         "Tidal_flat_sequence"                             
2659.5 "6507_7-4"  55.1400 "Sandstone" -999.25   -999.25   200.0000      0.0      0.0 "m"     "vc"       "Tidal_mudflat"                                         "Tidal_flat_sequence"                             
