~Version
VERS  .                                 3.0 : CWLS LAS ASCII Standard - Version 3.0
WRAP  . NO                                  : One line per depth step
DLM   . SPACE                               : Column data section delimiter
SOURCE. Converted to LAS by Log Studio 4.76 : GeoProvider

~Well
STRT.         2435.0 : Start depth
STOP.         2766.7 : Stop depth
STEP.              1 : Step
NULL.        -999.25 : No-value
COMP.                : Company
WELL. 6507/7-4       : Well
FLD .                : Field
LOC .                : Location
LATI.                : Latitude
LONG.                : Longitude
GDAT.                : Geodetic datum
CNTY.                : County
STAT.                : State
CTRY.                : Country
SRVC. GeoProvider AS : Service company
DATE.                : Date
API .                : API number
RUN .                : Run number

~Parameters
WellboreName.  : Wellbore name
RigName     .  : Rig name
StartDate   .  : Start date

~Curves
DEPTH.m            .  : null {F}Depth mMD
Hole_ID.-          .  : null {S}Hole ID
GR.API             .  : null {F}Gamma Ray
Lithology1.-       .  : null {S}Lithology 1
Lithology2.-       .  : null {S}Lithology 2
Lithology3.-       .  : null {S}Lithology 3
Lithology1.%       .  : null {F}Lithology 1 percentage
Lithology2.%       .  : null {F}Lithology 2 percentage
Lithology3.%       .  : null {F}Lithology 3 percentage
Grain_size_Top.-   .  : null {S}Grain size at the top 
Grain_size_Base.-  .  : null {S}Grain size at the bottom
Sub_Environment.-  .  : null {S}Sub Environment
Gross_Environment.-.  : null {S}Gross Environment

~Ascii
# ...
2697.6 "6507_7-4"  41.5400 "Sandstone" "Shale"   -999.25    50.0000 50.00000      0.0 "f"     "m"        "Shallow_self"                                          "Shelf_/_lower_shoreface_sequence"                
2697.7 "6507_7-4"  41.8800 "Sandstone" "Shale"   -999.25    50.0000 50.00000      0.0 "f"     "m"        "Shallow_self"                                          "Shelf_/_lower_shoreface_sequence"                
2697.8 "6507_7-4"  41.3400 "Sandstone" "Shale"   -999.25    50.0000 50.00000      0.0 "f"     "m"        "Shallow_self"                                          "Shelf_/_lower_shoreface_sequence"                
2697.9 "6507_7-4"  40.2400 "Sandstone" "Shale"   -999.25    50.0000 50.00000      0.0 "f"     "m"        "Shallow_self"                                          "Shelf_/_lower_shoreface_sequence"                
2698.0 "6507_7-4"  38.6700 "Sandstone" "Shale"   -999.25    50.0000 50.00000      0.0 "f"     "m"        "Shallow_self"                                          "Shelf_/_lower_shoreface_sequence"                
2698.1 "6507_7-4"  40.5000 "Sandstone" "Shale"   -999.25    50.0000 50.00000      0.0 "f"     "m"        "Shallow_self"                                          "Shelf_/_lower_shoreface_sequence"                
2698.2 "6507_7-4"  42.6400 "Sandstone" "Shale"   -999.25    50.0000 50.00000      0.0 "f"     "m"        "Shallow_self"                                          "Shelf_/_lower_shoreface_sequence"                
2698.3 "6507_7-4"  44.7700 "Sandstone" "Shale"   -999.25    50.0000 50.00000      0.0 "f"     "m"        "Shallow_self"                                          "Shelf_/_lower_shoreface_sequence"                
2698.4 "6507_7-4"  46.5700 "Sandstone" "Shale"   -999.25    50.0000 50.00000      0.0 "f"     "m"        "Shallow_self"                                          "Shelf_/_lower_shoreface_sequence"                
2698.5 "6507_7-4"  46.8200 "Sandstone" "Shale"   -999.25    50.0000 50.00000      0.0 "f"     "m"        "Shallow_self"                                          "Shelf_/_lower_shoreface_sequence"                
2698.6 "6507_7-4"  46.7000 "Sandstone" "Shale"   -999.25    50.0000 50.00000      0.0 "f"     "m"        "Shallow_self"                                          "Shelf_/_lower_shoreface_sequence"                
2698.7 "6507_7-4"  46.2700 "Sandstone" "Shale"   -999.25    50.0000 50.00000      0.0 "f"     "m"        "Shallow_self"                                          "Shelf_/_lower_shoreface_sequence"                
2698.8 "6507_7-4"  45.8400 "Sandstone" "Shale"   -999.25    50.0000 50.00000      0.0 "f"     "m"        "Shallow_self"                                          "Shelf_/_lower_shoreface_sequence"                
2698.9 "6507_7-4"  45.4100 "Sandstone" "Shale"   -999.25    50.0000 50.00000      0.0 "f"     "m"        "Shallow_self"                                          "Shelf_/_lower_shoreface_sequence"                
2699.0 "6507_7-4"  45.1100 "Sandstone" "Shale"   -999.25    50.0000 50.00000      0.0 "f"     "m"        "Shallow_self"                                          "Shelf_/_lower_shoreface_sequence"                
2699.1 "6507_7-4"  45.4200 "Sandstone" "Shale"   -999.25    50.0000 50.00000      0.0 "f"     "m"        "Shallow_self"                                          "Shelf_/_lower_shoreface_sequence"                
2699.2 "6507_7-4"  46.6300 "Sandstone" "Shale"   -999.25    50.0000 50.00000      0.0 "f"     "m"        "Shallow_self"                                          "Shelf_/_lower_shoreface_sequence"                
2699.3 "6507_7-4"  48.2300 "Sandstone" "Shale"   -999.25    50.0000 50.00000      0.0 "f"     "m"        "Shallow_self"                                          "Shelf_/_lower_shoreface_sequence"                
2699.4 "6507_7-4"  49.8200 "Sandstone" "Shale"   -999.25    50.0000 50.00000      0.0 "f"     "m"        "Shallow_self"                                          "Shelf_/_lower_shoreface_sequence"                
2699.5 "6507_7-4"  51.4200 "Sandstone" "Shale"   -999.25    50.0000 50.00000      0.0 "f"     "m"        "Shallow_self"                                          "Shelf_/_lower_shoreface_sequence"                
2699.6 "6507_7-4"  51.6900 "Sandstone" "Shale"   -999.25    50.0000 50.00000      0.0 "f"     "m"        "Shallow_self"                                          "Shelf_/_lower_shoreface_sequence"                
2699.7 "6507_7-4"  51.8100 "Sandstone" "Shale"   -999.25    50.0000 50.00000      0.0 "f"     "m"        "Shallow_self"                                          "Shelf_/_lower_shoreface_sequence"                
2699.8 "6507_7-4"  51.0000 "Sandstone" "Shale"   -999.25    50.0000 50.00000      0.0 "f"     "m"        "Shallow_self"                                          "Shelf_/_lower_shoreface_sequence"                
2699.9 "6507_7-4"  50.7400 "Sandstone" "Shale"   -999.25    50.0000 50.00000      0.0 "f"     "m"        "Shallow_self"                                          "Shelf_/_lower_shoreface_sequence"                
2700.0 "6507_7-4"  50.8800 "Sandstone" "Shale"   -999.25    50.0000 50.00000      0.0 "f"     "m"        "Shallow_self"                                          "Shelf_/_lower_shoreface_sequence"                
2700.1 "6507_7-4"  51.0300 "Sandstone" "Shale"   -999.25    50.0000 50.00000      0.0 "f"     "m"        "Shallow_self"                                          "Shelf_/_lower_shoreface_sequence"                
2700.2 "6507_7-4"  50.0300 "Sandstone" "Shale"   -999.25    50.0000 50.00000      0.0 "f"     "m"        "Shallow_self"                                          "Shelf_/_lower_shoreface_sequence"                
2700.3 "6507_7-4"  46.4500 "Sandstone" "Shale"   -999.25    50.0000 50.00000      0.0 "f"     "m"        "Shallow_self"                                          "Shelf_/_lower_shoreface_sequence"                
2700.4 "6507_7-4"  45.8400 "Sandstone" "Shale"   -999.25    50.0000 50.00000      0.0 "f"     "m"        "Shallow_self"                                          "Shelf_/_lower_shoreface_sequence"                
2700.5 "6507_7-4"  46.1000 "Sandstone" "Shale"   -999.25    50.0000 50.00000      0.0 "f"     "m"        "Shallow_self"                                          "Shelf_/_lower_shoreface_sequence"                
2700.6 "6507_7-4"  46.2500 "Sandstone" "Shale"   -999.25    50.0000 50.00000      0.0 "f"     "m"        "Shallow_self"                                          "Shelf_/_lower_shoreface_sequence"                
2700.7 "6507_7-4"  46.2500 "Sandstone" "Shale"   -999.25    50.0000 50.00000      0.0 "f"     "m"        "Shallow_self"                                          "Shelf_/_lower_shoreface_sequence"                
2700.8 "6507_7-4"  45.5500 "Sandstone" "Shale"   -999.25    50.0000 50.00000      0.0 "f"     "m"        "Shallow_self"                                          "Shelf_/_lower_shoreface_sequence"                
2700.9 "6507_7-4"  43.5600 "Sandstone" "Shale"   -999.25    50.0000 50.00000      0.0 "f"     "m"        "Shallow_self"                                          "Shelf_/_lower_shoreface_sequence"                
2701.0 "6507_7-4"  41.5700 "Sandstone" "Shale"   -999.25    50.0000 50.00000      0.0 "f"     "m"        "Shallow_self"                                          "Shelf_/_lower_shoreface_sequence"                
2701.1 "6507_7-4"  39.5800 "Sandstone" "Shale"   -999.25    50.0000 50.00000      0.0 "f"     "m"        "Shallow_self"                                          "Shelf_/_lower_shoreface_sequence"                
2701.2 "6507_7-4"  40.2900 "Sandstone" "Shale"   -999.25    50.0000 50.00000      0.0 "f"     "m"        "Shallow_self"                                          "Shelf_/_lower_shoreface_sequence"                
2701.3 "6507_7-4"  41.2200 "Sandstone" "Shale"   -999.25    50.0000 50.00000      0.0 "f"     "m"        "Shallow_self"                                          "Shelf_/_lower_shoreface_sequence"                
