~Version
VERS  .                                 3.0 : CWLS LAS ASCII Standard - Version 3.0
WRAP  . NO                                  : One line per depth step
DLM   . SPACE                               : Column data section delimiter
SOURCE. Converted to LAS by Log Studio 4.76 : GeoProvider

~Well
STRT.         2435.0 : Start depth
STOP.         2766.7 : Stop depth
STEP.              1 : Step
NULL.        -999.25 : No-value
COMP.                : Company
WELL. 6507/7-4       : Well
FLD .                : Field
LOC .                : Location
LATI.                : Latitude
LONG.                : Longitude
GDAT.                : Geodetic datum
CNTY.                : County
STAT.                : State
CTRY.                : Country
SRVC. GeoProvider AS : Service company
DATE.                : Date
API .                : API number
RUN .                : Run number

~Parameters
WellboreName.  : Wellbore name
RigName     .  : Rig name
StartDate   .  : Start date

~Curves
DEPTH.m            .  : null {F}Depth mMD
Hole_ID.-          .  : null {S}Hole ID
GR.API             .  : null {F}Gamma Ray
Lithology1.-       .  : null {S}Lithology 1
Lithology2.-       .  : null {S}Lithology 2
Lithology3.-       .  : null {S}Lithology 3
Lithology1.%       .  : null {F}Lithology 1 percentage
Lithology2.%       .  : null {F}Lithology 2 percentage
Lithology3.%       .  : null {F}Lithology 3 percentage
Grain_size_Top.-   .  : null {S}Grain size at the top 
Grain_size_Base.-  .  : null {S}Grain size at the bottom
Sub_Environment.-  .  : null {S}Sub Environment
Gross_Environment.-.  : null {S}Gross Environment

~Ascii
# ...
2549.4 "6507_7-4"  56.6900 "Sandstone" "Mudstone" "Limestone"  45.0000 50.00000  5.00000 "m"     "c"        "Offshore"                                              "Offshore"                                        
2549.5 "6507_7-4"  56.7900 "Sandstone" "Mudstone" "Limestone"  45.0000 50.00000  5.00000 "m"     "c"        "Offshore"                                              "Offshore"                                        
2549.6 "6507_7-4"  57.5600 "Sandstone" "Mudstone" "Limestone"  45.0000 50.00000  5.00000 "m"     "c"        "Offshore"                                              "Offshore"                                        
2549.7 "6507_7-4"  60.7200 "Sandstone" "Mudstone" "Limestone"  45.0000 50.00000  5.00000 "m"     "c"        "Offshore"                                              "Offshore"                                        
2549.8 "6507_7-4"  63.1200 "Sandstone" "Mudstone" "Limestone"  45.0000 50.00000  5.00000 "m"     "c"        "Offshore"                                              "Offshore"                                        
2549.9 "6507_7-4"  65.5300 "Sandstone" "Mudstone" "Limestone"  45.0000 50.00000  5.00000 "m"     "c"        "Offshore"                                              "Offshore"                                        
2550.0 "6507_7-4"  68.2000 "Sandstone" "Mudstone" "Limestone"  45.0000 50.00000  5.00000 "m"     "c"        "Offshore"                                              "Offshore"                                        
2550.1 "6507_7-4"  69.9100 "Sandstone" "Mudstone" "Limestone"  45.0000 50.00000  5.00000 "m"     "c"        "Offshore"                                              "Offshore"                                        
2550.2 "6507_7-4"  68.7800 "Sandstone" "Mudstone" "Limestone"  45.0000 50.00000  5.00000 "m"     "c"        "Offshore"                                              "Offshore"                                        
2550.3 "6507_7-4"  66.2200 "Sandstone" "Mudstone" "Limestone"  45.0000 50.00000  5.00000 "m"     "c"        "Offshore"                                              "Offshore"                                        
2550.4 "6507_7-4"  63.8300 "Sandstone" "Mudstone" "Limestone"  45.0000 50.00000  5.00000 "m"     "c"        "Offshore"                                              "Offshore"                                        
2550.5 "6507_7-4"  61.4400 "Sandstone" "Mudstone" "Limestone"  45.0000 50.00000  5.00000 "m"     "c"        "Offshore"                                              "Offshore"                                        
2550.6 "6507_7-4"  59.0500 "Sandstone" "Mudstone" "Limestone"  45.0000 50.00000  5.00000 "m"     "c"        "Offshore"                                              "Offshore"                                        
2550.7 "6507_7-4"  57.0400 "Sandstone" "Mudstone" "Limestone"  45.0000 50.00000  5.00000 "m"     "c"        "Offshore"                                              "Offshore"                                        
2550.8 "6507_7-4"  56.2900 "Sandstone" "Mudstone" "Limestone"  45.0000 50.00000  5.00000 "m"     "c"        "Offshore"                                              "Offshore"                                        
2550.9 "6507_7-4"  57.3100 "Sandstone" "Mudstone" "Limestone"  45.0000 50.00000  5.00000 "m"     "c"        "Offshore"                                              "Offshore"                                        
2551.0 "6507_7-4"  60.6700 "Sandstone" "Mudstone" "Limestone"  45.0000 50.00000  5.00000 "m"     "c"        "Offshore"                                              "Offshore"                                        
2551.1 "6507_7-4"  64.6200 "Sandstone" "Mudstone" "Limestone"  45.0000 50.00000  5.00000 "m"     "c"        "Offshore"                                              "Offshore"                                        
2551.2 "6507_7-4"  68.7200 "Sandstone" "Mudstone" "Limestone"  45.0000 50.00000  5.00000 "m"     "c"        "Offshore"                                              "Offshore"                                        
2551.3 "6507_7-4"  70.1400 "Sandstone" "Mudstone" "Limestone"  45.0000 50.00000  5.00000 "m"     "c"        "Offshore"                                              "Offshore"                                        
2551.4 "6507_7-4"  68.7500 "Sandstone" "Mudstone" "Limestone"  45.0000 50.00000  5.00000 "m"     "c"        "Offshore"                                              "Offshore"                                        
2551.5 "6507_7-4"  66.0500 "Sandstone" "Mudstone" "Limestone"  45.0000 50.00000  5.00000 "m"     "c"        "Offshore"                                              "Offshore"                                        
2551.6 "6507_7-4"  64.2500 "Sandstone" "Mudstone" "Limestone"  45.0000 50.00000  5.00000 "m"     "c"        "Offshore"                                              "Offshore"                                        
2551.7 "6507_7-4"  63.6100 "Sandstone" "Mudstone" "Limestone"  45.0000 50.00000  5.00000 "m"     "c"        "Offshore"                                              "Offshore"                                        
2551.8 "6507_7-4"  63.6500 "Sandstone" "Mudstone" "Limestone"  45.0000 50.00000  5.00000 "m"     "c"        "Offshore"                                              "Offshore"                                        
2551.9 "6507_7-4"  63.6900 "Sandstone" "Mudstone" "Limestone"  45.0000 50.00000  5.00000 "m"     "c"        "Offshore"                                              "Offshore"                                        
2552.0 "6507_7-4"  63.4100 "Sandstone" "Mudstone" "Limestone"  45.0000 50.00000  5.00000 "m"     "c"        "Offshore"                                              "Offshore"                                        
2552.1 "6507_7-4"  62.0300 "Sandstone" "Mudstone" "Limestone"  45.0000 50.00000  5.00000 "m"     "c"        "Offshore"                                              "Offshore"                                        
2552.2 "6507_7-4"  61.0100 "Sandstone" "Mudstone" "Limestone"  45.0000 50.00000  5.00000 "m"     "c"        "Offshore"                                              "Offshore"                                        
2552.3 "6507_7-4"  61.5600 "Sandstone" "Mudstone" "Limestone"  45.0000 50.00000  5.00000 "m"     "c"        "Offshore"                                              "Offshore"                                        
2552.4 "6507_7-4"  63.0300 "Sandstone" "Mudstone" "Limestone"  45.0000 50.00000  5.00000 "m"     "c"        "Offshore"                                              "Offshore"                                        
2552.5 "6507_7-4"  62.8400 "Sandstone" "Mudstone" "Limestone"  45.0000 50.00000  5.00000 "m"     "c"        "Offshore"                                              "Offshore"                                        
2552.6 "6507_7-4"  60.5700 "Sandstone" "Mudstone" "Limestone"  45.0000 50.00000  5.00000 "m"     "c"        "Offshore"                                              "Offshore"                                        
2552.7 "6507_7-4"  58.2900 "Sandstone" "Mudstone" "Limestone"  45.0000 50.00000  5.00000 "m"     "c"        "Offshore"                                              "Offshore"                                        
2552.8 "6507_7-4"  56.0200 "Sandstone" "Mudstone" "Limestone"  45.0000 50.00000  5.00000 "m"     "c"        "Offshore"                                              "Offshore"                                        
2552.9 "6507_7-4"  53.7400 "Sandstone" "Mudstone" "Limestone"  45.0000 50.00000  5.00000 "m"     "c"        "Offshore"                                              "Offshore"                                        
2553.0 "6507_7-4"  51.6100 "Sandstone" "Mudstone" "Limestone"  45.0000 50.00000  5.00000 "m"     "c"        "Offshore"                                              "Offshore"                                        
2553.1 "6507_7-4"  51.6400 "Sandstone" "Mudstone" "Limestone"  45.0000 50.00000  5.00000 "m"     "c"        "Offshore"                                              "Offshore"                                        
