~Version
VERS  .                                 3.0 : CWLS LAS ASCII Standard - Version 3.0
WRAP  . NO                                  : One line per depth step
DLM   . SPACE                               : Column data section delimiter
SOURCE. Converted to LAS by Log Studio 4.76 : GeoProvider

~Well
STRT.         2435.0 : Start depth
STOP.         2766.7 : Stop depth
STEP.              1 : Step
NULL.        -999.25 : No-value
COMP.                : Company
WELL. 6507/7-4       : Well
FLD .                : Field
LOC .                : Location
LATI.                : Latitude
LONG.                : Longitude
GDAT.                : Geodetic datum
CNTY.                : County
STAT.                : State
CTRY.                : Country
SRVC. GeoProvider AS : Service company
DATE.                : Date
API .                : API number
RUN .                : Run number

~Parameters
WellboreName.  : Wellbore name
RigName     .  : Rig name
StartDate   .  : Start date

~Curves
DEPTH.m            .  : null {F}Depth mMD
Hole_ID.-          .  : null {S}Hole ID
GR.API             .  : null {F}Gamma Ray
Lithology1.-       .  : null {S}Lithology 1
Lithology2.-       .  : null {S}Lithology 2
Lithology3.-       .  : null {S}Lithology 3
Lithology1.%       .  : null {F}Lithology 1 percentage
Lithology2.%       .  : null {F}Lithology 2 percentage
Lithology3.%       .  : null {F}Lithology 3 percentage
Grain_size_Top.-   .  : null {S}Grain size at the top 
Grain_size_Base.-  .  : null {S}Grain size at the bottom
Sub_Environment.-  .  : null {S}Sub Environment
Gross_Environment.-.  : null {S}Gross Environment

~Ascii
# ...
2526.6 "6507_7-4"  46.3900 "Sandstone" "Mudstone" "Limestone"  45.0000 50.00000  5.00000 "m"     "c"        "Upper_shoreface"                                       "Shoreface_beach_sequence"                        
2526.7 "6507_7-4"  46.1800 "Sandstone" "Mudstone" "Limestone"  45.0000 50.00000  5.00000 "m"     "c"        "Upper_shoreface"                                       "Shoreface_beach_sequence"                        
2526.8 "6507_7-4"  45.5800 "Sandstone" "Mudstone" "Limestone"  45.0000 50.00000  5.00000 "m"     "c"        "Upper_shoreface"                                       "Shoreface_beach_sequence"                        
2526.9 "6507_7-4"  44.8900 "Sandstone" "Mudstone" "Limestone"  45.0000 50.00000  5.00000 "m"     "c"        "Upper_shoreface"                                       "Shoreface_beach_sequence"                        
2527.0 "6507_7-4"  45.0200 "Sandstone" "Mudstone" "Limestone"  45.0000 50.00000  5.00000 "m"     "c"        "Upper_shoreface"                                       "Shoreface_beach_sequence"                        
2527.1 "6507_7-4"  45.1700 "Sandstone" "Mudstone" "Limestone"  45.0000 50.00000  5.00000 "m"     "c"        "Upper_shoreface"                                       "Shoreface_beach_sequence"                        
2527.2 "6507_7-4"  46.1500 "Sandstone" "Mudstone" "Limestone"  45.0000 50.00000  5.00000 "m"     "c"        "Upper_shoreface"                                       "Shoreface_beach_sequence"                        
2527.3 "6507_7-4"  47.1300 "Sandstone" "Mudstone" "Limestone"  45.0000 50.00000  5.00000 "m"     "c"        "Upper_shoreface"                                       "Shoreface_beach_sequence"                        
2527.4 "6507_7-4"  46.4500 "Sandstone" "Mudstone" "Limestone"  45.0000 50.00000  5.00000 "m"     "c"        "Upper_shoreface"                                       "Shoreface_beach_sequence"                        
2527.5 "6507_7-4"  44.7400 "Sandstone" "Mudstone" "Limestone"  45.0000 50.00000  5.00000 "m"     "c"        "Upper_shoreface"                                       "Shoreface_beach_sequence"                        
2527.6 "6507_7-4"  43.2700 "Sandstone" "Mudstone" "Limestone"  45.0000 50.00000  5.00000 "m"     "c"        "Upper_shoreface"                                       "Shoreface_beach_sequence"                        
2527.7 "6507_7-4"  42.3000 "Sandstone" "Mudstone" "Limestone"  45.0000 50.00000  5.00000 "m"     "c"        "Upper_shoreface"                                       "Shoreface_beach_sequence"                        
2527.8 "6507_7-4"  43.0100 "Sandstone" "Mudstone" "Limestone"  45.0000 50.00000  5.00000 "m"     "c"        "Upper_shoreface"                                       "Shoreface_beach_sequence"                        
2527.9 "6507_7-4"  46.5200 "Sandstone" "Mudstone" "Limestone"  45.0000 50.00000  5.00000 "m"     "c"        "Upper_shoreface"                                       "Shoreface_beach_sequence"                        
2528.0 "6507_7-4"  49.6100 "Sandstone" "Mudstone" "Limestone"  45.0000 50.00000  5.00000 "m"     "c"        "Upper_shoreface"                                       "Shoreface_beach_sequence"                        
2528.1 "6507_7-4"  52.1300 "Sandstone" "Mudstone" "Limestone"  45.0000 50.00000  5.00000 "m"     "c"        "Upper_shoreface"                                       "Shoreface_beach_sequence"                        
2528.2 "6507_7-4"  51.8400 "Sandstone" "Mudstone" "Limestone"  45.0000 50.00000  5.00000 "m"     "c"        "Upper_shoreface"                                       "Shoreface_beach_sequence"                        
2528.3 "6507_7-4"  51.1200 "Sandstone" "Mudstone" "Limestone"  45.0000 50.00000  5.00000 "m"     "c"        "Upper_shoreface"                                       "Shoreface_beach_sequence"                        
2528.4 "6507_7-4"  50.4300 "Sandstone" "Mudstone" "Limestone"  45.0000 50.00000  5.00000 "m"     "c"        "Upper_shoreface"                                       "Shoreface_beach_sequence"                        
2528.5 "6507_7-4"  49.9400 "Sandstone" "Mudstone" "Limestone"  45.0000 50.00000  5.00000 "m"     "c"        "Upper_shoreface"                                       "Shoreface_beach_sequence"                        
2528.6 "6507_7-4"  50.4900 "Sandstone" "Mudstone" "Limestone"  45.0000 50.00000  5.00000 "m"     "c"        "Upper_shoreface"                                       "Shoreface_beach_sequence"                        
2528.7 "6507_7-4"  51.3300 "Sandstone" "Mudstone" "Limestone"  45.0000 50.00000  5.00000 "m"     "c"        "Upper_shoreface"                                       "Shoreface_beach_sequence"                        
2528.8 "6507_7-4"  50.7800 "Sandstone" "Mudstone" "Limestone"  45.0000 50.00000  5.00000 "m"     "c"        "Upper_shoreface"                                       "Shoreface_beach_sequence"                        
2528.9 "6507_7-4"  51.1400 "Sandstone" "Mudstone" "Limestone"  45.0000 50.00000  5.00000 "m"     "c"        "Upper_shoreface"                                       "Shoreface_beach_sequence"                        
2529.0 "6507_7-4"  52.3900 "Sandstone" "Mudstone" "Limestone"  45.0000 50.00000  5.00000 "m"     "c"        "Upper_shoreface"                                       "Shoreface_beach_sequence"                        
2529.1 "6507_7-4"  54.1700 "Sandstone" "Mudstone" "Limestone"  45.0000 50.00000  5.00000 "m"     "c"        "Upper_shoreface"                                       "Shoreface_beach_sequence"                        
2529.2 "6507_7-4"  56.2400 "Sandstone" "Mudstone" "Limestone"  45.0000 50.00000  5.00000 "m"     "c"        "Upper_shoreface"                                       "Shoreface_beach_sequence"                        
2529.3 "6507_7-4"  58.4400 "Sandstone" "Mudstone" "Limestone"  45.0000 50.00000  5.00000 "m"     "c"        "Upper_shoreface"                                       "Shoreface_beach_sequence"                        
2529.4 "6507_7-4"  61.1700 "Sandstone" "Mudstone" "Limestone"  45.0000 50.00000  5.00000 "m"     "c"        "Upper_shoreface"                                       "Shoreface_beach_sequence"                        
2529.5 "6507_7-4"  63.9000 "Sandstone" "Mudstone" "Limestone"  45.0000 50.00000  5.00000 "m"     "c"        "Upper_shoreface"                                       "Shoreface_beach_sequence"                        
2529.6 "6507_7-4"  68.1600 "Sandstone" "Mudstone" "Limestone"  45.0000 50.00000  5.00000 "m"     "c"        "Upper_shoreface"                                       "Shoreface_beach_sequence"                        
2529.7 "6507_7-4"  70.7400 "Sandstone" "Mudstone" "Limestone"  45.0000 50.00000  5.00000 "m"     "c"        "Upper_shoreface"                                       "Shoreface_beach_sequence"                        
2529.8 "6507_7-4"  73.1500 "Sandstone" "Mudstone" "Limestone"  45.0000 50.00000  5.00000 "m"     "c"        "Upper_shoreface"                                       "Shoreface_beach_sequence"                        
2529.9 "6507_7-4"  74.0600 "Sandstone" "Mudstone" "Limestone"  45.0000 50.00000  5.00000 "m"     "c"        "Upper_shoreface"                                       "Shoreface_beach_sequence"                        
2530.0 "6507_7-4"  72.9300 "Sandstone" "Mudstone" "Limestone"  45.0000 50.00000  5.00000 "m"     "c"        "Upper_shoreface"                                       "Shoreface_beach_sequence"                        
2530.1 "6507_7-4"  67.6500 "Sandstone" "Mudstone" "Limestone"  45.0000 50.00000  5.00000 "m"     "c"        "Upper_shoreface"                                       "Shoreface_beach_sequence"                        
2530.2 "6507_7-4"  62.3800 "Sandstone" "Mudstone" "Limestone"  45.0000 50.00000  5.00000 "m"     "c"        "Upper_shoreface"                                       "Shoreface_beach_sequence"                        
2530.3 "6507_7-4"  48.2600 "Sandstone" "Mudstone" "Limestone"  45.0000 50.00000  5.00000 "m"     "c"        "Upper_shoreface"                                       "Shoreface_beach_sequence"                        
