~Version
VERS  .                                 3.0 : CWLS LAS ASCII Standard - Version 3.0
WRAP  . NO                                  : One line per depth step
DLM   . SPACE                               : Column data section delimiter
SOURCE. Converted to LAS by Log Studio 4.76 : GeoProvider

~Well
STRT.         2435.0 : Start depth
STOP.         2766.7 : Stop depth
STEP.              1 : Step
NULL.        -999.25 : No-value
COMP.                : Company
WELL. 6507/7-4       : Well
FLD .                : Field
LOC .                : Location
LATI.                : Latitude
LONG.                : Longitude
GDAT.                : Geodetic datum
CNTY.                : County
STAT.                : State
CTRY.                : Country
SRVC. GeoProvider AS : Service company
DATE.                : Date
API .                : API number
RUN .                : Run number

~Parameters
WellboreName.  : Wellbore name
RigName     .  : Rig name
StartDate   .  : Start date

~Curves
DEPTH.m            .  : null {F}Depth mMD
Hole_ID.-          .  : null {S}Hole ID
GR.API             .  : null {F}Gamma Ray
Lithology1.-       .  : null {S}Lithology 1
Lithology2.-       .  : null {S}Lithology 2
Lithology3.-       .  : null {S}Lithology 3
Lithology1.%       .  : null {F}Lithology 1 percentage
Lithology2.%       .  : null {F}Lithology 2 percentage
Lithology3.%       .  : null {F}Lithology 3 percentage
Grain_size_Top.-   .  : null {S}Grain size at the top 
Grain_size_Base.-  .  : null {S}Grain size at the bottom
Sub_Environment.-  .  : null {S}Sub Environment
Gross_Environment.-.  : null {S}Gross Environment

~Ascii
# ...
2484.8 "6507_7-4"  17.9700 "Sandstone" "Shale"   -999.25    97.0000  3.00000      0.0 "c"     "m"        "?_Back_beach/foreshore/upper_shoreface_transition"     "Shoreface_beach_sequence"                        
2484.9 "6507_7-4"  18.8400 "Sandstone" "Shale"   -999.25    97.0000  3.00000      0.0 "c"     "m"        "?_Back_beach/foreshore/upper_shoreface_transition"     "Shoreface_beach_sequence"                        
2485.0 "6507_7-4"  21.5800 "Sandstone" "Shale"   -999.25    97.0000  3.00000      0.0 "c"     "m"        "?_Back_beach/foreshore/upper_shoreface_transition"     "Shoreface_beach_sequence"                        
2485.1 "6507_7-4"  24.3200 "Sandstone" "Shale"   -999.25    97.0000  3.00000      0.0 "c"     "m"        "?_Back_beach/foreshore/upper_shoreface_transition"     "Shoreface_beach_sequence"                        
2485.2 "6507_7-4"  27.0600 "Sandstone" "Shale"   -999.25    97.0000  3.00000      0.0 "c"     "m"        "?_Back_beach/foreshore/upper_shoreface_transition"     "Shoreface_beach_sequence"                        
2485.3 "6507_7-4"  29.8000 "Sandstone" "Shale"   -999.25    97.0000  3.00000      0.0 "c"     "m"        "?_Back_beach/foreshore/upper_shoreface_transition"     "Shoreface_beach_sequence"                        
2485.4 "6507_7-4"  32.5000 "Sandstone" "Shale"   -999.25    97.0000  3.00000      0.0 "c"     "m"        "?_Back_beach/foreshore/upper_shoreface_transition"     "Shoreface_beach_sequence"                        
2485.5 "6507_7-4"  33.1100 "Sandstone" "Shale"   -999.25    97.0000  3.00000      0.0 "c"     "m"        "?_Back_beach/foreshore/upper_shoreface_transition"     "Shoreface_beach_sequence"                        
2485.6 "6507_7-4"  33.7200 "Sandstone" "Shale"   -999.25    97.0000  3.00000      0.0 "c"     "m"        "?_Back_beach/foreshore/upper_shoreface_transition"     "Shoreface_beach_sequence"                        
2485.7 "6507_7-4"  34.4800 "Sandstone" "Shale"   -999.25    97.0000  3.00000      0.0 "c"     "m"        "?_Back_beach/foreshore/upper_shoreface_transition"     "Shoreface_beach_sequence"                        
2485.8 "6507_7-4"  36.5400 "Sandstone" "Shale"   -999.25    97.0000  3.00000      0.0 "c"     "m"        "?_Back_beach/foreshore/upper_shoreface_transition"     "Shoreface_beach_sequence"                        
2485.9 "6507_7-4"  38.6000 "Sandstone" "Shale"   -999.25    97.0000  3.00000      0.0 "c"     "m"        "?_Back_beach/foreshore/upper_shoreface_transition"     "Shoreface_beach_sequence"                        
2486.0 "6507_7-4"  41.3800 "Sandstone" "Shale"   -999.25    97.0000  3.00000      0.0 "c"     "m"        "?_Back_beach/foreshore/upper_shoreface_transition"     "Shoreface_beach_sequence"                        
2486.1 "6507_7-4"  44.3800 "Sandstone" "Shale"   -999.25    97.0000  3.00000      0.0 "c"     "m"        "?_Back_beach/foreshore/upper_shoreface_transition"     "Shoreface_beach_sequence"                        
2486.2 "6507_7-4"  47.3700 "Sandstone" "Shale"   -999.25    97.0000  3.00000      0.0 "c"     "m"        "?_Back_beach/foreshore/upper_shoreface_transition"     "Shoreface_beach_sequence"                        
2486.3 "6507_7-4"  48.2400 "Sandstone" "Shale"   -999.25    97.0000  3.00000      0.0 "c"     "m"        "?_Back_beach/foreshore/upper_shoreface_transition"     "Shoreface_beach_sequence"                        
2486.4 "6507_7-4"  46.5800 "Sandstone" "Shale"   -999.25    97.0000  3.00000      0.0 "c"     "m"        "?_Back_beach/foreshore/upper_shoreface_transition"     "Shoreface_beach_sequence"                        
2486.5 "6507_7-4"  44.2200 "Sandstone" -999.25   -999.25   100.0000      0.0      0.0 "c"     "m/c"      "?_Back_beach/foreshore/upper_shoreface_transition"     "Shoreface_beach_sequence"                        
2486.6 "6507_7-4"  41.8700 "Sandstone" -999.25   -999.25   100.0000      0.0      0.0 "c"     "m/c"      -999.25                                                 "Shoreface_beach_sequence"                        
2486.7 "6507_7-4"  40.4700 "Sandstone" -999.25   -999.25   100.0000      0.0      0.0 "c"     "m/c"      -999.25                                                 "Shoreface_beach_sequence"                        
2486.8 "6507_7-4"  40.4700 "Sandstone" -999.25   -999.25   100.0000      0.0      0.0 "c"     "m/c"      -999.25                                                 "Shoreface_beach_sequence"                        
2486.9 "6507_7-4"  40.4700 "Sandstone" -999.25   -999.25   100.0000      0.0      0.0 "c"     "m/c"      -999.25                                                 "Shoreface_beach_sequence"                        
2487.0 "6507_7-4"  38.7700 "Sandstone" -999.25   -999.25   100.0000      0.0      0.0 "c"     "m/c"      -999.25                                                 "Shoreface_beach_sequence"                        
2487.1 "6507_7-4"  35.9500 "Sandstone" -999.25   -999.25   100.0000      0.0      0.0 "vc"    "vc"       -999.25                                                 "Shoreface_beach_sequence"                        
2487.2 "6507_7-4"  34.0600 "Sandstone" -999.25   -999.25   100.0000      0.0      0.0 "vc"    "vc"       -999.25                                                 "Shoreface_beach_sequence"                        
2487.3 "6507_7-4"  37.3500 "Sandstone" -999.25   -999.25   100.0000      0.0      0.0 "vc"    "vc"       -999.25                                                 "Shoreface_beach_sequence"                        
2487.4 "6507_7-4"  39.3200 "Sandstone" -999.25   -999.25   100.0000      0.0      0.0 "vc"    "vc"       -999.25                                                 "Shoreface_beach_sequence"                        
2487.5 "6507_7-4"  39.6400 "Sandstone" -999.25   -999.25   100.0000      0.0      0.0 "vc"    "c/vc"     -999.25                                                 "Shoreface_beach_sequence"                        
2487.6 "6507_7-4"  39.0500 "Sandstone" -999.25   -999.25   100.0000      0.0      0.0 "vc"    "c/vc"     -999.25                                                 "Shoreface_beach_sequence"                        
2487.7 "6507_7-4"  37.2700 "Sandstone" -999.25   -999.25   100.0000      0.0      0.0 "vc"    "c/vc"     -999.25                                                 "Shoreface_beach_sequence"                        
2487.8 "6507_7-4"  34.6600 "Sandstone" -999.25   -999.25   100.0000      0.0      0.0 "vc"    "c/vc"     -999.25                                                 "Shoreface_beach_sequence"                        
2487.9 "6507_7-4"  32.0600 "Sandstone" -999.25   -999.25   100.0000      0.0      0.0 "f"     "f"        -999.25                                                 "Shoreface_beach_sequence"                        
2488.0 "6507_7-4"  29.4600 "Sandstone" -999.25   -999.25   100.0000      0.0      0.0 "f"     "f"        -999.25                                                 "Shoreface_beach_sequence"                        
2488.1 "6507_7-4"  26.8500 "Sandstone" -999.25   -999.25   100.0000      0.0      0.0 "f"     "f"        -999.25                                                 "Shoreface_beach_sequence"                        
2488.2 "6507_7-4"  24.9500 "Sandstone" -999.25   -999.25   100.0000      0.0      0.0 "c/vc"  "c/vc"     -999.25                                                 "Shoreface_beach_sequence"                        
2488.3 "6507_7-4"  24.9900 "Sandstone" -999.25   -999.25   100.0000      0.0      0.0 "c/vc"  "c/vc"     -999.25                                                 "Shoreface_beach_sequence"                        
2488.4 "6507_7-4"  25.2400 "Sandstone" -999.25   -999.25   100.0000      0.0      0.0 "c/vc"  "c/vc"     -999.25                                                 "Shoreface_beach_sequence"                        
2488.5 "6507_7-4"  25.4900 "Sandstone" -999.25   -999.25   100.0000      0.0      0.0 "c/vc"  "c/vc"     -999.25                                                 "Shoreface_beach_sequence"                        
