~Version
VERS  .                                 3.0 : CWLS LAS ASCII Standard - Version 3.0
WRAP  . NO                                  : One line per depth step
DLM   . SPACE                               : Column data section delimiter
SOURCE. Converted to LAS by Log Studio 4.76 : GeoProvider

~Well
STRT.         2435.0 : Start depth
STOP.         2766.7 : Stop depth
STEP.              1 : Step
NULL.        -999.25 : No-value
COMP.                : Company
WELL. 6507/7-4       : Well
FLD .                : Field
LOC .                : Location
LATI.                : Latitude
LONG.                : Longitude
GDAT.                : Geodetic datum
CNTY.                : County
STAT.                : State
CTRY.                : Country
SRVC. GeoProvider AS : Service company
DATE.                : Date
API .                : API number
RUN .                : Run number

~Parameters
WellboreName.  : Wellbore name
RigName     .  : Rig name
StartDate   .  : Start date

~Curves
DEPTH.m            .  : null {F}Depth mMD
Hole_ID.-          .  : null {S}Hole ID
GR.API             .  : null {F}Gamma Ray
Lithology1.-       .  : null {S}Lithology 1
Lithology2.-       .  : null {S}Lithology 2
Lithology3.-       .  : null {S}Lithology 3
Lithology1.%       .  : null {F}Lithology 1 percentage
Lithology2.%       .  : null {F}Lithology 2 percentage
Lithology3.%       .  : null {F}Lithology 3 percentage
Grain_size_Top.-   .  : null {S}Grain size at the top 
Grain_size_Base.-  .  : null {S}Grain size at the bottom
Sub_Environment.-  .  : null {S}Sub Environment
Gross_Environment.-.  : null {S}Gross Environment

~Ascii
# ...
2678.6 "6507_7-4"  62.5300 "Sandstone" "Shale"   -999.25    50.0000 50.00000      0.0 "f"     "m"        "Lower_shoreface_/_inner_shelf"                         "Shelf_/_lower_shoreface_sequence"                
2678.7 "6507_7-4"  60.5700 "Sandstone" "Shale"   -999.25    50.0000 50.00000      0.0 "f"     "m"        "Lower_shoreface_/_inner_shelf"                         "Shelf_/_lower_shoreface_sequence"                
2678.8 "6507_7-4"  57.4300 "Sandstone" "Shale"   -999.25    50.0000 50.00000      0.0 "f"     "m"        "Lower_shoreface_/_inner_shelf"                         "Shelf_/_lower_shoreface_sequence"                
2678.9 "6507_7-4"  54.2900 "Sandstone" "Shale"   -999.25    50.0000 50.00000      0.0 "f"     "m"        "Lower_shoreface_/_inner_shelf"                         "Shelf_/_lower_shoreface_sequence"                
2679.0 "6507_7-4"  51.1500 "Sandstone" "Shale"   -999.25    50.0000 50.00000      0.0 "f"     "m"        "Lower_shoreface_/_inner_shelf"                         "Shelf_/_lower_shoreface_sequence"                
2679.1 "6507_7-4"  47.8100 "Sandstone" "Shale"   -999.25    50.0000 50.00000      0.0 "f"     "m"        "Lower_shoreface_/_inner_shelf"                         "Shelf_/_lower_shoreface_sequence"                
2679.2 "6507_7-4"  44.5200 "Sandstone" "Shale"   -999.25    50.0000 50.00000      0.0 "f"     "m"        "Lower_shoreface_/_inner_shelf"                         "Shelf_/_lower_shoreface_sequence"                
2679.3 "6507_7-4"  44.1400 "Sandstone" "Shale"   -999.25    50.0000 50.00000      0.0 "f"     "m"        "Lower_shoreface_/_inner_shelf"                         "Shelf_/_lower_shoreface_sequence"                
2679.4 "6507_7-4"  46.4900 "Sandstone" "Shale"   -999.25    50.0000 50.00000      0.0 "f"     "m"        "Lower_shoreface_/_inner_shelf"                         "Shelf_/_lower_shoreface_sequence"                
2679.5 "6507_7-4"  48.8500 "Sandstone" "Shale"   -999.25    50.0000 50.00000      0.0 "f"     "m"        "Lower_shoreface_/_inner_shelf"                         "Shelf_/_lower_shoreface_sequence"                
2679.6 "6507_7-4"  51.2100 "Sandstone" "Shale"   -999.25    50.0000 50.00000      0.0 "f"     "m"        "Lower_shoreface_/_inner_shelf"                         "Shelf_/_lower_shoreface_sequence"                
2679.7 "6507_7-4"  53.4000 "Sandstone" "Shale"   -999.25    50.0000 50.00000      0.0 "f"     "m"        "Lower_shoreface_/_inner_shelf"                         "Shelf_/_lower_shoreface_sequence"                
2679.8 "6507_7-4"  53.4000 "Sandstone" "Shale"   -999.25    50.0000 50.00000      0.0 "f"     "m"        "Lower_shoreface_/_inner_shelf"                         "Shelf_/_lower_shoreface_sequence"                
2679.9 "6507_7-4"  53.0600 "Sandstone" "Shale"   -999.25    50.0000 50.00000      0.0 "f"     "m"        "Lower_shoreface_/_inner_shelf"                         "Shelf_/_lower_shoreface_sequence"                
2680.0 "6507_7-4"  52.4400 "Sandstone" "Shale"   -999.25    50.0000 50.00000      0.0 "f"     "m"        "Lower_shoreface_/_inner_shelf"                         "Shelf_/_lower_shoreface_sequence"                
2680.1 "6507_7-4"  51.3500 "Sandstone" "Shale"   -999.25    50.0000 50.00000      0.0 "f"     "m"        "Lower_shoreface_/_inner_shelf"                         "Shelf_/_lower_shoreface_sequence"                
2680.2 "6507_7-4"  49.2900 "Sandstone" "Shale"   -999.25    50.0000 50.00000      0.0 "f"     "m"        "Lower_shoreface_/_inner_shelf"                         "Shelf_/_lower_shoreface_sequence"                
2680.3 "6507_7-4"  47.1900 "Sandstone" "Shale"   -999.25    50.0000 50.00000      0.0 "f"     "m"        "Lower_shoreface_/_inner_shelf"                         "Shelf_/_lower_shoreface_sequence"                
2680.4 "6507_7-4"  46.1600 "Sandstone" "Shale"   -999.25    50.0000 50.00000      0.0 "f"     "m"        "Lower_shoreface_/_inner_shelf"                         "Shelf_/_lower_shoreface_sequence"                
2680.5 "6507_7-4"  46.3600 "Sandstone" "Shale"   -999.25    50.0000 50.00000      0.0 "f"     "m"        "Lower_shoreface_/_inner_shelf"                         "Shelf_/_lower_shoreface_sequence"                
2680.6 "6507_7-4"  46.6200 "Sandstone" "Shale"   -999.25    50.0000 50.00000      0.0 "f"     "m"        "Lower_shoreface_/_inner_shelf"                         "Shelf_/_lower_shoreface_sequence"                
2680.7 "6507_7-4"  45.8100 "Sandstone" "Shale"   -999.25    50.0000 50.00000      0.0 "f"     "m"        "Lower_shoreface_/_inner_shelf"                         "Shelf_/_lower_shoreface_sequence"                
2680.8 "6507_7-4"  44.8000 "Sandstone" "Shale"   -999.25    50.0000 50.00000      0.0 "f"     "m"        "Lower_shoreface_/_inner_shelf"                         "Shelf_/_lower_shoreface_sequence"                
2680.9 "6507_7-4"  44.7800 "Sandstone" "Shale"   -999.25    50.0000 50.00000      0.0 "f"     "m"        "Lower_shoreface_/_inner_shelf"                         "Shelf_/_lower_shoreface_sequence"                
2681.0 "6507_7-4"  46.3300 "Sandstone" "Shale"   -999.25    50.0000 50.00000      0.0 "f"     "m"        "Lower_shoreface_/_inner_shelf"                         "Shelf_/_lower_shoreface_sequence"                
2681.1 "6507_7-4"  47.9000 "Sandstone" "Shale"   -999.25    50.0000 50.00000      0.0 "f"     "m"        "Lower_shoreface_/_inner_shelf"                         "Shelf_/_lower_shoreface_sequence"                
2681.2 "6507_7-4"  49.5600 "Sandstone" "Shale"   -999.25    50.0000 50.00000      0.0 "f"     "m"        "Lower_shoreface_/_inner_shelf"                         "Shelf_/_lower_shoreface_sequence"                
2681.3 "6507_7-4"  51.2100 "Sandstone" "Shale"   -999.25    50.0000 50.00000      0.0 "f"     "m"        "Lower_shoreface_/_inner_shelf"                         "Shelf_/_lower_shoreface_sequence"                
2681.4 "6507_7-4"  52.8700 "Sandstone" "Shale"   -999.25    50.0000 50.00000      0.0 "f"     "m"        "Lower_shoreface_/_inner_shelf"                         "Shelf_/_lower_shoreface_sequence"                
2681.5 "6507_7-4"  54.5200 "Sandstone" "Shale"   -999.25    50.0000 50.00000      0.0 "f"     "m"        "Lower_shoreface_/_inner_shelf"                         "Shelf_/_lower_shoreface_sequence"                
2681.6 "6507_7-4"  54.9100 "Sandstone" "Shale"   -999.25    50.0000 50.00000      0.0 "f"     "m"        "Lower_shoreface_/_inner_shelf"                         "Shelf_/_lower_shoreface_sequence"                
2681.7 "6507_7-4"  55.0600 "Sandstone" "Shale"   -999.25    50.0000 50.00000      0.0 "f"     "m"        "Lower_shoreface_/_inner_shelf"                         "Shelf_/_lower_shoreface_sequence"                
2681.8 "6507_7-4"  55.2100 "Sandstone" "Shale"   -999.25    50.0000 50.00000      0.0 "f"     "m"        "Lower_shoreface_/_inner_shelf"                         "Shelf_/_lower_shoreface_sequence"                
2681.9 "6507_7-4"  55.6800 "Sandstone" "Shale"   -999.25    50.0000 50.00000      0.0 "f"     "m"        "Lower_shoreface_/_inner_shelf"                         "Shelf_/_lower_shoreface_sequence"                
2682.0 "6507_7-4"  57.2500 "Sandstone" "Shale"   -999.25    50.0000 50.00000      0.0 "f"     "m"        "Lower_shoreface_/_inner_shelf"                         "Shelf_/_lower_shoreface_sequence"                
2682.1 "6507_7-4"  58.6200 "Sandstone" "Shale"   -999.25    50.0000 50.00000      0.0 "f"     "m"        "Lower_shoreface_/_inner_shelf"                         "Shelf_/_lower_shoreface_sequence"                
2682.2 "6507_7-4"  58.7700 "Sandstone" "Shale"   -999.25    50.0000 50.00000      0.0 "f"     "m"        "Lower_shoreface_/_inner_shelf"                         "Shelf_/_lower_shoreface_sequence"                
2682.3 "6507_7-4"  58.3400 "Sandstone" "Shale"   -999.25    50.0000 50.00000      0.0 "f"     "m"        "Lower_shoreface_/_inner_shelf"                         "Shelf_/_lower_shoreface_sequence"                
