~Version
VERS  .                                 3.0 : CWLS LAS ASCII Standard - Version 3.0
WRAP  . NO                                  : One line per depth step
DLM   . SPACE                               : Column data section delimiter
SOURCE. Converted to LAS by Log Studio 4.76 : GeoProvider

~Well
STRT.         2435.0 : Start depth
STOP.         2766.7 : Stop depth
STEP.              1 : Step
NULL.        -999.25 : No-value
COMP.                : Company
WELL. 6507/7-4       : Well
FLD .                : Field
LOC .                : Location
LATI.                : Latitude
LONG.                : Longitude
GDAT.                : Geodetic datum
CNTY.                : County
STAT.                : State
CTRY.                : Country
SRVC. GeoProvider AS : Service company
DATE.                : Date
API .                : API number
RUN .                : Run number

~Parameters
WellboreName.  : Wellbore name
RigName     .  : Rig name
StartDate   .  : Start date

~Curves
DEPTH.m            .  : null {F}Depth mMD
Hole_ID.-          .  : null {S}Hole ID
GR.API             .  : null {F}Gamma Ray
Lithology1.-       .  : null {S}Lithology 1
Lithology2.-       .  : null {S}Lithology 2
Lithology3.-       .  : null {S}Lithology 3
Lithology1.%       .  : null {F}Lithology 1 percentage
Lithology2.%       .  : null {F}Lithology 2 percentage
Lithology3.%       .  : null {F}Lithology 3 percentage
Grain_size_Top.-   .  : null {S}Grain size at the top 
Grain_size_Base.-  .  : null {S}Grain size at the bottom
Sub_Environment.-  .  : null {S}Sub Environment
Gross_Environment.-.  : null {S}Gross Environment

~Ascii
# ...
2614.0 "6507_7-4"  45.7700 "Sandstone" "Mudstone" -999.25    70.0000 30.00000      0.0 "f"     "vf"       "Marine_shelf"                                          "Shoreface_to_shelf_transgressive_sequence"       
2614.1 "6507_7-4"  44.2300 "Sandstone" "Mudstone" -999.25    70.0000 30.00000      0.0 "f"     "vf"       "Marine_shelf"                                          "Shoreface_to_shelf_transgressive_sequence"       
2614.2 "6507_7-4"  44.3600 "Sandstone" "Mudstone" -999.25    70.0000 30.00000      0.0 "f"     "vf"       "Marine_shelf"                                          "Shoreface_to_shelf_transgressive_sequence"       
2614.3 "6507_7-4"  45.0300 "Sandstone" "Mudstone" -999.25    70.0000 30.00000      0.0 "f"     "vf"       "Marine_shelf"                                          "Shoreface_to_shelf_transgressive_sequence"       
2614.4 "6507_7-4"  43.2100 "Sandstone" "Mudstone" -999.25    70.0000 30.00000      0.0 "f"     "vf"       "Marine_shelf"                                          "Shoreface_to_shelf_transgressive_sequence"       
2614.5 "6507_7-4"  41.6100 "Sandstone" "Mudstone" -999.25    70.0000 30.00000      0.0 "f"     "vf"       "Marine_shelf"                                          "Shoreface_to_shelf_transgressive_sequence"       
2614.6 "6507_7-4"  40.1800 "Sandstone" "Mudstone" -999.25    70.0000 30.00000      0.0 "f"     "vf"       "Marine_shelf"                                          "Shoreface_to_shelf_transgressive_sequence"       
2614.7 "6507_7-4"  38.9800 "Sandstone" "Mudstone" -999.25    70.0000 30.00000      0.0 "f"     "vf"       "Marine_shelf"                                          "Shoreface_to_shelf_transgressive_sequence"       
2614.8 "6507_7-4"  38.8200 "Sandstone" "Mudstone" -999.25    70.0000 30.00000      0.0 "f"     "vf"       "Marine_shelf"                                          "Shoreface_to_shelf_transgressive_sequence"       
2614.9 "6507_7-4"  39.2600 "Sandstone" "Mudstone" -999.25    70.0000 30.00000      0.0 "f"     "vf"       "Marine_shelf"                                          "Shoreface_to_shelf_transgressive_sequence"       
2615.0 "6507_7-4"  40.4300 "Sandstone" "Mudstone" -999.25    70.0000 30.00000      0.0 "f"     "vf"       "Marine_shelf"                                          "Shoreface_to_shelf_transgressive_sequence"       
2615.1 "6507_7-4"  41.8400 "Sandstone" "Mudstone" -999.25    70.0000 30.00000      0.0 "f"     "vf"       "Marine_shelf"                                          "Shoreface_to_shelf_transgressive_sequence"       
2615.2 "6507_7-4"  43.2400 "Sandstone" "Mudstone" -999.25    70.0000 30.00000      0.0 "f"     "vf"       "Marine_shelf"                                          "Shoreface_to_shelf_transgressive_sequence"       
2615.3 "6507_7-4"  44.7200 "Sandstone" "Mudstone" -999.25    70.0000 30.00000      0.0 "f"     "vf"       "Marine_shelf"                                          "Shoreface_to_shelf_transgressive_sequence"       
2615.4 "6507_7-4"  46.6200 "Sandstone" "Mudstone" -999.25    70.0000 30.00000      0.0 "f"     "vf"       "Marine_shelf"                                          "Shoreface_to_shelf_transgressive_sequence"       
2615.5 "6507_7-4"  47.4400 "Sandstone" "Mudstone" -999.25    70.0000 30.00000      0.0 "f"     "vf"       "Marine_shelf"                                          "Shoreface_to_shelf_transgressive_sequence"       
2615.6 "6507_7-4"  47.5900 "Sandstone" "Mudstone" -999.25    70.0000 30.00000      0.0 "f"     "vf"       "Marine_shelf"                                          "Shoreface_to_shelf_transgressive_sequence"       
2615.7 "6507_7-4"  45.9500 "Sandstone" "Mudstone" -999.25    70.0000 30.00000      0.0 "f"     "vf"       "Marine_shelf"                                          "Shoreface_to_shelf_transgressive_sequence"       
2615.8 "6507_7-4"  43.1500 "Sandstone" "Mudstone" -999.25    70.0000 30.00000      0.0 "f"     "vf"       "Marine_shelf"                                          "Shoreface_to_shelf_transgressive_sequence"       
2615.9 "6507_7-4"  39.9500 "Sandstone" "Mudstone" -999.25    70.0000 30.00000      0.0 "f"     "vf"       "Marine_shelf"                                          "Shoreface_to_shelf_transgressive_sequence"       
2616.0 "6507_7-4"  36.7500 "Sandstone" "Mudstone" -999.25    70.0000 30.00000      0.0 "f"     "vf"       "Marine_shelf"                                          "Shoreface_to_shelf_transgressive_sequence"       
2616.1 "6507_7-4"  33.5100 "Sandstone" "Mudstone" -999.25    70.0000 30.00000      0.0 "f"     "vf"       "Marine_shelf"                                          "Shoreface_to_shelf_transgressive_sequence"       
2616.2 "6507_7-4"  31.6100 "Sandstone" "Mudstone" -999.25    70.0000 30.00000      0.0 "f"     "vf"       "Marine_shelf"                                          "Shoreface_to_shelf_transgressive_sequence"       
2616.3 "6507_7-4"  30.6700 "Sandstone" "Mudstone" -999.25    70.0000 30.00000      0.0 "f"     "vf"       "Marine_shelf"                                          "Shoreface_to_shelf_transgressive_sequence"       
2616.4 "6507_7-4"  30.7400 "Sandstone" "Mudstone" -999.25    70.0000 30.00000      0.0 "f"     "vf"       "Marine_shelf"                                          "Shoreface_to_shelf_transgressive_sequence"       
2616.5 "6507_7-4"  31.9200 "Sandstone" "Mudstone" -999.25    70.0000 30.00000      0.0 "f"     "vf"       "Marine_shelf"                                          "Shoreface_to_shelf_transgressive_sequence"       
2616.6 "6507_7-4"  33.9200 "Sandstone" "Mudstone" -999.25    70.0000 30.00000      0.0 "f"     "vf"       "Marine_shelf"                                          "Shoreface_to_shelf_transgressive_sequence"       
2616.7 "6507_7-4"  35.8200 "Sandstone" "Mudstone" -999.25    70.0000 30.00000      0.0 "f"     "vf"       "Marine_shelf"                                          "Shoreface_to_shelf_transgressive_sequence"       
2616.8 "6507_7-4"  36.5200 "Sandstone" "Mudstone" -999.25    70.0000 30.00000      0.0 "f"     "vf"       "Marine_shelf"                                          "Shoreface_to_shelf_transgressive_sequence"       
2616.9 "6507_7-4"  36.8900 "Sandstone" "Mudstone" -999.25    70.0000 30.00000      0.0 "f"     "vf"       "Marine_shelf"                                          "Shoreface_to_shelf_transgressive_sequence"       
2617.0 "6507_7-4"  36.8900 "Sandstone" "Mudstone" -999.25    70.0000 30.00000      0.0 "f"     "vf"       "Marine_shelf"                                          "Shoreface_to_shelf_transgressive_sequence"       
2617.1 "6507_7-4"  35.3200 "Sandstone" "Mudstone" -999.25    70.0000 30.00000      0.0 "f"     "vf"       "Marine_shelf"                                          "Shoreface_to_shelf_transgressive_sequence"       
2617.2 "6507_7-4"  33.7900 "Sandstone" "Mudstone" -999.25    70.0000 30.00000      0.0 "f"     "vf"       "Marine_shelf"                                          "Shoreface_to_shelf_transgressive_sequence"       
2617.3 "6507_7-4"  33.0700 "Sandstone" "Mudstone" -999.25    70.0000 30.00000      0.0 "f"     "vf"       "Marine_shelf"                                          "Shoreface_to_shelf_transgressive_sequence"       
2617.4 "6507_7-4"  32.3500 "Sandstone" "Mudstone" -999.25    70.0000 30.00000      0.0 "f"     "vf"       "Marine_shelf"                                          "Shoreface_to_shelf_transgressive_sequence"       
2617.5 "6507_7-4"  33.4600 "Sandstone" "Mudstone" -999.25    70.0000 30.00000      0.0 "f"     "vf"       "Marine_shelf"                                          "Shoreface_to_shelf_transgressive_sequence"       
2617.6 "6507_7-4"  34.5900 "Sandstone" "Mudstone" -999.25    70.0000 30.00000      0.0 "f"     "vf"       "Marine_shelf"                                          "Shoreface_to_shelf_transgressive_sequence"       
2617.7 "6507_7-4"  35.4500 "Sandstone" "Mudstone" -999.25    70.0000 30.00000      0.0 "f"     "vf"       "Marine_shelf"                                          "Shoreface_to_shelf_transgressive_sequence"       
