~Version
VERS  .                                 3.0 : CWLS LAS ASCII Standard - Version 3.0
WRAP  . NO                                  : One line per depth step
DLM   . SPACE                               : Column data section delimiter
SOURCE. Converted to LAS by Log Studio 4.76 : GeoProvider

~Well
STRT.         1965.5 : Start depth
STOP.         2014.9 : Stop depth
STEP.              1 : Step
NULL.        -999.25 : No-value
COMP.                : Company
WELL. 6507/11-2      : Well
FLD .                : Field
LOC .                : Location
LATI.                : Latitude
LONG.                : Longitude
GDAT.                : Geodetic datum
CNTY.                : County
STAT.                : State
CTRY.                : Country
SRVC. GeoProvider AS : Service company
DATE.                : Date
API .                : API number
RUN .                : Run number

~Parameters
WellboreName.  : Wellbore name
RigName     .  : Rig name
StartDate   .  : Start date

~Curves
DEPTH.m            .  : null {F}Depth mMD
Hole_ID.-          .  : null {S}Hole ID
GR.API             .  : null {F}Gamma Ray
Lithology1.-       .  : null {S}Lithology 1
Lithology2.-       .  : null {S}Lithology 2
Lithology3.-       .  : null {S}Lithology 3
Lithology1.%       .  : null {F}Lithology 1 percentage
Lithology2.%       .  : null {F}Lithology 2 percentage
Lithology3.%       .  : null {F}Lithology 3 percentage
Grain_size_Top.-   .  : null {S}Grain size at the top 
Grain_size_Base.-  .  : null {S}Grain size at the bottom
Sub_Environment.-  .  : null {S}Sub Environment
Gross_Environment.-.  : null {S}Gross Environment

~Ascii
# ...
1995.9 "6507_11-2" 24.71000 "Sandstone" -999.25   -999.25 100.0000      0.0     0.0 "m/c"      "m/c"      "Ovre_strand-skraninig_strand"          "DELTA_FRONT"
1996.0 "6507_11-2" 24.64000 "Sandstone" -999.25   -999.25 100.0000      0.0     0.0 "m/c"      "m/c"      "Ovre_strand-skraninig_strand"          "DELTA_FRONT"
1996.1 "6507_11-2" 24.58000 "Sandstone" -999.25   -999.25 100.0000      0.0     0.0 "m/c"      "m/c"      "Ovre_strand-skraninig_strand"          "DELTA_FRONT"
1996.2 "6507_11-2" 24.53000 "Sandstone" -999.25   -999.25 100.0000      0.0     0.0 "m/c"      "m/c"      "Ovre_strand-skraninig_strand"          "DELTA_FRONT"
1996.3 "6507_11-2" 24.60000 "Sandstone" -999.25   -999.25 100.0000      0.0     0.0 "m/c"      "m/c"      "Ovre_strand-skraninig_strand"          "DELTA_FRONT"
1996.4 "6507_11-2" 24.68000 "Sandstone" -999.25   -999.25 100.0000      0.0     0.0 "m/c"      "m/c"      "Ovre_strand-skraninig_strand"          "DELTA_FRONT"
1996.5 "6507_11-2" 24.76000 "Sandstone" -999.25   -999.25 100.0000      0.0     0.0 "m/c"      "m/c"      "Ovre_strand-skraninig_strand"          "DELTA_FRONT"
1996.6 "6507_11-2" 24.79000 "Sandstone" -999.25   -999.25 100.0000      0.0     0.0 "m/c"      "m/c"      "Ovre_strand-skraninig_strand"          "DELTA_FRONT"
1996.7 "6507_11-2" 24.62000 "Sandstone" -999.25   -999.25 100.0000      0.0     0.0 "m/c"      "m/c"      "Ovre_strand-skraninig_strand"          "DELTA_FRONT"
1996.8 "6507_11-2" 24.45000 "Sandstone" -999.25   -999.25 100.0000      0.0     0.0 "m/c"      "m/c"      "Ovre_strand-skraninig_strand"          "DELTA_FRONT"
1996.9 "6507_11-2" 24.32000 "Sandstone" -999.25   -999.25 100.0000      0.0     0.0 "m/c"      "m/c"      "Ovre_strand-skraninig_strand"          "DELTA_FRONT"
1997.0 "6507_11-2" 24.32000 "Sandstone" -999.25   -999.25 100.0000      0.0     0.0 "m/c"      "m/c"      "Ovre_strand-skraninig_strand"          "DELTA_FRONT"
1997.1 "6507_11-2" 24.40000 "Sandstone" -999.25   -999.25 100.0000      0.0     0.0 "m/c"      "m/c"      "Ovre_strand-skraninig_strand"          "DELTA_FRONT"
1997.2 "6507_11-2" 24.85000 "Sandstone" -999.25   -999.25 100.0000      0.0     0.0 "m/c"      "m/c"      "Ovre_strand-skraninig_strand"          "DELTA_FRONT"
1997.3 "6507_11-2" 25.62000 "Sandstone" -999.25   -999.25 100.0000      0.0     0.0 "m/c"      "m/c"      "Ovre_strand-skraninig_strand"          "DELTA_FRONT"
1997.4 "6507_11-2" 26.24000 "Sandstone" -999.25   -999.25 100.0000      0.0     0.0 "m/c"      "m/c"      "Ovre_strand-skraninig_strand"          "DELTA_FRONT"
1997.5 "6507_11-2" 26.73000 "Sandstone" -999.25   -999.25 100.0000      0.0     0.0 "m/c"      "m/c"      "Ovre_strand-skraninig_strand"          "DELTA_FRONT"
1997.6 "6507_11-2" 27.34000 "Sandstone" -999.25   -999.25 100.0000      0.0     0.0 "m/c"      "m/c"      "Ovre_strand-skraninig_strand"          "DELTA_FRONT"
1997.7 "6507_11-2" 28.43000 "Sandstone" -999.25   -999.25 100.0000      0.0     0.0 "m/c"      "m/c"      "Ovre_strand-skraninig_strand"          "DELTA_FRONT"
1997.8 "6507_11-2" 29.51000 "Sandstone" -999.25   -999.25 100.0000      0.0     0.0 "m/c"      "m/c"      "Ovre_strand-skraninig_strand"          "DELTA_FRONT"
1997.9 "6507_11-2" 30.60000 "Sandstone" -999.25   -999.25 100.0000      0.0     0.0 "m/c"      "m/c"      "Ovre_strand-skraninig_strand"          "DELTA_FRONT"
1998.0 "6507_11-2" 31.79000 "Sandstone" -999.25   -999.25 100.0000      0.0     0.0 "m/c"      "m/c"      "Ovre_strand-skraninig_strand"          "DELTA_FRONT"
1998.1 "6507_11-2" 32.99000 "Sandstone" -999.25   -999.25 100.0000      0.0     0.0 "m/c"      "m/c"      "Ovre_strand-skraninig_strand"          "DELTA_FRONT"
1998.2 "6507_11-2" 34.20000 "Sandstone" -999.25   -999.25 100.0000      0.0     0.0 "m/c"      "m/c"      "Ovre_strand-skraninig_strand"          "DELTA_FRONT"
1998.3 "6507_11-2" 35.40000 "Sandstone" -999.25   -999.25 100.0000      0.0     0.0 "m/c"      "m/c"      "Ovre_strand-skraninig_strand"          "DELTA_FRONT"
1998.4 "6507_11-2" 36.55000 "Sandstone" -999.25   -999.25 100.0000      0.0     0.0 "m/c"      "m/c"      "Ovre_strand-skraninig_strand"          "DELTA_FRONT"
1998.5 "6507_11-2" 37.36000 "Sandstone" -999.25   -999.25 100.0000      0.0     0.0 "m/c"      "m/c"      "Ovre_strand-skraninig_strand"          "DELTA_FRONT"
1998.6 "6507_11-2" 37.82000 "Sandstone" -999.25   -999.25 100.0000      0.0     0.0 "m/c"      "m/c"      "Ovre_strand-skraninig_strand"          "DELTA_FRONT"
1998.7 "6507_11-2" 38.21000 "Sandstone" -999.25   -999.25 100.0000      0.0     0.0 "m/c"      "m/c"      "Ovre_strand-skraninig_strand"          "DELTA_FRONT"
1998.8 "6507_11-2" 38.42000 "Sandstone" -999.25   -999.25 100.0000      0.0     0.0 "m/c"      "m/c"      "Ovre_strand-skraninig_strand"          "DELTA_FRONT"
1998.9 "6507_11-2" 38.61000 "Sandstone" -999.25   -999.25 100.0000      0.0     0.0 "m/c"      "m/c"      "Ovre_strand-skraninig_strand"          "DELTA_FRONT"
1999.0 "6507_11-2" 38.79000 "Sandstone" -999.25   -999.25 100.0000      0.0     0.0 "m/c"      "m/c"      "Ovre_strand-skraninig_strand"          "DELTA_FRONT"
1999.1 "6507_11-2" 39.02000 "Sandstone" -999.25   -999.25 100.0000      0.0     0.0 "m/c"      "m/c"      "Ovre_strand-skraninig_strand"          "DELTA_FRONT"
1999.2 "6507_11-2" 38.91000 "Sandstone" -999.25   -999.25 100.0000      0.0     0.0 "m/c"      "m/c"      "Ovre_strand-skraninig_strand"          "DELTA_FRONT"
1999.3 "6507_11-2" 38.47000 "Sandstone" -999.25   -999.25 100.0000      0.0     0.0 "m/c"      "m/c"      "Ovre_strand-skraninig_strand"          "DELTA_FRONT"
1999.4 "6507_11-2" 37.76000 "Sandstone" -999.25   -999.25 100.0000      0.0     0.0 "m/c"      "m/c"      "Ovre_strand-skraninig_strand"          "DELTA_FRONT"
1999.5 "6507_11-2" 36.91000 "Sandstone" -999.25   -999.25 100.0000      0.0     0.0 "m/c"      "m/c"      "Ovre_strand-skraninig_strand"          "DELTA_FRONT"
1999.6 "6507_11-2" 36.05000 "Sandstone" -999.25   -999.25 100.0000      0.0     0.0 "m/c"      "m/c"      "Ovre_strand-skraninig_strand"          "DELTA_FRONT"
1999.7 "6507_11-2" 35.29000 "Sandstone" -999.25   -999.25 100.0000      0.0     0.0 "m/c"      "m/c"      "Ovre_strand-skraninig_strand"          "DELTA_FRONT"
1999.8 "6507_11-2" 34.64000 "Sandstone" -999.25   -999.25 100.0000      0.0     0.0 "m/c"      "m/c"      "Ovre_strand-skraninig_strand"          "DELTA_FRONT"
1999.9 "6507_11-2" 34.15000 "Sandstone" -999.25   -999.25 100.0000      0.0     0.0 "m/c"      "m/c"      "Ovre_strand-skraninig_strand"          "DELTA_FRONT"
2000.0 "6507_11-2" 33.95000 "Sandstone" -999.25   -999.25 100.0000      0.0     0.0 "m/c"      "m/c"      "Ovre_strand-skraninig_strand"          "DELTA_FRONT"
2000.1 "6507_11-2" 33.75000 -999.25   -999.25   -999.25  -999.25  -999.25 -999.25 -999.25    -999.25    -999.25                                 "DELTA_FRONT"
2000.2 "6507_11-2" 33.55000 -999.25   -999.25   -999.25  -999.25  -999.25 -999.25 -999.25    -999.25    -999.25                                 "DELTA_FRONT"
2000.3 "6507_11-2" 33.41000 -999.25   -999.25   -999.25  -999.25  -999.25 -999.25 -999.25    -999.25    -999.25                                 "DELTA_FRONT"
2000.4 "6507_11-2" 33.26000 -999.25   -999.25   -999.25  -999.25  -999.25 -999.25 -999.25    -999.25    -999.25                                 "DELTA_FRONT"
2000.5 "6507_11-2" 33.12000 -999.25   -999.25   -999.25  -999.25  -999.25 -999.25 -999.25    -999.25    -999.25                                 "DELTA_FRONT"
2000.6 "6507_11-2" 32.18000 -999.25   -999.25   -999.25  -999.25  -999.25 -999.25 -999.25    -999.25    -999.25                                 "DELTA_FRONT"
2000.7 "6507_11-2" 30.28000 -999.25   -999.25   -999.25  -999.25  -999.25 -999.25 -999.25    -999.25    -999.25                                 "DELTA_FRONT"
2000.8 "6507_11-2" 29.52000 -999.25   -999.25   -999.25  -999.25  -999.25 -999.25 -999.25    -999.25    -999.25                                 "DELTA_FRONT"
2000.9 "6507_11-2" 29.83000 -999.25   -999.25   -999.25  -999.25  -999.25 -999.25 -999.25    -999.25    -999.25                                 "DELTA_FRONT"
