~Version
VERS  .                                 3.0 : CWLS LAS ASCII Standard - Version 3.0
WRAP  . NO                                  : One line per depth step
DLM   . SPACE                               : Column data section delimiter
SOURCE. Converted to LAS by Log Studio 4.76 : GeoProvider

~Well
STRT.         1965.5 : Start depth
STOP.         2014.9 : Stop depth
STEP.              1 : Step
NULL.        -999.25 : No-value
COMP.                : Company
WELL. 6507/11-2      : Well
FLD .                : Field
LOC .                : Location
LATI.                : Latitude
LONG.                : Longitude
GDAT.                : Geodetic datum
CNTY.                : County
STAT.                : State
CTRY.                : Country
SRVC. GeoProvider AS : Service company
DATE.                : Date
API .                : API number
RUN .                : Run number

~Parameters
WellboreName.  : Wellbore name
RigName     .  : Rig name
StartDate   .  : Start date

~Curves
DEPTH.m            .  : null {F}Depth mMD
Hole_ID.-          .  : null {S}Hole ID
GR.API             .  : null {F}Gamma Ray
Lithology1.-       .  : null {S}Lithology 1
Lithology2.-       .  : null {S}Lithology 2
Lithology3.-       .  : null {S}Lithology 3
Lithology1.%       .  : null {F}Lithology 1 percentage
Lithology2.%       .  : null {F}Lithology 2 percentage
Lithology3.%       .  : null {F}Lithology 3 percentage
Grain_size_Top.-   .  : null {S}Grain size at the top 
Grain_size_Base.-  .  : null {S}Grain size at the bottom
Sub_Environment.-  .  : null {S}Sub Environment
Gross_Environment.-.  : null {S}Gross Environment

~Ascii
# ...
2001.0 "6507_11-2" 30.32000 -999.25   -999.25   -999.25  -999.25  -999.25 -999.25 -999.25    -999.25    -999.25                                 "DELTA_FRONT"
2001.1 "6507_11-2" 31.57000 -999.25   -999.25   -999.25  -999.25  -999.25 -999.25 -999.25    -999.25    -999.25                                 "DELTA_FRONT"
2001.2 "6507_11-2" 32.82000 -999.25   -999.25   -999.25  -999.25  -999.25 -999.25 -999.25    -999.25    -999.25                                 "DELTA_FRONT"
2001.3 "6507_11-2" 33.94000 -999.25   -999.25   -999.25  -999.25  -999.25 -999.25 -999.25    -999.25    -999.25                                 "DELTA_FRONT"
2001.4 "6507_11-2" 34.12000 -999.25   -999.25   -999.25  -999.25  -999.25 -999.25 -999.25    -999.25    -999.25                                 "DELTA_FRONT"
2001.5 "6507_11-2" 34.07000 -999.25   -999.25   -999.25  -999.25  -999.25 -999.25 -999.25    -999.25    -999.25                                 "DELTA_FRONT"
2001.6 "6507_11-2" 33.57000 -999.25   -999.25   -999.25  -999.25  -999.25 -999.25 -999.25    -999.25    -999.25                                 "DELTA_FRONT"
2001.7 "6507_11-2" 33.03000 -999.25   -999.25   -999.25  -999.25  -999.25 -999.25 -999.25    -999.25    -999.25                                 "DELTA_FRONT"
2001.8 "6507_11-2" 32.87000 -999.25   -999.25   -999.25  -999.25  -999.25 -999.25 -999.25    -999.25    -999.25                                 "DELTA_FRONT"
2001.9 "6507_11-2" 32.91000 -999.25   -999.25   -999.25  -999.25  -999.25 -999.25 -999.25    -999.25    -999.25                                 "DELTA_FRONT"
2002.0 "6507_11-2" 33.19000 -999.25   -999.25   -999.25  -999.25  -999.25 -999.25 -999.25    -999.25    -999.25                                 "DELTA_FRONT"
2002.1 "6507_11-2" 33.64000 -999.25   -999.25   -999.25  -999.25  -999.25 -999.25 -999.25    -999.25    -999.25                                 "DELTA_FRONT"
2002.2 "6507_11-2" 33.59000 -999.25   -999.25   -999.25  -999.25  -999.25 -999.25 -999.25    -999.25    -999.25                                 "DELTA_FRONT"
2002.3 "6507_11-2" 33.05000 -999.25   -999.25   -999.25  -999.25  -999.25 -999.25 -999.25    -999.25    -999.25                                 "DELTA_FRONT"
2002.4 "6507_11-2" 32.22000 -999.25   -999.25   -999.25  -999.25  -999.25 -999.25 -999.25    -999.25    -999.25                                 "DELTA_FRONT"
2002.5 "6507_11-2" 32.00000 -999.25   -999.25   -999.25  -999.25  -999.25 -999.25 -999.25    -999.25    -999.25                                 "DELTA_FRONT"
2002.6 "6507_11-2" 32.19000 -999.25   -999.25   -999.25  -999.25  -999.25 -999.25 -999.25    -999.25    -999.25                                 "DELTA_FRONT"
2002.7 "6507_11-2" 32.54000 -999.25   -999.25   -999.25  -999.25  -999.25 -999.25 -999.25    -999.25    -999.25                                 "DELTA_FRONT"
2002.8 "6507_11-2" 33.27000 -999.25   -999.25   -999.25  -999.25  -999.25 -999.25 -999.25    -999.25    -999.25                                 "DELTA_FRONT"
2002.9 "6507_11-2" 33.94000 -999.25   -999.25   -999.25  -999.25  -999.25 -999.25 -999.25    -999.25    -999.25                                 "DELTA_FRONT"
2003.0 "6507_11-2" 33.96000 "Sandstone" -999.25   -999.25 100.0000      0.0     0.0 "c/vc"     "c/vc"     "Ovre_-_nedre_strandskraning"           "DELTA_FRONT"
2003.1 "6507_11-2" 33.22000 "Sandstone" -999.25   -999.25 100.0000      0.0     0.0 "c/vc"     "c/vc"     "Ovre_-_nedre_strandskraning"           "DELTA_FRONT"
2003.2 "6507_11-2" 32.16000 "Sandstone" -999.25   -999.25 100.0000      0.0     0.0 "c/vc"     "c/vc"     "Ovre_-_nedre_strandskraning"           "DELTA_FRONT"
2003.3 "6507_11-2" 31.39000 "Sandstone" -999.25   -999.25 100.0000      0.0     0.0 "c/vc"     "c/vc"     "Ovre_-_nedre_strandskraning"           "DELTA_FRONT"
2003.4 "6507_11-2" 31.21000 "Sandstone" -999.25   -999.25 100.0000      0.0     0.0 "c/vc"     "c/vc"     "Ovre_-_nedre_strandskraning"           "DELTA_FRONT"
2003.5 "6507_11-2" 31.40000 "Sandstone" -999.25   -999.25 100.0000      0.0     0.0 "c/vc"     "c/vc"     "Ovre_-_nedre_strandskraning"           "DELTA_FRONT"
2003.6 "6507_11-2" 31.59000 "Sandstone" -999.25   -999.25 100.0000      0.0     0.0 "c/vc"     "c/vc"     "Ovre_-_nedre_strandskraning"           "DELTA_FRONT"
2003.7 "6507_11-2" 31.77000 "Sandstone" -999.25   -999.25 100.0000      0.0     0.0 "c/vc"     "c/vc"     "Ovre_-_nedre_strandskraning"           "DELTA_FRONT"
2003.8 "6507_11-2" 31.70000 "Sandstone" -999.25   -999.25 100.0000      0.0     0.0 "c/vc"     "c/vc"     "Ovre_-_nedre_strandskraning"           "DELTA_FRONT"
2003.9 "6507_11-2" 31.52000 "Sandstone" -999.25   -999.25 100.0000      0.0     0.0 "c/vc"     "c/vc"     "Ovre_-_nedre_strandskraning"           "DELTA_FRONT"
2004.0 "6507_11-2" 31.14000 "Sandstone" -999.25   -999.25 100.0000      0.0     0.0 "c/vc"     "c/vc"     "Ovre_-_nedre_strandskraning"           "DELTA_FRONT"
2004.1 "6507_11-2" 29.93000 "Sandstone" -999.25   -999.25 100.0000      0.0     0.0 "c/vc"     "c/vc"     "Ovre_-_nedre_strandskraning"           "DELTA_FRONT"
2004.2 "6507_11-2" 28.48000 "Sandstone" -999.25   -999.25 100.0000      0.0     0.0 "c/vc"     "c/vc"     "Ovre_-_nedre_strandskraning"           "DELTA_FRONT"
2004.3 "6507_11-2" 27.44000 "Sandstone" -999.25   -999.25 100.0000      0.0     0.0 "c/vc"     "c/vc"     "Ovre_-_nedre_strandskraning"           "DELTA_FRONT"
2004.4 "6507_11-2" 27.28000 "Sandstone" -999.25   -999.25 100.0000      0.0     0.0 "c/vc"     "c/vc"     "Ovre_-_nedre_strandskraning"           "DELTA_FRONT"
2004.5 "6507_11-2" 27.13000 "Sandstone" -999.25   -999.25 100.0000      0.0     0.0 "c/vc"     "c/vc"     "Ovre_-_nedre_strandskraning"           "DELTA_FRONT"
2004.6 "6507_11-2" 26.98000 "Sandstone" -999.25   -999.25 100.0000      0.0     0.0 "c/vc"     "c/vc"     "Ovre_-_nedre_strandskraning"           "DELTA_FRONT"
2004.7 "6507_11-2" 26.66000 "Sandstone" -999.25   -999.25 100.0000      0.0     0.0 "c/vc"     "c/vc"     "Ovre_-_nedre_strandskraning"           "DELTA_FRONT"
2004.8 "6507_11-2" 26.19000 "Sandstone" -999.25   -999.25 100.0000      0.0     0.0 "c/vc"     "c/vc"     "Ovre_-_nedre_strandskraning"           "DELTA_FRONT"
2004.9 "6507_11-2" 25.66000 "Sandstone" -999.25   -999.25 100.0000      0.0     0.0 "c/vc"     "c/vc"     "Ovre_-_nedre_strandskraning"           "DELTA_FRONT"
2005.0 "6507_11-2" 25.87000 "Sandstone" -999.25   -999.25 100.0000      0.0     0.0 "c/vc"     "c/vc"     "Ovre_-_nedre_strandskraning"           "DELTA_FRONT"
2005.1 "6507_11-2" 26.07000 "Sandstone" -999.25   -999.25 100.0000      0.0     0.0 "c/vc"     "c/vc"     "Ovre_-_nedre_strandskraning"           "DELTA_FRONT"
2005.2 "6507_11-2" 26.27000 "Sandstone" -999.25   -999.25 100.0000      0.0     0.0 "c/vc"     "c/vc"     "Ovre_-_nedre_strandskraning"           "DELTA_FRONT"
2005.3 "6507_11-2" 26.39000 "Sandstone" -999.25   -999.25 100.0000      0.0     0.0 "c/vc"     "c/vc"     "Ovre_-_nedre_strandskraning"           "DELTA_FRONT"
2005.4 "6507_11-2" 26.49000 "Sandstone" -999.25   -999.25 100.0000      0.0     0.0 "c/vc"     "c/vc"     "Ovre_-_nedre_strandskraning"           "DELTA_FRONT"
2005.5 "6507_11-2" 26.55000 "Sandstone" -999.25   -999.25 100.0000      0.0     0.0 "c/vc"     "c/vc"     "Ovre_-_nedre_strandskraning"           "DELTA_FRONT"
2005.6 "6507_11-2" 26.51000 "Sandstone" -999.25   -999.25 100.0000      0.0     0.0 "c/vc"     "c/vc"     "Ovre_-_nedre_strandskraning"           "DELTA_FRONT"
2005.7 "6507_11-2" 26.46000 "Sandstone" -999.25   -999.25 100.0000      0.0     0.0 "c/vc"     "c/vc"     "Ovre_-_nedre_strandskraning"           "DELTA_FRONT"
2005.8 "6507_11-2" 26.42000 "Sandstone" -999.25   -999.25 100.0000      0.0     0.0 "c/vc"     "c/vc"     "Ovre_-_nedre_strandskraning"           "DELTA_FRONT"
2005.9 "6507_11-2" 26.69000 "Sandstone" -999.25   -999.25 100.0000      0.0     0.0 "c/vc"     "c/vc"     "Ovre_-_nedre_strandskraning"           "DELTA_FRONT"
2006.0 "6507_11-2" 27.11000 "Sandstone" -999.25   -999.25 100.0000      0.0     0.0 "c/vc"     "c/vc"     "Ovre_-_nedre_strandskraning"           "DELTA_FRONT"
