~Version
VERS  .                                 3.0 : CWLS LAS ASCII Standard - Version 3.0
WRAP  . NO                                  : One line per depth step
DLM   . SPACE                               : Column data section delimiter
SOURCE. Converted to LAS by Log Studio 4.76 : GeoProvider

~Well
STRT.         1965.5 : Start depth
STOP.         2014.9 : Stop depth
STEP.              1 : Step
NULL.        -999.25 : No-value
COMP.                : Company
WELL. 6507/11-2      : Well
FLD .                : Field
LOC .                : Location
LATI.                : Latitude
LONG.                : Longitude
GDAT.                : Geodetic datum
CNTY.                : County
STAT.                : State
CTRY.                : Country
SRVC. GeoProvider AS : Service company
DATE.                : Date
API .                : API number
RUN .                : Run number

~Parameters
WellboreName.  : Wellbore name
RigName     .  : Rig name
StartDate   .  : Start date

~Curves
DEPTH.m            .  : null {F}Depth mMD
Hole_ID.-          .  : null {S}Hole ID
GR.API             .  : null {F}Gamma Ray
Lithology1.-       .  : null {S}Lithology 1
Lithology2.-       .  : null {S}Lithology 2
Lithology3.-       .  : null {S}Lithology 3
Lithology1.%       .  : null {F}Lithology 1 percentage
Lithology2.%       .  : null {F}Lithology 2 percentage
Lithology3.%       .  : null {F}Lithology 3 percentage
Grain_size_Top.-   .  : null {S}Grain size at the top 
Grain_size_Base.-  .  : null {S}Grain size at the bottom
Sub_Environment.-  .  : null {S}Sub Environment
Gross_Environment.-.  : null {S}Gross Environment

~Ascii
# ...
2011.1 "6507_11-2" 28.60000 "Sandstone" -999.25   -999.25 100.0000      0.0     0.0 "c/vc"     "c/vc"     "Ovre_-_nedre_strandskraning"           "DELTA_FRONT"
2011.2 "6507_11-2" 29.06000 "Sandstone" -999.25   -999.25 100.0000      0.0     0.0 "c/vc"     "c/vc"     "Ovre_-_nedre_strandskraning"           "DELTA_FRONT"
2011.3 "6507_11-2" 29.60000 "Sandstone" -999.25   -999.25 100.0000      0.0     0.0 "c/vc"     "c/vc"     "Ovre_-_nedre_strandskraning"           "DELTA_FRONT"
2011.4 "6507_11-2" 30.12000 "Sandstone" -999.25   -999.25 100.0000      0.0     0.0 "c/vc"     "c/vc"     "Ovre_-_nedre_strandskraning"           "DELTA_FRONT"
2011.5 "6507_11-2" 30.57000 "Sandstone" -999.25   -999.25 100.0000      0.0     0.0 "c/vc"     "c/vc"     "Ovre_-_nedre_strandskraning"           "DELTA_FRONT"
2011.6 "6507_11-2" 30.77000 "Sandstone" -999.25   -999.25 100.0000      0.0     0.0 "c/vc"     "c/vc"     "Ovre_-_nedre_strandskraning"           "DELTA_FRONT"
2011.7 "6507_11-2" 30.80000 "Sandstone" -999.25   -999.25 100.0000      0.0     0.0 "c/vc"     "c/vc"     "Ovre_-_nedre_strandskraning"           "DELTA_FRONT"
2011.8 "6507_11-2" 30.61000 "Sandstone" -999.25   -999.25 100.0000      0.0     0.0 "c/vc"     "c/vc"     "Ovre_-_nedre_strandskraning"           "DELTA_FRONT"
2011.9 "6507_11-2" 30.39000 "Sandstone" -999.25   -999.25 100.0000      0.0     0.0 "c/vc"     "c/vc"     "Ovre_-_nedre_strandskraning"           "DELTA_FRONT"
2012.0 "6507_11-2" 30.16000 "Sandstone" -999.25   -999.25 100.0000      0.0     0.0 "c/vc"     "c/vc"     "Ovre_-_nedre_strandskraning"           "DELTA_FRONT"
2012.1 "6507_11-2" 29.94000 "Sandstone" -999.25   -999.25 100.0000      0.0     0.0 "c/vc"     "c/vc"     "Ovre_-_nedre_strandskraning"           "DELTA_FRONT"
2012.2 "6507_11-2" 29.72000 "Sandstone" -999.25   -999.25 100.0000      0.0     0.0 "c/vc"     "c/vc"     "Ovre_-_nedre_strandskraning"           "DELTA_FRONT"
2012.3 "6507_11-2" 29.68000 "Sandstone" -999.25   -999.25 100.0000      0.0     0.0 "c/vc"     "c/vc"     "Ovre_-_nedre_strandskraning"           "DELTA_FRONT"
2012.4 "6507_11-2" 29.72000 "Sandstone" -999.25   -999.25 100.0000      0.0     0.0 "c/vc"     "c/vc"     "Ovre_-_nedre_strandskraning"           "DELTA_FRONT"
2012.5 "6507_11-2" 29.87000 "Sandstone" -999.25   -999.25 100.0000      0.0     0.0 "c/vc"     "c/vc"     "Ovre_-_nedre_strandskraning"           "DELTA_FRONT"
2012.6 "6507_11-2" 30.02000 "Sandstone" -999.25   -999.25 100.0000      0.0     0.0 "c/vc"     "c/vc"     "Ovre_-_nedre_strandskraning"           "DELTA_FRONT"
2012.7 "6507_11-2" 30.21000 "Sandstone" -999.25   -999.25 100.0000      0.0     0.0 "c/vc"     "c/vc"     "Ovre_-_nedre_strandskraning"           "DELTA_FRONT"
2012.8 "6507_11-2" 30.46000 "Sandstone" -999.25   -999.25 100.0000      0.0     0.0 "c/vc"     "c/vc"     "Ovre_-_nedre_strandskraning"           "DELTA_FRONT"
2012.9 "6507_11-2" 30.70000 "Sandstone" -999.25   -999.25 100.0000      0.0     0.0 "c/vc"     "c/vc"     "Ovre_-_nedre_strandskraning"           "DELTA_FRONT"
2013.0 "6507_11-2" 30.82000 "Sandstone" -999.25   -999.25 100.0000      0.0     0.0 "c/vc"     "c/vc"     "Ovre_-_nedre_strandskraning"           "DELTA_FRONT"
2013.1 "6507_11-2" 30.83000 "Sandstone" -999.25   -999.25 100.0000      0.0     0.0 "c/vc"     "c/vc"     "Ovre_-_nedre_strandskraning"           "DELTA_FRONT"
2013.2 "6507_11-2" 30.85000 "Sandstone" -999.25   -999.25 100.0000      0.0     0.0 "c/vc"     "c/vc"     "Ovre_-_nedre_strandskraning"           "DELTA_FRONT"
2013.3 "6507_11-2" 30.77000 "Sandstone" -999.25   -999.25 100.0000      0.0     0.0 "c/vc"     "c/vc"     "Ovre_-_nedre_strandskraning"           "DELTA_FRONT"
2013.4 "6507_11-2" 30.64000 "Sandstone" -999.25   -999.25 100.0000      0.0     0.0 "c/vc"     "c/vc"     "Ovre_-_nedre_strandskraning"           "DELTA_FRONT"
2013.5 "6507_11-2" 30.36000 "Sandstone" -999.25   -999.25 100.0000      0.0     0.0 "c/vc"     "c/vc"     "Ovre_-_nedre_strandskraning"           "DELTA_FRONT"
2013.6 "6507_11-2" 30.01000 "Sandstone" -999.25   -999.25 100.0000      0.0     0.0 "c/vc"     "c/vc"     "Ovre_-_nedre_strandskraning"           "DELTA_FRONT"
2013.7 "6507_11-2" 29.66000 "Sandstone" -999.25   -999.25 100.0000      0.0     0.0 "c/vc"     "c/vc"     "Ovre_-_nedre_strandskraning"           "DELTA_FRONT"
2013.8 "6507_11-2" 29.32000 "Sandstone" -999.25   -999.25 100.0000      0.0     0.0 "c/vc"     "c/vc"     "Ovre_-_nedre_strandskraning"           "DELTA_FRONT"
2013.9 "6507_11-2"  -999.25 "Sandstone" -999.25   -999.25 100.0000      0.0     0.0 "c/vc"     "c/vc"     "Ovre_-_nedre_strandskraning"           "DELTA_FRONT"
2014.0 "6507_11-2"  -999.25 "Sandstone" -999.25   -999.25 100.0000      0.0     0.0 "c/vc"     "c/vc"     "Ovre_-_nedre_strandskraning"           "DELTA_FRONT"
2014.1 "6507_11-2"  -999.25 "Sandstone" -999.25   -999.25 100.0000      0.0     0.0 "c/vc"     "c/vc"     "Ovre_-_nedre_strandskraning"           "DELTA_FRONT"
2014.2 "6507_11-2"  -999.25 "Sandstone" -999.25   -999.25 100.0000      0.0     0.0 "c/vc"     "c/vc"     "Ovre_-_nedre_strandskraning"           "DELTA_FRONT"
2014.3 "6507_11-2"  -999.25 "Sandstone" -999.25   -999.25 100.0000      0.0     0.0 "c/vc"     "c/vc"     "Ovre_-_nedre_strandskraning"           "DELTA_FRONT"
2014.4 "6507_11-2"  -999.25 "Sandstone" -999.25   -999.25 100.0000      0.0     0.0 "c/vc"     "c/vc"     "Ovre_-_nedre_strandskraning"           "DELTA_FRONT"
2014.5 "6507_11-2"  -999.25 "Sandstone" -999.25   -999.25 100.0000      0.0     0.0 "c/vc"     "c/vc"     "Ovre_-_nedre_strandskraning"           "DELTA_FRONT"
2014.6 "6507_11-2"  -999.25 "Sandstone" -999.25   -999.25 100.0000      0.0     0.0 "c/vc"     "c/vc"     "Ovre_-_nedre_strandskraning"           "DELTA_FRONT"
2014.7 "6507_11-2"  -999.25 "Sandstone" -999.25   -999.25 100.0000      0.0     0.0 "c/vc"     "c/vc"     "Ovre_-_nedre_strandskraning"           "DELTA_FRONT"
2014.8 "6507_11-2"  -999.25 "Sandstone" -999.25   -999.25 100.0000      0.0     0.0 "c/vc"     "c/vc"     "Ovre_-_nedre_strandskraning"           "DELTA_FRONT"
2014.9 "6507_11-2"  -999.25 "Sandstone" -999.25   -999.25 100.0000      0.0     0.0 "c/vc"     "c/vc"     "Ovre_-_nedre_strandskraning"           "DELTA_FRONT"
