~Version
VERS  .                                 3.0 : CWLS LAS ASCII Standard - Version 3.0
WRAP  . NO                                  : One line per depth step
DLM   . SPACE                               : Column data section delimiter
SOURCE. Converted to LAS by Log Studio 4.76 : GeoProvider

~Well
STRT.         1965.5 : Start depth
STOP.         2014.9 : Stop depth
STEP.              1 : Step
NULL.        -999.25 : No-value
COMP.                : Company
WELL. 6507/11-2      : Well
FLD .                : Field
LOC .                : Location
LATI.                : Latitude
LONG.                : Longitude
GDAT.                : Geodetic datum
CNTY.                : County
STAT.                : State
CTRY.                : Country
SRVC. GeoProvider AS : Service company
DATE.                : Date
API .                : API number
RUN .                : Run number

~Parameters
WellboreName.  : Wellbore name
RigName     .  : Rig name
StartDate   .  : Start date

~Curves
DEPTH.m            .  : null {F}Depth mMD
Hole_ID.-          .  : null {S}Hole ID
GR.API             .  : null {F}Gamma Ray
Lithology1.-       .  : null {S}Lithology 1
Lithology2.-       .  : null {S}Lithology 2
Lithology3.-       .  : null {S}Lithology 3
Lithology1.%       .  : null {F}Lithology 1 percentage
Lithology2.%       .  : null {F}Lithology 2 percentage
Lithology3.%       .  : null {F}Lithology 3 percentage
Grain_size_Top.-   .  : null {S}Grain size at the top 
Grain_size_Base.-  .  : null {S}Grain size at the bottom
Sub_Environment.-  .  : null {S}Sub Environment
Gross_Environment.-.  : null {S}Gross Environment

~Ascii
1965.5 "6507_11-2" 13.86000 "Sandstone" "Limestone" -999.25  90.0000 10.00000     0.0 "m/c"      "m/c"      "Hovedsaklig_strand/ovre_strand-skraning" "DELTA_FRONT"
1965.6 "6507_11-2" 14.33000 "Sandstone" "Limestone" -999.25  90.0000 10.00000     0.0 "m/c"      "m/c"      "Hovedsaklig_strand/ovre_strand-skraning" "DELTA_FRONT"
1965.7 "6507_11-2" 14.73000 "Sandstone" "Limestone" -999.25  90.0000 10.00000     0.0 "m/c"      "m/c"      "Hovedsaklig_strand/ovre_strand-skraning" "DELTA_FRONT"
1965.8 "6507_11-2" 15.11000 "Sandstone" "Limestone" -999.25  90.0000 10.00000     0.0 "m/c"      "m/c"      "Hovedsaklig_strand/ovre_strand-skraning" "DELTA_FRONT"
1965.9 "6507_11-2" 15.20000 "Sandstone" "Limestone" -999.25  90.0000 10.00000     0.0 "m/c"      "m/c"      "Hovedsaklig_strand/ovre_strand-skraning" "DELTA_FRONT"
1966.0 "6507_11-2" 15.27000 "Sandstone" "Limestone" -999.25  90.0000 10.00000     0.0 "m/c"      "m/c"      "Hovedsaklig_strand/ovre_strand-skraning" "DELTA_FRONT"
1966.1 "6507_11-2" 15.28000 "Sandstone" "Limestone" -999.25  90.0000 10.00000     0.0 "m/c"      "m/c"      "Hovedsaklig_strand/ovre_strand-skraning" "DELTA_FRONT"
1966.2 "6507_11-2" 15.15000 "Sandstone" "Limestone" -999.25  90.0000 10.00000     0.0 "m/c"      "m/c"      "Hovedsaklig_strand/ovre_strand-skraning" "DELTA_FRONT"
1966.3 "6507_11-2" 14.93000 "Sandstone" "Limestone" -999.25  90.0000 10.00000     0.0 "m/c"      "m/c"      "Hovedsaklig_strand/ovre_strand-skraning" "DELTA_FRONT"
1966.4 "6507_11-2" 14.69000 "Sandstone" "Limestone" -999.25  90.0000 10.00000     0.0 "m/c"      "m/c"      "Hovedsaklig_strand/ovre_strand-skraning" "DELTA_FRONT"
1966.5 "6507_11-2" 14.44000 "Sandstone" "Limestone" -999.25  90.0000 10.00000     0.0 "m/c"      "m/c"      "Hovedsaklig_strand/ovre_strand-skraning" "DELTA_FRONT"
1966.6 "6507_11-2" 14.32000 "Sandstone" "Limestone" -999.25  90.0000 10.00000     0.0 "m/c"      "m/c"      "Hovedsaklig_strand/ovre_strand-skraning" "DELTA_FRONT"
1966.7 "6507_11-2" 14.35000 "Sandstone" "Limestone" -999.25  90.0000 10.00000     0.0 "m/c"      "m/c"      "Hovedsaklig_strand/ovre_strand-skraning" "DELTA_FRONT"
1966.8 "6507_11-2" 14.49000 "Sandstone" "Limestone" -999.25  90.0000 10.00000     0.0 "m/c"      "m/c"      "Hovedsaklig_strand/ovre_strand-skraning" "DELTA_FRONT"
1966.9 "6507_11-2" 14.68000 "Sandstone" "Limestone" -999.25  90.0000 10.00000     0.0 "m/c"      "m/c"      "Hovedsaklig_strand/ovre_strand-skraning" "DELTA_FRONT"
1967.0 "6507_11-2" 14.87000 "Sandstone" "Limestone" -999.25  90.0000 10.00000     0.0 "m/c"      "m/c"      "Hovedsaklig_strand/ovre_strand-skraning" "DELTA_FRONT"
1967.1 "6507_11-2" 15.06000 "Sandstone" "Limestone" -999.25  90.0000 10.00000     0.0 "m/c"      "m/c"      "Hovedsaklig_strand/ovre_strand-skraning" "DELTA_FRONT"
1967.2 "6507_11-2" 15.20000 "Sandstone" "Limestone" -999.25  90.0000 10.00000     0.0 "m/c"      "m/c"      "Hovedsaklig_strand/ovre_strand-skraning" "DELTA_FRONT"
1967.3 "6507_11-2" 15.26000 "Sandstone" "Limestone" -999.25  90.0000 10.00000     0.0 "m/c"      "m/c"      "Hovedsaklig_strand/ovre_strand-skraning" "DELTA_FRONT"
1967.4 "6507_11-2" 15.32000 "Sandstone" "Limestone" -999.25  90.0000 10.00000     0.0 "m/c"      "m/c"      "Hovedsaklig_strand/ovre_strand-skraning" "DELTA_FRONT"
1967.5 "6507_11-2" 15.38000 "Sandstone" "Limestone" -999.25  90.0000 10.00000     0.0 "m/c"      "m/c"      "Hovedsaklig_strand/ovre_strand-skraning" "DELTA_FRONT"
1967.6 "6507_11-2" 15.42000 "Sandstone" "Limestone" -999.25  90.0000 10.00000     0.0 "m/c"      "m/c"      "Hovedsaklig_strand/ovre_strand-skraning" "DELTA_FRONT"
1967.7 "6507_11-2" 15.30000 "Sandstone" "Limestone" -999.25  90.0000 10.00000     0.0 "m/c"      "m/c"      "Hovedsaklig_strand/ovre_strand-skraning" "DELTA_FRONT"
1967.8 "6507_11-2" 15.11000 "Sandstone" "Limestone" -999.25  90.0000 10.00000     0.0 "m/c"      "m/c"      "Hovedsaklig_strand/ovre_strand-skraning" "DELTA_FRONT"
1967.9 "6507_11-2" 14.92000 "Sandstone" "Limestone" -999.25  90.0000 10.00000     0.0 "m/c"      "m/c"      "Hovedsaklig_strand/ovre_strand-skraning" "DELTA_FRONT"
1968.0 "6507_11-2" 14.81000 "Sandstone" "Limestone" -999.25  90.0000 10.00000     0.0 "m/c"      "m/c"      "Hovedsaklig_strand/ovre_strand-skraning" "DELTA_FRONT"
1968.1 "6507_11-2" 15.04000 "Sandstone" "Limestone" -999.25  90.0000 10.00000     0.0 "m/c"      "m/c"      "Hovedsaklig_strand/ovre_strand-skraning" "DELTA_FRONT"
1968.2 "6507_11-2" 15.20000 "Sandstone" "Limestone" -999.25  90.0000 10.00000     0.0 "m/c"      "m/c"      "Hovedsaklig_strand/ovre_strand-skraning" "DELTA_FRONT"
1968.3 "6507_11-2" 15.32000 "Sandstone" "Limestone" -999.25  90.0000 10.00000     0.0 "m/c"      "m/c"      "Hovedsaklig_strand/ovre_strand-skraning" "DELTA_FRONT"
1968.4 "6507_11-2" 15.15000 "Sandstone" "Limestone" -999.25  90.0000 10.00000     0.0 "m/c"      "m/c"      "Hovedsaklig_strand/ovre_strand-skraning" "DELTA_FRONT"
1968.5 "6507_11-2" 14.96000 "Sandstone" "Limestone" -999.25  90.0000 10.00000     0.0 "m/c"      "m/c"      "Hovedsaklig_strand/ovre_strand-skraning" "DELTA_FRONT"
1968.6 "6507_11-2" 14.68000 "Sandstone" "Limestone" -999.25  90.0000 10.00000     0.0 "m/c"      "m/c"      "Hovedsaklig_strand/ovre_strand-skraning" "DELTA_FRONT"
1968.7 "6507_11-2" 14.39000 "Sandstone" "Limestone" -999.25  90.0000 10.00000     0.0 "m/c"      "m/c"      "Hovedsaklig_strand/ovre_strand-skraning" "DELTA_FRONT"
1968.8 "6507_11-2" 14.30000 "Sandstone" "Limestone" -999.25  90.0000 10.00000     0.0 "m/c"      "m/c"      "Hovedsaklig_strand/ovre_strand-skraning" "DELTA_FRONT"
1968.9 "6507_11-2" 14.53000 "Sandstone" "Limestone" -999.25  90.0000 10.00000     0.0 "m/c"      "m/c"      "Hovedsaklig_strand/ovre_strand-skraning" "DELTA_FRONT"
1969.0 "6507_11-2" 15.13000 "Sandstone" "Limestone" -999.25  90.0000 10.00000     0.0 "m/c"      "m/c"      "Hovedsaklig_strand/ovre_strand-skraning" "DELTA_FRONT"
1969.1 "6507_11-2" 15.53000 "Sandstone" "Limestone" -999.25  90.0000 10.00000     0.0 "m/c"      "m/c"      "Hovedsaklig_strand/ovre_strand-skraning" "DELTA_FRONT"
1969.2 "6507_11-2" 15.53000 "Sandstone" "Limestone" -999.25  90.0000 10.00000     0.0 "m/c"      "m/c"      "Hovedsaklig_strand/ovre_strand-skraning" "DELTA_FRONT"
1969.3 "6507_11-2" 15.53000 "Sandstone" "Limestone" -999.25  90.0000 10.00000     0.0 "m/c"      "m/c"      "Hovedsaklig_strand/ovre_strand-skraning" "DELTA_FRONT"
1969.4 "6507_11-2" 15.40000 "Sandstone" "Limestone" -999.25  90.0000 10.00000     0.0 "m/c"      "m/c"      "Hovedsaklig_strand/ovre_strand-skraning" "DELTA_FRONT"
1969.5 "6507_11-2" 15.20000 "Sandstone" "Limestone" -999.25  90.0000 10.00000     0.0 "m/c"      "m/c"      "Hovedsaklig_strand/ovre_strand-skraning" "DELTA_FRONT"
1969.6 "6507_11-2" 14.88000 "Sandstone" "Limestone" -999.25  90.0000 10.00000     0.0 "m/c"      "m/c"      "Hovedsaklig_strand/ovre_strand-skraning" "DELTA_FRONT"
1969.7 "6507_11-2" 14.35000 "Sandstone" "Limestone" -999.25  90.0000 10.00000     0.0 "m/c"      "m/c"      "Hovedsaklig_strand/ovre_strand-skraning" "DELTA_FRONT"
1969.8 "6507_11-2" 13.95000 "Sandstone" "Limestone" -999.25  90.0000 10.00000     0.0 "m/c"      "m/c"      "Hovedsaklig_strand/ovre_strand-skraning" "DELTA_FRONT"
1969.9 "6507_11-2" 13.70000 "Sandstone" "Limestone" -999.25  90.0000 10.00000     0.0 "m/c"      "m/c"      "Hovedsaklig_strand/ovre_strand-skraning" "DELTA_FRONT"
1970.0 "6507_11-2" 13.78000 "Sandstone" "Limestone" -999.25  90.0000 10.00000     0.0 "m/c"      "m/c"      "Hovedsaklig_strand/ovre_strand-skraning" "DELTA_FRONT"
1970.1 "6507_11-2" 13.93000 "Sandstone" "Limestone" -999.25  90.0000 10.00000     0.0 "m/c"      "m/c"      "Hovedsaklig_strand/ovre_strand-skraning" "DELTA_FRONT"
1970.2 "6507_11-2" 14.27000 "Sandstone" "Limestone" -999.25  90.0000 10.00000     0.0 "m/c"      "m/c"      "Hovedsaklig_strand/ovre_strand-skraning" "DELTA_FRONT"
1970.3 "6507_11-2" 14.35000 "Sandstone" "Limestone" -999.25  90.0000 10.00000     0.0 "m/c"      "m/c"      "Hovedsaklig_strand/ovre_strand-skraning" "DELTA_FRONT"
