~Version
VERS  .                                 3.0 : CWLS LAS ASCII Standard - Version 3.0
WRAP  . NO                                  : One line per depth step
DLM   . SPACE                               : Column data section delimiter
SOURCE. Converted to LAS by Log Studio 4.76 : GeoProvider

~Well
STRT.         1965.5 : Start depth
STOP.         2014.9 : Stop depth
STEP.              1 : Step
NULL.        -999.25 : No-value
COMP.                : Company
WELL. 6507/11-2      : Well
FLD .                : Field
LOC .                : Location
LATI.                : Latitude
LONG.                : Longitude
GDAT.                : Geodetic datum
CNTY.                : County
STAT.                : State
CTRY.                : Country
SRVC. GeoProvider AS : Service company
DATE.                : Date
API .                : API number
RUN .                : Run number

~Parameters
WellboreName.  : Wellbore name
RigName     .  : Rig name
StartDate   .  : Start date

~Curves
DEPTH.m            .  : null {F}Depth mMD
Hole_ID.-          .  : null {S}Hole ID
GR.API             .  : null {F}Gamma Ray
Lithology1.-       .  : null {S}Lithology 1
Lithology2.-       .  : null {S}Lithology 2
Lithology3.-       .  : null {S}Lithology 3
Lithology1.%       .  : null {F}Lithology 1 percentage
Lithology2.%       .  : null {F}Lithology 2 percentage
Lithology3.%       .  : null {F}Lithology 3 percentage
Grain_size_Top.-   .  : null {S}Grain size at the top 
Grain_size_Base.-  .  : null {S}Grain size at the bottom
Sub_Environment.-  .  : null {S}Sub Environment
Gross_Environment.-.  : null {S}Gross Environment

~Ascii
# ...
1990.8 "6507_11-2" 23.29000 -999.25   -999.25   -999.25  -999.25  -999.25 -999.25 -999.25    -999.25    -999.25                                 -999.25    
1990.9 "6507_11-2" 22.03000 -999.25   -999.25   -999.25  -999.25  -999.25 -999.25 -999.25    -999.25    -999.25                                 -999.25    
1991.0 "6507_11-2" 20.38000 -999.25   -999.25   -999.25  -999.25  -999.25 -999.25 -999.25    -999.25    -999.25                                 -999.25    
1991.1 "6507_11-2" 19.76000 -999.25   -999.25   -999.25  -999.25  -999.25 -999.25 -999.25    -999.25    -999.25                                 -999.25    
1991.2 "6507_11-2" 19.67000 -999.25   -999.25   -999.25  -999.25  -999.25 -999.25 -999.25    -999.25    -999.25                                 -999.25    
1991.3 "6507_11-2" 19.61000 -999.25   -999.25   -999.25  -999.25  -999.25 -999.25 -999.25    -999.25    -999.25                                 -999.25    
1991.4 "6507_11-2" 19.59000 -999.25   -999.25   -999.25  -999.25  -999.25 -999.25 -999.25    -999.25    -999.25                                 -999.25    
1991.5 "6507_11-2" 19.58000 "Sandstone" "Shale"   -999.25  50.0000 50.00000     0.0 "vc/granule" "vc/granule" "Ovre_strand-skraninig_strand"          "DELTA_FRONT"
1991.6 "6507_11-2" 19.57000 "Sandstone" "Shale"   -999.25  50.0000 50.00000     0.0 "vc/granule" "vc/granule" "Ovre_strand-skraninig_strand"          "DELTA_FRONT"
1991.7 "6507_11-2" 19.57000 "Sandstone" "Shale"   -999.25  50.0000 50.00000     0.0 "vc/granule" "vc/granule" "Ovre_strand-skraninig_strand"          "DELTA_FRONT"
1991.8 "6507_11-2" 19.57000 "Sandstone" -999.25   -999.25 100.0000      0.0     0.0 "m/c"      "m/c"      "Ovre_strand-skraninig_strand"          "DELTA_FRONT"
1991.9 "6507_11-2" 19.67000 "Sandstone" -999.25   -999.25 100.0000      0.0     0.0 "m/c"      "m/c"      "Ovre_strand-skraninig_strand"          "DELTA_FRONT"
1992.0 "6507_11-2" 19.97000 "Sandstone" -999.25   -999.25 100.0000      0.0     0.0 "m/c"      "m/c"      "Ovre_strand-skraninig_strand"          "DELTA_FRONT"
1992.1 "6507_11-2" 20.47000 "Sandstone" -999.25   -999.25 100.0000      0.0     0.0 "m/c"      "m/c"      "Ovre_strand-skraninig_strand"          "DELTA_FRONT"
1992.2 "6507_11-2" 21.10000 "Sandstone" -999.25   -999.25 100.0000      0.0     0.0 "m/c"      "m/c"      "Ovre_strand-skraninig_strand"          "DELTA_FRONT"
1992.3 "6507_11-2" 21.72000 "Sandstone" -999.25   -999.25 100.0000      0.0     0.0 "m/c"      "m/c"      "Ovre_strand-skraninig_strand"          "DELTA_FRONT"
1992.4 "6507_11-2" 22.45000 "Sandstone" -999.25   -999.25 100.0000      0.0     0.0 "m/c"      "m/c"      "Ovre_strand-skraninig_strand"          "DELTA_FRONT"
1992.5 "6507_11-2" 23.20000 "Sandstone" -999.25   -999.25 100.0000      0.0     0.0 "m/c"      "m/c"      "Ovre_strand-skraninig_strand"          "DELTA_FRONT"
1992.6 "6507_11-2" 23.79000 "Sandstone" -999.25   -999.25 100.0000      0.0     0.0 "m/c"      "m/c"      "Ovre_strand-skraninig_strand"          "DELTA_FRONT"
1992.7 "6507_11-2" 24.18000 "Sandstone" -999.25   -999.25 100.0000      0.0     0.0 "m/c"      "m/c"      "Ovre_strand-skraninig_strand"          "DELTA_FRONT"
1992.8 "6507_11-2" 24.34000 "Sandstone" -999.25   -999.25 100.0000      0.0     0.0 "m/c"      "m/c"      "Ovre_strand-skraninig_strand"          "DELTA_FRONT"
1992.9 "6507_11-2" 24.48000 "Sandstone" -999.25   -999.25 100.0000      0.0     0.0 "m/c"      "m/c"      "Ovre_strand-skraninig_strand"          "DELTA_FRONT"
1993.0 "6507_11-2" 24.61000 "Sandstone" -999.25   -999.25 100.0000      0.0     0.0 "m/c"      "m/c"      "Ovre_strand-skraninig_strand"          "DELTA_FRONT"
1993.1 "6507_11-2" 24.74000 "Sandstone" -999.25   -999.25 100.0000      0.0     0.0 "m/c"      "m/c"      "Ovre_strand-skraninig_strand"          "DELTA_FRONT"
1993.2 "6507_11-2" 25.13000 "Sandstone" -999.25   -999.25 100.0000      0.0     0.0 "m/c"      "m/c"      "Ovre_strand-skraninig_strand"          "DELTA_FRONT"
1993.3 "6507_11-2" 25.55000 "Sandstone" -999.25   -999.25 100.0000      0.0     0.0 "m/c"      "m/c"      "Ovre_strand-skraninig_strand"          "DELTA_FRONT"
1993.4 "6507_11-2" 25.88000 "Sandstone" -999.25   -999.25 100.0000      0.0     0.0 "m/c"      "m/c"      "Ovre_strand-skraninig_strand"          "DELTA_FRONT"
1993.5 "6507_11-2" 26.04000 "Sandstone" -999.25   -999.25 100.0000      0.0     0.0 "m/c"      "m/c"      "Ovre_strand-skraninig_strand"          "DELTA_FRONT"
1993.6 "6507_11-2" 26.15000 "Sandstone" -999.25   -999.25 100.0000      0.0     0.0 "m/c"      "m/c"      "Ovre_strand-skraninig_strand"          "DELTA_FRONT"
1993.7 "6507_11-2" 26.21000 "Sandstone" -999.25   -999.25 100.0000      0.0     0.0 "m/c"      "m/c"      "Ovre_strand-skraninig_strand"          "DELTA_FRONT"
1993.8 "6507_11-2" 26.21000 "Sandstone" -999.25   -999.25 100.0000      0.0     0.0 "m/c"      "m/c"      "Ovre_strand-skraninig_strand"          "DELTA_FRONT"
1993.9 "6507_11-2" 26.40000 "Sandstone" -999.25   -999.25 100.0000      0.0     0.0 "m/c"      "m/c"      "Ovre_strand-skraninig_strand"          "DELTA_FRONT"
1994.0 "6507_11-2" 26.86000 "Sandstone" -999.25   -999.25 100.0000      0.0     0.0 "m/c"      "m/c"      "Ovre_strand-skraninig_strand"          "DELTA_FRONT"
1994.1 "6507_11-2" 27.31000 "Sandstone" -999.25   -999.25 100.0000      0.0     0.0 "m/c"      "m/c"      "Ovre_strand-skraninig_strand"          "DELTA_FRONT"
1994.2 "6507_11-2" 27.52000 "Sandstone" -999.25   -999.25 100.0000      0.0     0.0 "m/c"      "m/c"      "Ovre_strand-skraninig_strand"          "DELTA_FRONT"
1994.3 "6507_11-2" 27.46000 "Sandstone" -999.25   -999.25 100.0000      0.0     0.0 "m/c"      "m/c"      "Ovre_strand-skraninig_strand"          "DELTA_FRONT"
1994.4 "6507_11-2" 27.10000 "Sandstone" -999.25   -999.25 100.0000      0.0     0.0 "m/c"      "m/c"      "Ovre_strand-skraninig_strand"          "DELTA_FRONT"
1994.5 "6507_11-2" 26.73000 "Sandstone" -999.25   -999.25 100.0000      0.0     0.0 "m/c"      "m/c"      "Ovre_strand-skraninig_strand"          "DELTA_FRONT"
1994.6 "6507_11-2" 26.01000 "Sandstone" -999.25   -999.25 100.0000      0.0     0.0 "m/c"      "m/c"      "Ovre_strand-skraninig_strand"          "DELTA_FRONT"
1994.7 "6507_11-2" 24.81000 "Sandstone" -999.25   -999.25 100.0000      0.0     0.0 "m/c"      "m/c"      "Ovre_strand-skraninig_strand"          "DELTA_FRONT"
1994.8 "6507_11-2" 24.18000 "Sandstone" -999.25   -999.25 100.0000      0.0     0.0 "m/c"      "m/c"      "Ovre_strand-skraninig_strand"          "DELTA_FRONT"
1994.9 "6507_11-2" 23.59000 "Sandstone" -999.25   -999.25 100.0000      0.0     0.0 "m/c"      "m/c"      "Ovre_strand-skraninig_strand"          "DELTA_FRONT"
1995.0 "6507_11-2" 23.05000 "Sandstone" -999.25   -999.25 100.0000      0.0     0.0 "m/c"      "m/c"      "Ovre_strand-skraninig_strand"          "DELTA_FRONT"
1995.1 "6507_11-2" 22.50000 "Sandstone" -999.25   -999.25 100.0000      0.0     0.0 "m/c"      "m/c"      "Ovre_strand-skraninig_strand"          "DELTA_FRONT"
1995.2 "6507_11-2" 22.10000 "Sandstone" -999.25   -999.25 100.0000      0.0     0.0 "m/c"      "m/c"      "Ovre_strand-skraninig_strand"          "DELTA_FRONT"
1995.3 "6507_11-2" 22.25000 "Sandstone" -999.25   -999.25 100.0000      0.0     0.0 "m/c"      "m/c"      "Ovre_strand-skraninig_strand"          "DELTA_FRONT"
1995.4 "6507_11-2" 22.76000 "Sandstone" -999.25   -999.25 100.0000      0.0     0.0 "m/c"      "m/c"      "Ovre_strand-skraninig_strand"          "DELTA_FRONT"
1995.5 "6507_11-2" 23.67000 "Sandstone" -999.25   -999.25 100.0000      0.0     0.0 "m/c"      "m/c"      "Ovre_strand-skraninig_strand"          "DELTA_FRONT"
1995.6 "6507_11-2" 24.61000 "Sandstone" -999.25   -999.25 100.0000      0.0     0.0 "m/c"      "m/c"      "Ovre_strand-skraninig_strand"          "DELTA_FRONT"
1995.7 "6507_11-2" 24.92000 "Sandstone" -999.25   -999.25 100.0000      0.0     0.0 "m/c"      "m/c"      "Ovre_strand-skraninig_strand"          "DELTA_FRONT"
1995.8 "6507_11-2" 24.81000 "Sandstone" -999.25   -999.25 100.0000      0.0     0.0 "m/c"      "m/c"      "Ovre_strand-skraninig_strand"          "DELTA_FRONT"
