~Version
VERS  .                                 3.0 : CWLS LAS ASCII Standard - Version 3.0
WRAP  . NO                                  : One line per depth step
DLM   . SPACE                               : Column data section delimiter
SOURCE. Converted to LAS by Log Studio 4.76 : GeoProvider

~Well
STRT.         1965.5 : Start depth
STOP.         2014.9 : Stop depth
STEP.              1 : Step
NULL.        -999.25 : No-value
COMP.                : Company
WELL. 6507/11-2      : Well
FLD .                : Field
LOC .                : Location
LATI.                : Latitude
LONG.                : Longitude
GDAT.                : Geodetic datum
CNTY.                : County
STAT.                : State
CTRY.                : Country
SRVC. GeoProvider AS : Service company
DATE.                : Date
API .                : API number
RUN .                : Run number

~Parameters
WellboreName.  : Wellbore name
RigName     .  : Rig name
StartDate   .  : Start date

~Curves
DEPTH.m            .  : null {F}Depth mMD
Hole_ID.-          .  : null {S}Hole ID
GR.API             .  : null {F}Gamma Ray
Lithology1.-       .  : null {S}Lithology 1
Lithology2.-       .  : null {S}Lithology 2
Lithology3.-       .  : null {S}Lithology 3
Lithology1.%       .  : null {F}Lithology 1 percentage
Lithology2.%       .  : null {F}Lithology 2 percentage
Lithology3.%       .  : null {F}Lithology 3 percentage
Grain_size_Top.-   .  : null {S}Grain size at the top 
Grain_size_Base.-  .  : null {S}Grain size at the bottom
Sub_Environment.-  .  : null {S}Sub Environment
Gross_Environment.-.  : null {S}Gross Environment

~Ascii
# ...
1970.4 "6507_11-2" 14.44000 "Sandstone" "Limestone" -999.25  90.0000 10.00000     0.0 "m/c"      "m/c"      "Hovedsaklig_strand/ovre_strand-skraning" "DELTA_FRONT"
1970.5 "6507_11-2" 14.74000 "Sandstone" "Limestone" -999.25  90.0000 10.00000     0.0 "m/c"      "m/c"      "Hovedsaklig_strand/ovre_strand-skraning" "DELTA_FRONT"
1970.6 "6507_11-2" 15.12000 "Sandstone" "Limestone" -999.25  90.0000 10.00000     0.0 "m/c"      "m/c"      "Hovedsaklig_strand/ovre_strand-skraning" "DELTA_FRONT"
1970.7 "6507_11-2" 15.59000 "Sandstone" "Limestone" -999.25  90.0000 10.00000     0.0 "m/c"      "m/c"      "Hovedsaklig_strand/ovre_strand-skraning" "DELTA_FRONT"
1970.8 "6507_11-2" 16.07000 "Sandstone" "Limestone" -999.25  90.0000 10.00000     0.0 "m/c"      "m/c"      "Hovedsaklig_strand/ovre_strand-skraning" "DELTA_FRONT"
1970.9 "6507_11-2" 16.42000 "Sandstone" "Limestone" -999.25  90.0000 10.00000     0.0 "m/c"      "m/c"      "Hovedsaklig_strand/ovre_strand-skraning" "DELTA_FRONT"
1971.0 "6507_11-2" 16.50000 "Sandstone" "Limestone" -999.25  90.0000 10.00000     0.0 "m/c"      "m/c"      "Hovedsaklig_strand/ovre_strand-skraning" "DELTA_FRONT"
1971.1 "6507_11-2" 16.58000 "Sandstone" "Limestone" -999.25  90.0000 10.00000     0.0 "m/c"      "m/c"      "Hovedsaklig_strand/ovre_strand-skraning" "DELTA_FRONT"
1971.2 "6507_11-2" 16.66000 "Sandstone" "Limestone" -999.25  90.0000 10.00000     0.0 "m/c"      "m/c"      "Hovedsaklig_strand/ovre_strand-skraning" "DELTA_FRONT"
1971.3 "6507_11-2" 16.85000 "Sandstone" "Limestone" -999.25  90.0000 10.00000     0.0 "m/c"      "m/c"      "Hovedsaklig_strand/ovre_strand-skraning" "DELTA_FRONT"
1971.4 "6507_11-2" 17.07000 "Sandstone" "Limestone" -999.25  90.0000 10.00000     0.0 "m/c"      "m/c"      "Hovedsaklig_strand/ovre_strand-skraning" "DELTA_FRONT"
1971.5 "6507_11-2" 17.28000 "Sandstone" "Limestone" -999.25  90.0000 10.00000     0.0 "m/c"      "m/c"      "Hovedsaklig_strand/ovre_strand-skraning" "DELTA_FRONT"
1971.6 "6507_11-2" 17.35000 "Sandstone" "Limestone" -999.25  90.0000 10.00000     0.0 "m/c"      "m/c"      "Hovedsaklig_strand/ovre_strand-skraning" "DELTA_FRONT"
1971.7 "6507_11-2" 17.39000 "Sandstone" "Limestone" -999.25  90.0000 10.00000     0.0 "m/c"      "m/c"      "Hovedsaklig_strand/ovre_strand-skraning" "DELTA_FRONT"
1971.8 "6507_11-2" 17.39000 "Sandstone" "Limestone" -999.25  90.0000 10.00000     0.0 "m/c"      "m/c"      "Hovedsaklig_strand/ovre_strand-skraning" "DELTA_FRONT"
1971.9 "6507_11-2" 17.30000 "Sandstone" "Limestone" -999.25  90.0000 10.00000     0.0 "m/c"      "m/c"      "Hovedsaklig_strand/ovre_strand-skraning" "DELTA_FRONT"
1972.0 "6507_11-2" 17.20000 "Sandstone" "Limestone" -999.25  90.0000 10.00000     0.0 "m/c"      "m/c"      "Hovedsaklig_strand/ovre_strand-skraning" "DELTA_FRONT"
1972.1 "6507_11-2" 17.10000 "Sandstone" "Limestone" -999.25  90.0000 10.00000     0.0 "m/c"      "m/c"      "Hovedsaklig_strand/ovre_strand-skraning" "DELTA_FRONT"
1972.2 "6507_11-2" 16.79000 "Sandstone" "Limestone" -999.25  90.0000 10.00000     0.0 "m/c"      "m/c"      "Hovedsaklig_strand/ovre_strand-skraning" "DELTA_FRONT"
1972.3 "6507_11-2" 16.48000 "Sandstone" "Limestone" -999.25  90.0000 10.00000     0.0 "m/c"      "m/c"      "Hovedsaklig_strand/ovre_strand-skraning" "DELTA_FRONT"
1972.4 "6507_11-2" 16.16000 "Sandstone" "Limestone" -999.25  90.0000 10.00000     0.0 "m/c"      "m/c"      "Hovedsaklig_strand/ovre_strand-skraning" "DELTA_FRONT"
1972.5 "6507_11-2" 15.85000 "Sandstone" "Limestone" -999.25  90.0000 10.00000     0.0 "m/c"      "m/c"      "Hovedsaklig_strand/ovre_strand-skraning" "DELTA_FRONT"
1972.6 "6507_11-2" 15.58000 "Sandstone" "Limestone" -999.25  90.0000 10.00000     0.0 "m/c"      "m/c"      "Hovedsaklig_strand/ovre_strand-skraning" "DELTA_FRONT"
1972.7 "6507_11-2" 15.58000 "Sandstone" "Limestone" -999.25  90.0000 10.00000     0.0 "m/c"      "m/c"      "Hovedsaklig_strand/ovre_strand-skraning" "DELTA_FRONT"
1972.8 "6507_11-2" 15.80000 "Sandstone" "Limestone" -999.25  90.0000 10.00000     0.0 "m/c"      "m/c"      "Hovedsaklig_strand/ovre_strand-skraning" "DELTA_FRONT"
1972.9 "6507_11-2" 16.18000 "Sandstone" "Limestone" -999.25  90.0000 10.00000     0.0 "m/c"      "m/c"      "Hovedsaklig_strand/ovre_strand-skraning" "DELTA_FRONT"
1973.0 "6507_11-2" 16.95000 "Sandstone" "Limestone" -999.25  90.0000 10.00000     0.0 "m/c"      "m/c"      "Hovedsaklig_strand/ovre_strand-skraning" "DELTA_FRONT"
1973.1 "6507_11-2" 17.75000 "Sandstone" "Limestone" -999.25  90.0000 10.00000     0.0 "m/c"      "m/c"      "Hovedsaklig_strand/ovre_strand-skraning" "DELTA_FRONT"
1973.2 "6507_11-2" 18.68000 "Sandstone" "Limestone" -999.25  90.0000 10.00000     0.0 "m/c"      "m/c"      "Hovedsaklig_strand/ovre_strand-skraning" "DELTA_FRONT"
1973.3 "6507_11-2" 19.13000 "Sandstone" "Limestone" -999.25  90.0000 10.00000     0.0 "m/c"      "m/c"      "Hovedsaklig_strand/ovre_strand-skraning" "DELTA_FRONT"
1973.4 "6507_11-2" 19.06000 "Sandstone" "Limestone" -999.25  90.0000 10.00000     0.0 "m/c"      "m/c"      "Hovedsaklig_strand/ovre_strand-skraning" "DELTA_FRONT"
1973.5 "6507_11-2" 18.77000 "Sandstone" "Limestone" -999.25  90.0000 10.00000     0.0 "m/c"      "m/c"      "Hovedsaklig_strand/ovre_strand-skraning" "DELTA_FRONT"
1973.6 "6507_11-2" 18.04000 "Sandstone" "Limestone" -999.25  90.0000 10.00000     0.0 "m/c"      "m/c"      "Hovedsaklig_strand/ovre_strand-skraning" "DELTA_FRONT"
1973.7 "6507_11-2" 16.88000 "Sandstone" "Limestone" -999.25  90.0000 10.00000     0.0 "m/c"      "m/c"      "Hovedsaklig_strand/ovre_strand-skraning" "DELTA_FRONT"
1973.8 "6507_11-2" 16.80000 "Sandstone" "Limestone" -999.25  90.0000 10.00000     0.0 "m/c"      "m/c"      "Hovedsaklig_strand/ovre_strand-skraning" "DELTA_FRONT"
1973.9 "6507_11-2" 16.75000 "Sandstone" "Limestone" -999.25  90.0000 10.00000     0.0 "m/c"      "m/c"      "Hovedsaklig_strand/ovre_strand-skraning" "DELTA_FRONT"
1974.0 "6507_11-2" 16.73000 "Sandstone" "Limestone" -999.25  90.0000 10.00000     0.0 "m/c"      "m/c"      "Hovedsaklig_strand/ovre_strand-skraning" "DELTA_FRONT"
1974.1 "6507_11-2" 16.68000 "Sandstone" "Limestone" -999.25  90.0000 10.00000     0.0 "m/c"      "m/c"      "Hovedsaklig_strand/ovre_strand-skraning" "DELTA_FRONT"
1974.2 "6507_11-2" 16.42000 "Sandstone" "Limestone" -999.25  90.0000 10.00000     0.0 "m/c"      "m/c"      "Hovedsaklig_strand/ovre_strand-skraning" "DELTA_FRONT"
1974.3 "6507_11-2" 16.16000 "Sandstone" "Limestone" -999.25  90.0000 10.00000     0.0 "m/c"      "m/c"      "Hovedsaklig_strand/ovre_strand-skraning" "DELTA_FRONT"
1974.4 "6507_11-2" 16.21000 "Sandstone" "Limestone" -999.25  90.0000 10.00000     0.0 "m/c"      "m/c"      "Hovedsaklig_strand/ovre_strand-skraning" "DELTA_FRONT"
1974.5 "6507_11-2" 16.37000 "Sandstone" "Limestone" -999.25  90.0000 10.00000     0.0 "m/c"      "m/c"      "Hovedsaklig_strand/ovre_strand-skraning" "DELTA_FRONT"
1974.6 "6507_11-2" 16.54000 "Sandstone" "Limestone" -999.25  90.0000 10.00000     0.0 "m/c"      "m/c"      "Hovedsaklig_strand/ovre_strand-skraning" "DELTA_FRONT"
1974.7 "6507_11-2" 16.74000 "Sandstone" "Limestone" -999.25  90.0000 10.00000     0.0 "m/c"      "m/c"      "Hovedsaklig_strand/ovre_strand-skraning" "DELTA_FRONT"
1974.8 "6507_11-2" 17.16000 "Sandstone" "Limestone" -999.25  90.0000 10.00000     0.0 "m/c"      "m/c"      "Hovedsaklig_strand/ovre_strand-skraning" "DELTA_FRONT"
1974.9 "6507_11-2" 17.62000 "Sandstone" "Limestone" -999.25  90.0000 10.00000     0.0 "m/c"      "m/c"      "Hovedsaklig_strand/ovre_strand-skraning" "DELTA_FRONT"
1975.0 "6507_11-2" 18.07000 -999.25   -999.25   -999.25  -999.25  -999.25 -999.25 -999.25    -999.25    "Hovedsaklig_strand/ovre_strand-skraning" "DELTA_FRONT"
1975.1 "6507_11-2" 18.52000 -999.25   -999.25   -999.25  -999.25  -999.25 -999.25 -999.25    -999.25    "Hovedsaklig_strand/ovre_strand-skraning" "DELTA_FRONT"
1975.2 "6507_11-2" 18.98000 -999.25   -999.25   -999.25  -999.25  -999.25 -999.25 -999.25    -999.25    "Hovedsaklig_strand/ovre_strand-skraning" "DELTA_FRONT"
