~Version
VERS  .                                 3.0 : CWLS LAS ASCII Standard - Version 3.0
WRAP  . NO                                  : One line per depth step
DLM   . SPACE                               : Column data section delimiter
SOURCE. Converted to LAS by Log Studio 4.76 : GeoProvider

~Well
STRT.         1965.5 : Start depth
STOP.         2014.9 : Stop depth
STEP.              1 : Step
NULL.        -999.25 : No-value
COMP.                : Company
WELL. 6507/11-2      : Well
FLD .                : Field
LOC .                : Location
LATI.                : Latitude
LONG.                : Longitude
GDAT.                : Geodetic datum
CNTY.                : County
STAT.                : State
CTRY.                : Country
SRVC. GeoProvider AS : Service company
DATE.                : Date
API .                : API number
RUN .                : Run number

~Parameters
WellboreName.  : Wellbore name
RigName     .  : Rig name
StartDate   .  : Start date

~Curves
DEPTH.m            .  : null {F}Depth mMD
Hole_ID.-          .  : null {S}Hole ID
GR.API             .  : null {F}Gamma Ray
Lithology1.-       .  : null {S}Lithology 1
Lithology2.-       .  : null {S}Lithology 2
Lithology3.-       .  : null {S}Lithology 3
Lithology1.%       .  : null {F}Lithology 1 percentage
Lithology2.%       .  : null {F}Lithology 2 percentage
Lithology3.%       .  : null {F}Lithology 3 percentage
Grain_size_Top.-   .  : null {S}Grain size at the top 
Grain_size_Base.-  .  : null {S}Grain size at the bottom
Sub_Environment.-  .  : null {S}Sub Environment
Gross_Environment.-.  : null {S}Gross Environment

~Ascii
# ...
2006.1 "6507_11-2" 27.49000 "Sandstone" -999.25   -999.25 100.0000      0.0     0.0 "c/vc"     "c/vc"     "Ovre_-_nedre_strandskraning"           "DELTA_FRONT"
2006.2 "6507_11-2" 27.49000 "Sandstone" -999.25   -999.25 100.0000      0.0     0.0 "c/vc"     "c/vc"     "Ovre_-_nedre_strandskraning"           "DELTA_FRONT"
2006.3 "6507_11-2" 27.27000 "Sandstone" -999.25   -999.25 100.0000      0.0     0.0 "c/vc"     "c/vc"     "Ovre_-_nedre_strandskraning"           "DELTA_FRONT"
2006.4 "6507_11-2" 26.99000 "Sandstone" -999.25   -999.25 100.0000      0.0     0.0 "c/vc"     "c/vc"     "Ovre_-_nedre_strandskraning"           "DELTA_FRONT"
2006.5 "6507_11-2" 26.80000 "Sandstone" -999.25   -999.25 100.0000      0.0     0.0 "c/vc"     "c/vc"     "Ovre_-_nedre_strandskraning"           "DELTA_FRONT"
2006.6 "6507_11-2" 26.76000 "Sandstone" -999.25   -999.25 100.0000      0.0     0.0 "c/vc"     "c/vc"     "Ovre_-_nedre_strandskraning"           "DELTA_FRONT"
2006.7 "6507_11-2" 26.76000 "Sandstone" -999.25   -999.25 100.0000      0.0     0.0 "c/vc"     "c/vc"     "Ovre_-_nedre_strandskraning"           "DELTA_FRONT"
2006.8 "6507_11-2" 27.07000 "Sandstone" -999.25   -999.25 100.0000      0.0     0.0 "c/vc"     "c/vc"     "Ovre_-_nedre_strandskraning"           "DELTA_FRONT"
2006.9 "6507_11-2" 27.53000 "Sandstone" -999.25   -999.25 100.0000      0.0     0.0 "c/vc"     "c/vc"     "Ovre_-_nedre_strandskraning"           "DELTA_FRONT"
2007.0 "6507_11-2" 28.01000 "Sandstone" -999.25   -999.25 100.0000      0.0     0.0 "c/vc"     "c/vc"     "Ovre_-_nedre_strandskraning"           "DELTA_FRONT"
2007.1 "6507_11-2" 28.40000 "Sandstone" -999.25   -999.25 100.0000      0.0     0.0 "c/vc"     "c/vc"     "Ovre_-_nedre_strandskraning"           "DELTA_FRONT"
2007.2 "6507_11-2" 28.40000 "Sandstone" -999.25   -999.25 100.0000      0.0     0.0 "c/vc"     "c/vc"     "Ovre_-_nedre_strandskraning"           "DELTA_FRONT"
2007.3 "6507_11-2" 28.12000 "Sandstone" -999.25   -999.25 100.0000      0.0     0.0 "c/vc"     "c/vc"     "Ovre_-_nedre_strandskraning"           "DELTA_FRONT"
2007.4 "6507_11-2" 27.84000 "Sandstone" -999.25   -999.25 100.0000      0.0     0.0 "c/vc"     "c/vc"     "Ovre_-_nedre_strandskraning"           "DELTA_FRONT"
2007.5 "6507_11-2" 27.50000 "Sandstone" -999.25   -999.25 100.0000      0.0     0.0 "c/vc"     "c/vc"     "Ovre_-_nedre_strandskraning"           "DELTA_FRONT"
2007.6 "6507_11-2" 27.17000 "Sandstone" -999.25   -999.25 100.0000      0.0     0.0 "c/vc"     "c/vc"     "Ovre_-_nedre_strandskraning"           "DELTA_FRONT"
2007.7 "6507_11-2" 26.83000 "Sandstone" -999.25   -999.25 100.0000      0.0     0.0 "c/vc"     "c/vc"     "Ovre_-_nedre_strandskraning"           "DELTA_FRONT"
2007.8 "6507_11-2" 26.49000 "Sandstone" -999.25   -999.25 100.0000      0.0     0.0 "c/vc"     "c/vc"     "Ovre_-_nedre_strandskraning"           "DELTA_FRONT"
2007.9 "6507_11-2" 26.16000 "Sandstone" -999.25   -999.25 100.0000      0.0     0.0 "c/vc"     "c/vc"     "Ovre_-_nedre_strandskraning"           "DELTA_FRONT"
2008.0 "6507_11-2" 25.82000 "Sandstone" -999.25   -999.25 100.0000      0.0     0.0 "c/vc"     "c/vc"     "Ovre_-_nedre_strandskraning"           "DELTA_FRONT"
2008.1 "6507_11-2" 25.49000 "Sandstone" -999.25   -999.25 100.0000      0.0     0.0 "c/vc"     "c/vc"     "Ovre_-_nedre_strandskraning"           "DELTA_FRONT"
2008.2 "6507_11-2" 25.15000 "Sandstone" -999.25   -999.25 100.0000      0.0     0.0 "c/vc"     "c/vc"     "Ovre_-_nedre_strandskraning"           "DELTA_FRONT"
2008.3 "6507_11-2" 24.82000 "Sandstone" -999.25   -999.25 100.0000      0.0     0.0 "c/vc"     "c/vc"     "Ovre_-_nedre_strandskraning"           "DELTA_FRONT"
2008.4 "6507_11-2" 24.72000 "Sandstone" -999.25   -999.25 100.0000      0.0     0.0 "c/vc"     "c/vc"     "Ovre_-_nedre_strandskraning"           "DELTA_FRONT"
2008.5 "6507_11-2" 24.62000 "Sandstone" -999.25   -999.25 100.0000      0.0     0.0 "c/vc"     "c/vc"     "Ovre_-_nedre_strandskraning"           "DELTA_FRONT"
2008.6 "6507_11-2" 24.70000 "Sandstone" -999.25   -999.25 100.0000      0.0     0.0 "c/vc"     "c/vc"     "Ovre_-_nedre_strandskraning"           "DELTA_FRONT"
2008.7 "6507_11-2" 24.94000 "Sandstone" -999.25   -999.25 100.0000      0.0     0.0 "c/vc"     "c/vc"     "Ovre_-_nedre_strandskraning"           "DELTA_FRONT"
2008.8 "6507_11-2" 25.62000 "Sandstone" -999.25   -999.25 100.0000      0.0     0.0 "c/vc"     "c/vc"     "Ovre_-_nedre_strandskraning"           "DELTA_FRONT"
2008.9 "6507_11-2" 26.18000 "Sandstone" -999.25   -999.25 100.0000      0.0     0.0 "c/vc"     "c/vc"     "Ovre_-_nedre_strandskraning"           "DELTA_FRONT"
2009.0 "6507_11-2" 26.53000 "Sandstone" -999.25   -999.25 100.0000      0.0     0.0 "c/vc"     "c/vc"     "Ovre_-_nedre_strandskraning"           "DELTA_FRONT"
2009.1 "6507_11-2" 26.88000 "Sandstone" -999.25   -999.25 100.0000      0.0     0.0 "c/vc"     "c/vc"     "Ovre_-_nedre_strandskraning"           "DELTA_FRONT"
2009.2 "6507_11-2" 27.08000 "Sandstone" -999.25   -999.25 100.0000      0.0     0.0 "c/vc"     "c/vc"     "Ovre_-_nedre_strandskraning"           "DELTA_FRONT"
2009.3 "6507_11-2" 27.23000 "Sandstone" -999.25   -999.25 100.0000      0.0     0.0 "c/vc"     "c/vc"     "Ovre_-_nedre_strandskraning"           "DELTA_FRONT"
2009.4 "6507_11-2" 27.37000 "Sandstone" -999.25   -999.25 100.0000      0.0     0.0 "c/vc"     "c/vc"     "Ovre_-_nedre_strandskraning"           "DELTA_FRONT"
2009.5 "6507_11-2" 27.52000 "Sandstone" -999.25   -999.25 100.0000      0.0     0.0 "c/vc"     "c/vc"     "Ovre_-_nedre_strandskraning"           "DELTA_FRONT"
2009.6 "6507_11-2" 27.75000 "Sandstone" -999.25   -999.25 100.0000      0.0     0.0 "c/vc"     "c/vc"     "Ovre_-_nedre_strandskraning"           "DELTA_FRONT"
2009.7 "6507_11-2" 27.97000 "Sandstone" -999.25   -999.25 100.0000      0.0     0.0 "c/vc"     "c/vc"     "Ovre_-_nedre_strandskraning"           "DELTA_FRONT"
2009.8 "6507_11-2" 28.14000 "Sandstone" -999.25   -999.25 100.0000      0.0     0.0 "c/vc"     "c/vc"     "Ovre_-_nedre_strandskraning"           "DELTA_FRONT"
2009.9 "6507_11-2" 28.23000 "Sandstone" -999.25   -999.25 100.0000      0.0     0.0 "c/vc"     "c/vc"     "Ovre_-_nedre_strandskraning"           "DELTA_FRONT"
2010.0 "6507_11-2" 28.27000 "Sandstone" -999.25   -999.25 100.0000      0.0     0.0 "c/vc"     "c/vc"     "Ovre_-_nedre_strandskraning"           "DELTA_FRONT"
2010.1 "6507_11-2" 28.51000 "Sandstone" -999.25   -999.25 100.0000      0.0     0.0 "c/vc"     "c/vc"     "Ovre_-_nedre_strandskraning"           "DELTA_FRONT"
2010.2 "6507_11-2" 29.07000 "Sandstone" -999.25   -999.25 100.0000      0.0     0.0 "c/vc"     "c/vc"     "Ovre_-_nedre_strandskraning"           "DELTA_FRONT"
2010.3 "6507_11-2" 29.13000 "Sandstone" -999.25   -999.25 100.0000      0.0     0.0 "c/vc"     "c/vc"     "Ovre_-_nedre_strandskraning"           "DELTA_FRONT"
2010.4 "6507_11-2" 29.15000 "Sandstone" -999.25   -999.25 100.0000      0.0     0.0 "c/vc"     "c/vc"     "Ovre_-_nedre_strandskraning"           "DELTA_FRONT"
2010.5 "6507_11-2" 29.03000 "Sandstone" -999.25   -999.25 100.0000      0.0     0.0 "c/vc"     "c/vc"     "Ovre_-_nedre_strandskraning"           "DELTA_FRONT"
2010.6 "6507_11-2" 28.70000 "Sandstone" -999.25   -999.25 100.0000      0.0     0.0 "c/vc"     "c/vc"     "Ovre_-_nedre_strandskraning"           "DELTA_FRONT"
2010.7 "6507_11-2" 28.34000 "Sandstone" -999.25   -999.25 100.0000      0.0     0.0 "c/vc"     "c/vc"     "Ovre_-_nedre_strandskraning"           "DELTA_FRONT"
2010.8 "6507_11-2" 28.24000 "Sandstone" -999.25   -999.25 100.0000      0.0     0.0 "c/vc"     "c/vc"     "Ovre_-_nedre_strandskraning"           "DELTA_FRONT"
2010.9 "6507_11-2" 28.22000 "Sandstone" -999.25   -999.25 100.0000      0.0     0.0 "c/vc"     "c/vc"     "Ovre_-_nedre_strandskraning"           "DELTA_FRONT"
2011.0 "6507_11-2" 28.24000 "Sandstone" -999.25   -999.25 100.0000      0.0     0.0 "c/vc"     "c/vc"     "Ovre_-_nedre_strandskraning"           "DELTA_FRONT"
