~Version
VERS  .                                 3.0 : CWLS LAS ASCII Standard - Version 3.0
WRAP  . NO                                  : One line per depth step
DLM   . SPACE                               : Column data section delimiter
SOURCE. Converted to LAS by Log Studio 4.76 : GeoProvider

~Well
STRT.         4053.4 : Start depth
STOP.         4700.0 : Stop depth
STEP.              1 : Step
NULL.        -999.25 : No-value
COMP.                : Company
WELL. 6506/12-7      : Well
FLD .                : Field
LOC .                : Location
LATI.                : Latitude
LONG.                : Longitude
GDAT.                : Geodetic datum
CNTY.                : County
STAT.                : State
CTRY.                : Country
SRVC. GeoProvider AS : Service company
DATE.                : Date
API .                : API number
RUN .                : Run number

~Parameters
WellboreName.  : Wellbore name
RigName     .  : Rig name
StartDate   .  : Start date

~Curves
DEPTH.m            .  : null {F}Depth mMD
Hole_ID.-          .  : null {S}Hole ID
GR.API             .  : null {F}Gamma Ray
Lithology1.-       .  : null {S}Lithology 1
Lithology2.-       .  : null {S}Lithology 2
Lithology3.-       .  : null {S}Lithology 3
Lithology1.%       .  : null {F}Lithology 1 percentage
Lithology2.%       .  : null {F}Lithology 2 percentage
Lithology3.%       .  : null {F}Lithology 3 percentage
Grain_size_Top.-   .  : null {S}Grain size at the top 
Grain_size_Base.-  .  : null {S}Grain size at the bottom
Sub_Environment.-  .  : null {S}Sub Environment
Gross_Environment.-.  : null {S}Gross Environment

~Ascii
# ...
4476.8 "6506_12-7"  66.1500 -999.25   -999.25                       -999.25 100.0000      0.0       0.0 -999.25    -999.25   -999.25                                                                                      "Lower_delta_plain_channel_or_proximal_delta_front_complex"
4476.9 "6506_12-7"  65.3700 -999.25   -999.25                       -999.25 100.0000      0.0       0.0 -999.25    -999.25   -999.25                                                                                      "Lower_delta_plain_channel_or_proximal_delta_front_complex"
4477.0 "6506_12-7"  65.1300 -999.25   -999.25                       -999.25 100.0000      0.0       0.0 -999.25    -999.25   -999.25                                                                                      "Lower_delta_plain_channel_or_proximal_delta_front_complex"
4477.1 "6506_12-7"  64.8900 -999.25   -999.25                       -999.25 100.0000      0.0       0.0 -999.25    -999.25   -999.25                                                                                      "Lower_delta_plain_channel_or_proximal_delta_front_complex"
4477.2 "6506_12-7"  65.0300 -999.25   -999.25                       -999.25 100.0000      0.0       0.0 -999.25    -999.25   -999.25                                                                                      "Lower_delta_plain_channel_or_proximal_delta_front_complex"
4477.3 "6506_12-7"  65.9600 -999.25   -999.25                       -999.25 100.0000      0.0       0.0 -999.25    -999.25   -999.25                                                                                      "Lower_delta_plain_channel_or_proximal_delta_front_complex"
4477.4 "6506_12-7"  67.4000 -999.25   -999.25                       -999.25 100.0000      0.0       0.0 -999.25    -999.25   -999.25                                                                                      "Lower_delta_plain_channel_or_proximal_delta_front_complex"
4477.5 "6506_12-7"  68.6700 -999.25   -999.25                       -999.25 100.0000      0.0       0.0 -999.25    -999.25   -999.25                                                                                      "Lower_delta_plain_channel_or_proximal_delta_front_complex"
4477.6 "6506_12-7"  69.3600 -999.25   -999.25                       -999.25 100.0000      0.0       0.0 -999.25    -999.25   -999.25                                                                                      "Lower_delta_plain_channel_or_proximal_delta_front_complex"
4477.7 "6506_12-7"  70.0400 "Sandstone" -999.25                       -999.25 100.0000      0.0       0.0 "m"        "f/m"     "Strongly_fluvial_infloenced_upper_shoreface_or_very_proximat_mouth_bar_complex"             "Lower_delta_plain_channel_or_proximal_delta_front_complex"
4477.8 "6506_12-7"  70.6200 "Sandstone" -999.25                       -999.25 100.0000      0.0       0.0 "m"        "f/m"     "Strongly_fluvial_infloenced_upper_shoreface_or_very_proximat_mouth_bar_complex"             "Lower_delta_plain_channel_or_proximal_delta_front_complex"
4477.9 "6506_12-7"  70.7300 "Sandstone" -999.25                       -999.25 100.0000      0.0       0.0 "m"        "f/m"     "Strongly_fluvial_infloenced_upper_shoreface_or_very_proximat_mouth_bar_complex"             "Lower_delta_plain_channel_or_proximal_delta_front_complex"
4478.0 "6506_12-7"  70.5600 "Sandstone" -999.25                       -999.25 100.0000      0.0       0.0 "m"        "f/m"     "Strongly_fluvial_infloenced_upper_shoreface_or_very_proximat_mouth_bar_complex"             "Lower_delta_plain_channel_or_proximal_delta_front_complex"
4478.1 "6506_12-7"  69.9800 "Sandstone" -999.25                       -999.25 100.0000      0.0       0.0 "m"        "f/m"     "Strongly_fluvial_infloenced_upper_shoreface_or_very_proximat_mouth_bar_complex"             "Lower_delta_plain_channel_or_proximal_delta_front_complex"
4478.2 "6506_12-7"  69.2400 "Sandstone" -999.25                       -999.25 100.0000      0.0       0.0 "m"        "f/m"     "Strongly_fluvial_infloenced_upper_shoreface_or_very_proximat_mouth_bar_complex"             "Lower_delta_plain_channel_or_proximal_delta_front_complex"
4478.3 "6506_12-7"  68.5000 "Sandstone" -999.25                       -999.25 100.0000      0.0       0.0 "m"        "f/m"     "Strongly_fluvial_infloenced_upper_shoreface_or_very_proximat_mouth_bar_complex"             "Lower_delta_plain_channel_or_proximal_delta_front_complex"
4478.4 "6506_12-7"  67.9300 "Sandstone" -999.25                       -999.25 100.0000      0.0       0.0 "m"        "f/m"     "Strongly_fluvial_infloenced_upper_shoreface_or_very_proximat_mouth_bar_complex"             "Lower_delta_plain_channel_or_proximal_delta_front_complex"
4478.5 "6506_12-7"  68.2600 "Sandstone" -999.25                       -999.25 100.0000      0.0       0.0 "m"        "f/m"     "Strongly_fluvial_infloenced_upper_shoreface_or_very_proximat_mouth_bar_complex"             "Lower_delta_plain_channel_or_proximal_delta_front_complex"
4478.6 "6506_12-7"  68.5900 "Sandstone" -999.25                       -999.25 100.0000      0.0       0.0 "m"        "f/m"     "Strongly_fluvial_infloenced_upper_shoreface_or_very_proximat_mouth_bar_complex"             "Lower_delta_plain_channel_or_proximal_delta_front_complex"
4478.7 "6506_12-7"  69.7100 "Sandstone" -999.25                       -999.25 100.0000      0.0       0.0 "m"        "f/m"     "Strongly_fluvial_infloenced_upper_shoreface_or_very_proximat_mouth_bar_complex"             "Lower_delta_plain_channel_or_proximal_delta_front_complex"
4478.8 "6506_12-7"  71.0300 "Sandstone" -999.25                       -999.25 100.0000      0.0       0.0 "m"        "f/m"     "Strongly_fluvial_infloenced_upper_shoreface_or_very_proximat_mouth_bar_complex"             "Lower_delta_plain_channel_or_proximal_delta_front_complex"
4478.9 "6506_12-7"  72.2600 "Sandstone" -999.25                       -999.25 100.0000      0.0       0.0 "m"        "f/m"     "Strongly_fluvial_infloenced_upper_shoreface_or_very_proximat_mouth_bar_complex"             "Lower_delta_plain_channel_or_proximal_delta_front_complex"
4479.0 "6506_12-7"  73.1400 "Sandstone" -999.25                       -999.25 100.0000      0.0       0.0 "m"        "f/m"     "Strongly_fluvial_infloenced_upper_shoreface_or_very_proximat_mouth_bar_complex"             "Lower_delta_plain_channel_or_proximal_delta_front_complex"
4479.1 "6506_12-7"  74.0200 "Sandstone" -999.25                       -999.25 100.0000      0.0       0.0 "m"        "f/m"     "Strongly_fluvial_infloenced_upper_shoreface_or_very_proximat_mouth_bar_complex"             "Lower_delta_plain_channel_or_proximal_delta_front_complex"
4479.2 "6506_12-7"  74.4600 "Sandstone" -999.25                       -999.25 100.0000      0.0       0.0 "f/m"      "vf/f"    "Strongly_fluvial_infloenced_upper_shoreface_or_very_proximat_mouth_bar_complex"             "Lower_delta_plain_channel_or_proximal_delta_front_complex"
4479.3 "6506_12-7"  74.8900 "Sandstone" -999.25                       -999.25 100.0000      0.0       0.0 "f/m"      "vf/f"    "Strongly_fluvial_infloenced_upper_shoreface_or_very_proximat_mouth_bar_complex"             "Lower_delta_plain_channel_or_proximal_delta_front_complex"
4479.4 "6506_12-7"  75.3200 "Sandstone" -999.25                       -999.25 100.0000      0.0       0.0 "f/m"      "vf/f"    "Strongly_fluvial_infloenced_upper_shoreface_or_very_proximat_mouth_bar_complex"             "Lower_delta_plain_channel_or_proximal_delta_front_complex"
4479.5 "6506_12-7"  75.7800 "Sandstone" -999.25                       -999.25 100.0000      0.0       0.0 "f/m"      "vf/f"    "Strongly_fluvial_infloenced_upper_shoreface_or_very_proximat_mouth_bar_complex"             "Lower_delta_plain_channel_or_proximal_delta_front_complex"
4479.6 "6506_12-7"  76.2400 "Sandstone" -999.25                       -999.25 100.0000      0.0       0.0 "f/m"      "vf/f"    "Strongly_fluvial_infloenced_upper_shoreface_or_very_proximat_mouth_bar_complex"             "Lower_delta_plain_channel_or_proximal_delta_front_complex"
