~Version
VERS  .                                 3.0 : CWLS LAS ASCII Standard - Version 3.0
WRAP  . NO                                  : One line per depth step
DLM   . SPACE                               : Column data section delimiter
SOURCE. Converted to LAS by Log Studio 4.76 : GeoProvider

~Well
STRT.         4053.4 : Start depth
STOP.         4700.0 : Stop depth
STEP.              1 : Step
NULL.        -999.25 : No-value
COMP.                : Company
WELL. 6506/12-7      : Well
FLD .                : Field
LOC .                : Location
LATI.                : Latitude
LONG.                : Longitude
GDAT.                : Geodetic datum
CNTY.                : County
STAT.                : State
CTRY.                : Country
SRVC. GeoProvider AS : Service company
DATE.                : Date
API .                : API number
RUN .                : Run number

~Parameters
WellboreName.  : Wellbore name
RigName     .  : Rig name
StartDate   .  : Start date

~Curves
DEPTH.m            .  : null {F}Depth mMD
Hole_ID.-          .  : null {S}Hole ID
GR.API             .  : null {F}Gamma Ray
Lithology1.-       .  : null {S}Lithology 1
Lithology2.-       .  : null {S}Lithology 2
Lithology3.-       .  : null {S}Lithology 3
Lithology1.%       .  : null {F}Lithology 1 percentage
Lithology2.%       .  : null {F}Lithology 2 percentage
Lithology3.%       .  : null {F}Lithology 3 percentage
Grain_size_Top.-   .  : null {S}Grain size at the top 
Grain_size_Base.-  .  : null {S}Grain size at the bottom
Sub_Environment.-  .  : null {S}Sub Environment
Gross_Environment.-.  : null {S}Gross Environment

~Ascii
# ...
4682.7 "6506_12-7"  97.3100 "Sandstone" "Mudstone"                    -999.25  20.0000 80.00000       0.0 "silt/vf"  "c/vc"    "Open_marine_offshore"                                                                       "PRODELTA/OUTER_SHELF"                                   
4682.8 "6506_12-7"  98.0100 "Sandstone" "Mudstone"                    -999.25  20.0000 80.00000       0.0 "silt/vf"  "c/vc"    "Open_marine_offshore"                                                                       "PRODELTA/OUTER_SHELF"                                   
4682.9 "6506_12-7"  98.5000 "Sandstone" "Mudstone"                    -999.25  20.0000 80.00000       0.0 "silt/vf"  "c/vc"    "Open_marine_offshore"                                                                       "PRODELTA/OUTER_SHELF"                                   
4683.0 "6506_12-7"  98.9900 "Sandstone" "Mudstone"                    -999.25  20.0000 80.00000       0.0 "silt/vf"  "c/vc"    "Open_marine_offshore"                                                                       "PRODELTA/OUTER_SHELF"                                   
4683.1 "6506_12-7"  99.2900 "Sandstone" "Mudstone"                    -999.25  20.0000 80.00000       0.0 "silt/vf"  "c/vc"    "Open_marine_offshore"                                                                       "PRODELTA/OUTER_SHELF"                                   
4683.2 "6506_12-7"  99.5400 "Sandstone" "Mudstone"                    -999.25  20.0000 80.00000       0.0 "silt/vf"  "c/vc"    "Open_marine_offshore"                                                                       "PRODELTA/OUTER_SHELF"                                   
4683.3 "6506_12-7"  99.4900 "Sandstone" "Mudstone"                    -999.25  20.0000 80.00000       0.0 "silt/vf"  "c/vc"    "Open_marine_offshore"                                                                       "PRODELTA/OUTER_SHELF"                                   
4683.4 "6506_12-7"  99.3800 "Sandstone" "Mudstone"                    -999.25  20.0000 80.00000       0.0 "silt/vf"  "c/vc"    "Open_marine_offshore"                                                                       "PRODELTA/OUTER_SHELF"                                   
4683.5 "6506_12-7"  99.2800 "Sandstone" "Mudstone"                    -999.25  20.0000 80.00000       0.0 "silt/vf"  "c/vc"    "Open_marine_offshore"                                                                       "PRODELTA/OUTER_SHELF"                                   
4683.6 "6506_12-7"  99.1700 "Sandstone" "Mudstone"                    -999.25  20.0000 80.00000       0.0 "silt/vf"  "c/vc"    "Open_marine_offshore"                                                                       "PRODELTA/OUTER_SHELF"                                   
4683.7 "6506_12-7"  99.0800 "Sandstone" "Mudstone"                    -999.25  20.0000 80.00000       0.0 "silt/vf"  "c/vc"    "Open_marine_offshore"                                                                       "PRODELTA/OUTER_SHELF"                                   
4683.8 "6506_12-7"  98.9800 "Sandstone" "Mudstone"                    -999.25  20.0000 80.00000       0.0 "silt/vf"  "c/vc"    "Open_marine_offshore"                                                                       "PRODELTA/OUTER_SHELF"                                   
4683.9 "6506_12-7"  98.9400 "Sandstone" "Mudstone"                    -999.25  20.0000 80.00000       0.0 "silt/vf"  "c/vc"    "Open_marine_offshore"                                                                       "PRODELTA/OUTER_SHELF"                                   
4684.0 "6506_12-7"  99.1700 "Sandstone" "Mudstone"                    -999.25  20.0000 80.00000       0.0 "silt/vf"  "c/vc"    "Open_marine_offshore"                                                                       "PRODELTA/OUTER_SHELF"                                   
4684.1 "6506_12-7"  99.4000 "Sandstone" "Mudstone"                    -999.25  20.0000 80.00000       0.0 "silt/vf"  "c/vc"    "Open_marine_offshore"                                                                       "PRODELTA/OUTER_SHELF"                                   
4684.2 "6506_12-7"  99.6300 "Sandstone" "Mudstone"                    -999.25  20.0000 80.00000       0.0 "silt/vf"  "c/vc"    "Open_marine_offshore"                                                                       "PRODELTA/OUTER_SHELF"                                   
4684.3 "6506_12-7"  99.8700 "Sandstone" "Mudstone"                    -999.25  20.0000 80.00000       0.0 "silt/vf"  "c/vc"    "Open_marine_offshore"                                                                       "PRODELTA/OUTER_SHELF"                                   
4684.4 "6506_12-7"  99.9400 "Sandstone" "Mudstone"                    -999.25  20.0000 80.00000       0.0 "silt/vf"  "c/vc"    "Open_marine_offshore"                                                                       "PRODELTA/OUTER_SHELF"                                   
4684.5 "6506_12-7" 100.0100 "Sandstone" "Mudstone"                    -999.25  20.0000 80.00000       0.0 "silt/vf"  "c/vc"    "Open_marine_offshore"                                                                       "PRODELTA/OUTER_SHELF"                                   
4684.6 "6506_12-7" 100.0500 "Sandstone" "Mudstone"                    -999.25  20.0000 80.00000       0.0 "silt/vf"  "c/vc"    "Open_marine_offshore"                                                                       "PRODELTA/OUTER_SHELF"                                   
4684.7 "6506_12-7"  99.9100 "Sandstone" "Mudstone"                    -999.25  20.0000 80.00000       0.0 "silt/vf"  "c/vc"    "Open_marine_offshore"                                                                       "PRODELTA/OUTER_SHELF"                                   
4684.8 "6506_12-7"  99.7800 "Sandstone" "Mudstone"                    -999.25  20.0000 80.00000       0.0 "silt/vf"  "c/vc"    "Open_marine_offshore"                                                                       "PRODELTA/OUTER_SHELF"                                   
4684.9 "6506_12-7"  99.6400 "Sandstone" "Mudstone"                    -999.25  20.0000 80.00000       0.0 "silt/vf"  "c/vc"    "Open_marine_offshore"                                                                       "PRODELTA/OUTER_SHELF"                                   
4685.0 "6506_12-7"  99.5100 "Sandstone" "Mudstone"                    -999.25  20.0000 80.00000       0.0 "silt/vf"  "c/vc"    "Open_marine_offshore"                                                                       "PRODELTA/OUTER_SHELF"                                   
4685.1 "6506_12-7"  99.7000 "Sandstone" "Mudstone"                    -999.25  20.0000 80.00000       0.0 "silt/vf"  "c/vc"    "Open_marine_offshore"                                                                       "PRODELTA/OUTER_SHELF"                                   
4685.2 "6506_12-7"  99.9900 "Sandstone" "Mudstone"                    -999.25  20.0000 80.00000       0.0 "silt/vf"  "c/vc"    "Open_marine_offshore"                                                                       "PRODELTA/OUTER_SHELF"                                   
4685.3 "6506_12-7" 100.3100 "Sandstone" "Mudstone"                    -999.25  20.0000 80.00000       0.0 "silt/vf"  "c/vc"    "Open_marine_offshore"                                                                       "PRODELTA/OUTER_SHELF"                                   
4685.4 "6506_12-7" 100.5500 "Sandstone" "Mudstone"                    -999.25  20.0000 80.00000       0.0 "silt/vf"  "c/vc"    "Open_marine_offshore"                                                                       "PRODELTA/OUTER_SHELF"                                   
4685.5 "6506_12-7" 100.5500 "Sandstone" "Mudstone"                    -999.25  20.0000 80.00000       0.0 "silt/vf"  "c/vc"    "Open_marine_offshore"                                                                       "PRODELTA/OUTER_SHELF"                                   
