~Version
VERS  .                                 3.0 : CWLS LAS ASCII Standard - Version 3.0
WRAP  . NO                                  : One line per depth step
DLM   . SPACE                               : Column data section delimiter
SOURCE. Converted to LAS by Log Studio 4.76 : GeoProvider

~Well
STRT.         4053.4 : Start depth
STOP.         4700.0 : Stop depth
STEP.              1 : Step
NULL.        -999.25 : No-value
COMP.                : Company
WELL. 6506/12-7      : Well
FLD .                : Field
LOC .                : Location
LATI.                : Latitude
LONG.                : Longitude
GDAT.                : Geodetic datum
CNTY.                : County
STAT.                : State
CTRY.                : Country
SRVC. GeoProvider AS : Service company
DATE.                : Date
API .                : API number
RUN .                : Run number

~Parameters
WellboreName.  : Wellbore name
RigName     .  : Rig name
StartDate   .  : Start date

~Curves
DEPTH.m            .  : null {F}Depth mMD
Hole_ID.-          .  : null {S}Hole ID
GR.API             .  : null {F}Gamma Ray
Lithology1.-       .  : null {S}Lithology 1
Lithology2.-       .  : null {S}Lithology 2
Lithology3.-       .  : null {S}Lithology 3
Lithology1.%       .  : null {F}Lithology 1 percentage
Lithology2.%       .  : null {F}Lithology 2 percentage
Lithology3.%       .  : null {F}Lithology 3 percentage
Grain_size_Top.-   .  : null {S}Grain size at the top 
Grain_size_Base.-  .  : null {S}Grain size at the bottom
Sub_Environment.-  .  : null {S}Sub Environment
Gross_Environment.-.  : null {S}Gross Environment

~Ascii
# ...
4674.0 "6506_12-7"  -999.25 "Sandstone" "Mudstone"                    -999.25  20.0000 80.00000       0.0 "silt/vf"  "c/vc"    "Coarsening-upwards_due_to_prograding_delta_front"                                           "PRODELTA/OUTER_SHELF"                                   
4674.1 "6506_12-7"  -999.25 "Sandstone" "Mudstone"                    -999.25  20.0000 80.00000       0.0 "silt/vf"  "c/vc"    "Coarsening-upwards_due_to_prograding_delta_front"                                           "PRODELTA/OUTER_SHELF"                                   
4674.2 "6506_12-7"  -999.25 "Sandstone" "Mudstone"                    -999.25  20.0000 80.00000       0.0 "silt/vf"  "c/vc"    "Coarsening-upwards_due_to_prograding_delta_front"                                           "PRODELTA/OUTER_SHELF"                                   
4674.3 "6506_12-7"  72.9600 "Sandstone" "Mudstone"                    -999.25  20.0000 80.00000       0.0 "silt/vf"  "c/vc"    "Coarsening-upwards_due_to_prograding_delta_front"                                           "PRODELTA/OUTER_SHELF"                                   
4674.4 "6506_12-7"  73.1800 "Sandstone" "Mudstone"                    -999.25  20.0000 80.00000       0.0 "silt/vf"  "c/vc"    "Coarsening-upwards_due_to_prograding_delta_front"                                           "PRODELTA/OUTER_SHELF"                                   
4674.5 "6506_12-7"  76.0500 "Sandstone" "Mudstone"                    -999.25  20.0000 80.00000       0.0 "silt/vf"  "c/vc"    "Coarsening-upwards_due_to_prograding_delta_front"                                           "PRODELTA/OUTER_SHELF"                                   
4674.6 "6506_12-7"  80.8700 "Sandstone" "Mudstone"                    -999.25  20.0000 80.00000       0.0 "silt/vf"  "c/vc"    "Coarsening-upwards_due_to_prograding_delta_front"                                           "PRODELTA/OUTER_SHELF"                                   
4674.7 "6506_12-7"  86.6400 "Sandstone" "Mudstone"                    -999.25  20.0000 80.00000       0.0 "silt/vf"  "c/vc"    "Coarsening-upwards_due_to_prograding_delta_front"                                           "PRODELTA/OUTER_SHELF"                                   
4674.8 "6506_12-7"  89.2900 "Sandstone" "Mudstone"                    -999.25  20.0000 80.00000       0.0 "silt/vf"  "c/vc"    "Coarsening-upwards_due_to_prograding_delta_front"                                           "PRODELTA/OUTER_SHELF"                                   
4674.9 "6506_12-7"  90.2900 "Sandstone" "Mudstone"                    -999.25  20.0000 80.00000       0.0 "silt/vf"  "c/vc"    "Coarsening-upwards_due_to_prograding_delta_front"                                           "PRODELTA/OUTER_SHELF"                                   
4675.0 "6506_12-7"  90.1600 "Sandstone" "Mudstone"                    -999.25  20.0000 80.00000       0.0 "silt/vf"  "c/vc"    "Coarsening-upwards_due_to_prograding_delta_front"                                           "PRODELTA/OUTER_SHELF"                                   
4675.1 "6506_12-7"  89.4900 "Sandstone" "Mudstone"                    -999.25  20.0000 80.00000       0.0 "silt/vf"  "c/vc"    "Coarsening-upwards_due_to_prograding_delta_front"                                           "PRODELTA/OUTER_SHELF"                                   
4675.2 "6506_12-7"  88.0400 "Sandstone" "Mudstone"                    -999.25  20.0000 80.00000       0.0 "silt/vf"  "c/vc"    "Coarsening-upwards_due_to_prograding_delta_front"                                           "PRODELTA/OUTER_SHELF"                                   
4675.3 "6506_12-7"  86.4600 "Sandstone" "Mudstone"                    -999.25  20.0000 80.00000       0.0 "silt/vf"  "c/vc"    "Coarsening-upwards_due_to_prograding_delta_front"                                           "PRODELTA/OUTER_SHELF"                                   
4675.4 "6506_12-7"  85.1700 "Sandstone" "Mudstone"                    -999.25  20.0000 80.00000       0.0 "silt/vf"  "c/vc"    "Coarsening-upwards_due_to_prograding_delta_front"                                           "PRODELTA/OUTER_SHELF"                                   
4675.5 "6506_12-7"  84.3600 "Sandstone" "Mudstone"                    -999.25  20.0000 80.00000       0.0 "silt/vf"  "c/vc"    "Coarsening-upwards_due_to_prograding_delta_front"                                           "PRODELTA/OUTER_SHELF"                                   
4675.6 "6506_12-7"  84.3100 "Sandstone" "Mudstone"                    -999.25  20.0000 80.00000       0.0 "silt/vf"  "c/vc"    "Coarsening-upwards_due_to_prograding_delta_front"                                           "PRODELTA/OUTER_SHELF"                                   
4675.7 "6506_12-7"  84.3200 "Sandstone" "Mudstone"                    -999.25  20.0000 80.00000       0.0 "silt/vf"  "c/vc"    "Coarsening-upwards_due_to_prograding_delta_front"                                           "PRODELTA/OUTER_SHELF"                                   
4675.8 "6506_12-7"  84.8800 "Sandstone" "Mudstone"                    -999.25  20.0000 80.00000       0.0 "silt/vf"  "c/vc"    "Coarsening-upwards_due_to_prograding_delta_front"                                           "PRODELTA/OUTER_SHELF"                                   
4675.9 "6506_12-7"  85.5600 "Sandstone" "Mudstone"                    -999.25  20.0000 80.00000       0.0 "silt/vf"  "c/vc"    "Coarsening-upwards_due_to_prograding_delta_front"                                           "PRODELTA/OUTER_SHELF"                                   
4676.0 "6506_12-7"  86.4700 "Sandstone" "Mudstone"                    -999.25  20.0000 80.00000       0.0 "silt/vf"  "c/vc"    "Coarsening-upwards_due_to_prograding_delta_front"                                           "PRODELTA/OUTER_SHELF"                                   
4676.1 "6506_12-7"  86.6700 "Sandstone" "Mudstone"                    -999.25  20.0000 80.00000       0.0 "silt/vf"  "c/vc"    "Coarsening-upwards_due_to_prograding_delta_front"                                           "PRODELTA/OUTER_SHELF"                                   
4676.2 "6506_12-7"  86.6500 "Sandstone" "Mudstone"                    -999.25  20.0000 80.00000       0.0 "silt/vf"  "c/vc"    "Coarsening-upwards_due_to_prograding_delta_front"                                           "PRODELTA/OUTER_SHELF"                                   
4676.3 "6506_12-7"  86.6200 "Sandstone" "Mudstone"                    -999.25  20.0000 80.00000       0.0 "silt/vf"  "c/vc"    "Coarsening-upwards_due_to_prograding_delta_front"                                           "PRODELTA/OUTER_SHELF"                                   
4676.4 "6506_12-7"  86.5500 "Sandstone" "Mudstone"                    -999.25  20.0000 80.00000       0.0 "silt/vf"  "c/vc"    "Coarsening-upwards_due_to_prograding_delta_front"                                           "PRODELTA/OUTER_SHELF"                                   
4676.5 "6506_12-7"  85.7200 "Sandstone" "Mudstone"                    -999.25  20.0000 80.00000       0.0 "silt/vf"  "c/vc"    "Coarsening-upwards_due_to_prograding_delta_front"                                           "PRODELTA/OUTER_SHELF"                                   
4676.6 "6506_12-7"  84.8900 "Sandstone" "Mudstone"                    -999.25  20.0000 80.00000       0.0 "silt/vf"  "c/vc"    "Coarsening-upwards_due_to_prograding_delta_front"                                           "PRODELTA/OUTER_SHELF"                                   
4676.7 "6506_12-7"  83.8600 "Sandstone" "Mudstone"                    -999.25  20.0000 80.00000       0.0 "silt/vf"  "c/vc"    "Coarsening-upwards_due_to_prograding_delta_front"                                           "PRODELTA/OUTER_SHELF"                                   
4676.8 "6506_12-7"  82.8000 "Sandstone" "Mudstone"                    -999.25  20.0000 80.00000       0.0 "silt/vf"  "c/vc"    "Coarsening-upwards_due_to_prograding_delta_front"                                           "PRODELTA/OUTER_SHELF"                                   
