~Version
VERS  .                                 3.0 : CWLS LAS ASCII Standard - Version 3.0
WRAP  . NO                                  : One line per depth step
DLM   . SPACE                               : Column data section delimiter
SOURCE. Converted to LAS by Log Studio 4.76 : GeoProvider

~Well
STRT.         4053.4 : Start depth
STOP.         4700.0 : Stop depth
STEP.              1 : Step
NULL.        -999.25 : No-value
COMP.                : Company
WELL. 6506/12-7      : Well
FLD .                : Field
LOC .                : Location
LATI.                : Latitude
LONG.                : Longitude
GDAT.                : Geodetic datum
CNTY.                : County
STAT.                : State
CTRY.                : Country
SRVC. GeoProvider AS : Service company
DATE.                : Date
API .                : API number
RUN .                : Run number

~Parameters
WellboreName.  : Wellbore name
RigName     .  : Rig name
StartDate   .  : Start date

~Curves
DEPTH.m            .  : null {F}Depth mMD
Hole_ID.-          .  : null {S}Hole ID
GR.API             .  : null {F}Gamma Ray
Lithology1.-       .  : null {S}Lithology 1
Lithology2.-       .  : null {S}Lithology 2
Lithology3.-       .  : null {S}Lithology 3
Lithology1.%       .  : null {F}Lithology 1 percentage
Lithology2.%       .  : null {F}Lithology 2 percentage
Lithology3.%       .  : null {F}Lithology 3 percentage
Grain_size_Top.-   .  : null {S}Grain size at the top 
Grain_size_Base.-  .  : null {S}Grain size at the bottom
Sub_Environment.-  .  : null {S}Sub Environment
Gross_Environment.-.  : null {S}Gross Environment

~Ascii
# ...
4433.3 "6506_12-7"  49.0200 "Sandstone" -999.25                       -999.25 100.0000      0.0       0.0 "m/c"      "c"       "Shallow_marine_(Upper_shoreface/foreshore)_evt._Mouth_bars._Mineralogical_immature_sediments" "Proximal_delta_front"                                   
4433.4 "6506_12-7"  48.3500 "Sandstone" -999.25                       -999.25 100.0000      0.0       0.0 "m/c"      "c"       "Shallow_marine_(Upper_shoreface/foreshore)_evt._Mouth_bars._Mineralogical_immature_sediments" "Proximal_delta_front"                                   
4433.5 "6506_12-7"  48.2900 "Sandstone" -999.25                       -999.25 100.0000      0.0       0.0 "m/c"      "c"       "Shallow_marine_(Upper_shoreface/foreshore)_evt._Mouth_bars._Mineralogical_immature_sediments" "Proximal_delta_front"                                   
4433.6 "6506_12-7"  48.4300 "Sandstone" -999.25                       -999.25 100.0000      0.0       0.0 "m/c"      "c"       "Shallow_marine_(Upper_shoreface/foreshore)_evt._Mouth_bars._Mineralogical_immature_sediments" "Proximal_delta_front"                                   
4433.7 "6506_12-7"  48.5800 "Sandstone" -999.25                       -999.25 100.0000      0.0       0.0 "m/c"      "c"       "Shallow_marine_(Upper_shoreface/foreshore)_evt._Mouth_bars._Mineralogical_immature_sediments" "Proximal_delta_front"                                   
4433.8 "6506_12-7"  48.7300 "Sandstone" -999.25                       -999.25 100.0000      0.0       0.0 "m/c"      "c"       "Shallow_marine_(Upper_shoreface/foreshore)_evt._Mouth_bars._Mineralogical_immature_sediments" "Proximal_delta_front"                                   
4433.9 "6506_12-7"  49.0000 "Sandstone" -999.25                       -999.25 100.0000      0.0       0.0 "m/c"      "c"       "Shallow_marine_(Upper_shoreface/foreshore)_evt._Mouth_bars._Mineralogical_immature_sediments" "Proximal_delta_front"                                   
4434.0 "6506_12-7"  49.3200 "Sandstone" -999.25                       -999.25 100.0000      0.0       0.0 "m/c"      "c"       "Shallow_marine_(Upper_shoreface/foreshore)_evt._Mouth_bars._Mineralogical_immature_sediments" "Proximal_delta_front"                                   
4434.1 "6506_12-7"  49.6500 "Sandstone" -999.25                       -999.25 100.0000      0.0       0.0 "m/c"      "c"       "Shallow_marine_(Upper_shoreface/foreshore)_evt._Mouth_bars._Mineralogical_immature_sediments" "Proximal_delta_front"                                   
4434.2 "6506_12-7"  49.6900 "Sandstone" -999.25                       -999.25 100.0000      0.0       0.0 "m/c"      "c"       "Shallow_marine_(Upper_shoreface/foreshore)_evt._Mouth_bars._Mineralogical_immature_sediments" "Proximal_delta_front"                                   
4434.3 "6506_12-7"  49.3700 "Sandstone" -999.25                       -999.25 100.0000      0.0       0.0 "m/c"      "c"       "Shallow_marine_(Upper_shoreface/foreshore)_evt._Mouth_bars._Mineralogical_immature_sediments" "Proximal_delta_front"                                   
4434.4 "6506_12-7"  49.0400 "Sandstone" -999.25                       -999.25 100.0000      0.0       0.0 "m/c"      "c"       "Shallow_marine_(Upper_shoreface/foreshore)_evt._Mouth_bars._Mineralogical_immature_sediments" "Proximal_delta_front"                                   
4434.5 "6506_12-7"  48.7200 "Sandstone" -999.25                       -999.25 100.0000      0.0       0.0 "m/c"      "c"       "Shallow_marine_(Upper_shoreface/foreshore)_evt._Mouth_bars._Mineralogical_immature_sediments" "Proximal_delta_front"                                   
4434.6 "6506_12-7"  48.3900 "Sandstone" -999.25                       -999.25 100.0000      0.0       0.0 "m/c"      "c"       "Shallow_marine_(Upper_shoreface/foreshore)_evt._Mouth_bars._Mineralogical_immature_sediments" "Proximal_delta_front"                                   
4434.7 "6506_12-7"  48.0500 "Sandstone" -999.25                       -999.25 100.0000      0.0       0.0 "m/c"      "c"       "Shallow_marine_(Upper_shoreface/foreshore)_evt._Mouth_bars._Mineralogical_immature_sediments" "Proximal_delta_front"                                   
4434.8 "6506_12-7"  47.7200 "Sandstone" -999.25                       -999.25 100.0000      0.0       0.0 "m/c"      "c"       "Shallow_marine_(Upper_shoreface/foreshore)_evt._Mouth_bars._Mineralogical_immature_sediments" "Proximal_delta_front"                                   
4434.9 "6506_12-7"  47.4400 "Sandstone" -999.25                       -999.25 100.0000      0.0       0.0 "m/c"      "c"       "Shallow_marine_(Upper_shoreface/foreshore)_evt._Mouth_bars._Mineralogical_immature_sediments" "Proximal_delta_front"                                   
4435.0 "6506_12-7"  47.6000 "Sandstone" -999.25                       -999.25 100.0000      0.0       0.0 "m/c"      "c"       "Shallow_marine_(Upper_shoreface/foreshore)_evt._Mouth_bars._Mineralogical_immature_sediments" "Proximal_delta_front"                                   
4435.1 "6506_12-7"  47.7500 "Sandstone" -999.25                       -999.25 100.0000      0.0       0.0 "m/c"      "c"       "Shallow_marine_(Upper_shoreface/foreshore)_evt._Mouth_bars._Mineralogical_immature_sediments" "Proximal_delta_front"                                   
4435.2 "6506_12-7"  47.9400 "Sandstone" -999.25                       -999.25 100.0000      0.0       0.0 "m/c"      "c"       "Shallow_marine_(Upper_shoreface/foreshore)_evt._Mouth_bars._Mineralogical_immature_sediments" "Proximal_delta_front"                                   
4435.3 "6506_12-7"  48.2100 "Sandstone" -999.25                       -999.25 100.0000      0.0       0.0 "m/c"      "c"       "Shallow_marine_(Upper_shoreface/foreshore)_evt._Mouth_bars._Mineralogical_immature_sediments" "Proximal_delta_front"                                   
4435.4 "6506_12-7"  48.4800 "Sandstone" -999.25                       -999.25 100.0000      0.0       0.0 "m/c"      "c"       "Shallow_marine_(Upper_shoreface/foreshore)_evt._Mouth_bars._Mineralogical_immature_sediments" "Proximal_delta_front"                                   
4435.5 "6506_12-7"  48.7600 "Sandstone" -999.25                       -999.25 100.0000      0.0       0.0 "m/c"      "c"       "Shallow_marine_(Upper_shoreface/foreshore)_evt._Mouth_bars._Mineralogical_immature_sediments" "Proximal_delta_front"                                   
4435.6 "6506_12-7"  48.7300 -999.25   -999.25                       -999.25 100.0000      0.0       0.0 -999.25    -999.25   "Shallow_marine_(Upper_shoreface/foreshore)_evt._Mouth_bars._Mineralogical_immature_sediments" "Proximal_delta_front"                                   
4435.7 "6506_12-7"  48.4800 -999.25   -999.25                       -999.25 100.0000      0.0       0.0 -999.25    -999.25   "Shallow_marine_(Upper_shoreface/foreshore)_evt._Mouth_bars._Mineralogical_immature_sediments" "Proximal_delta_front"                                   
4435.8 "6506_12-7"  48.1300 -999.25   -999.25                       -999.25 100.0000      0.0       0.0 -999.25    -999.25   "Shallow_marine_(Upper_shoreface/foreshore)_evt._Mouth_bars._Mineralogical_immature_sediments" "Proximal_delta_front"                                   
4435.9 "6506_12-7"  47.7300 -999.25   -999.25                       -999.25 100.0000      0.0       0.0 -999.25    -999.25   "Shallow_marine_(Upper_shoreface/foreshore)_evt._Mouth_bars._Mineralogical_immature_sediments" "Proximal_delta_front"                                   
4436.0 "6506_12-7"  47.3300 -999.25   -999.25                       -999.25 100.0000      0.0       0.0 -999.25    -999.25   "Shallow_marine_(Upper_shoreface/foreshore)_evt._Mouth_bars._Mineralogical_immature_sediments" "Proximal_delta_front"                                   
4436.1 "6506_12-7"  46.9200 "Sandstone" "Limestone"                   -999.25  90.0000  8.00000       0.0 "f/m"      "m/c"     "Shallow_marine_(Upper_shoreface/foreshore)_evt._Mouth_bars._Mineralogical_immature_sediments" "Proximal_delta_front"                                   
