~Version
VERS  .                                 3.0 : CWLS LAS ASCII Standard - Version 3.0
WRAP  . NO                                  : One line per depth step
DLM   . SPACE                               : Column data section delimiter
SOURCE. Converted to LAS by Log Studio 4.76 : GeoProvider

~Well
STRT.         4053.4 : Start depth
STOP.         4700.0 : Stop depth
STEP.              1 : Step
NULL.        -999.25 : No-value
COMP.                : Company
WELL. 6506/12-7      : Well
FLD .                : Field
LOC .                : Location
LATI.                : Latitude
LONG.                : Longitude
GDAT.                : Geodetic datum
CNTY.                : County
STAT.                : State
CTRY.                : Country
SRVC. GeoProvider AS : Service company
DATE.                : Date
API .                : API number
RUN .                : Run number

~Parameters
WellboreName.  : Wellbore name
RigName     .  : Rig name
StartDate   .  : Start date

~Curves
DEPTH.m            .  : null {F}Depth mMD
Hole_ID.-          .  : null {S}Hole ID
GR.API             .  : null {F}Gamma Ray
Lithology1.-       .  : null {S}Lithology 1
Lithology2.-       .  : null {S}Lithology 2
Lithology3.-       .  : null {S}Lithology 3
Lithology1.%       .  : null {F}Lithology 1 percentage
Lithology2.%       .  : null {F}Lithology 2 percentage
Lithology3.%       .  : null {F}Lithology 3 percentage
Grain_size_Top.-   .  : null {S}Grain size at the top 
Grain_size_Base.-  .  : null {S}Grain size at the bottom
Sub_Environment.-  .  : null {S}Sub Environment
Gross_Environment.-.  : null {S}Gross Environment

~Ascii
# ...
4500.0 "6506_12-7"  55.7200 "Sandstone" -999.25                       -999.25 100.0000      0.0       0.0 "c/vc"     "vc"      "Fluvial_channel/mouth_bar_complex"                                                          "Lower_delta_plain_channel_or_proximal_delta_front_complex"
4500.1 "6506_12-7"  57.0400 "Sandstone" -999.25                       -999.25 100.0000      0.0       0.0 "c/vc"     "vc"      "Fluvial_channel/mouth_bar_complex"                                                          "Lower_delta_plain_channel_or_proximal_delta_front_complex"
4500.2 "6506_12-7"  58.9400 "Sandstone" -999.25                       -999.25 100.0000      0.0       0.0 "c/vc"     "vc"      "Fluvial_channel/mouth_bar_complex"                                                          "Lower_delta_plain_channel_or_proximal_delta_front_complex"
4500.3 "6506_12-7"  61.4600 "Sandstone" -999.25                       -999.25 100.0000      0.0       0.0 "vc"       "m/c"     "Fluvial_channel/mouth_bar_complex"                                                          "Lower_delta_plain_channel_or_proximal_delta_front_complex"
4500.4 "6506_12-7"  64.1300 "Sandstone" -999.25                       -999.25 100.0000      0.0       0.0 "vc"       "m/c"     "Fluvial_channel/mouth_bar_complex"                                                          "Lower_delta_plain_channel_or_proximal_delta_front_complex"
4500.5 "6506_12-7"  66.5700 "Sandstone" -999.25                       -999.25 100.0000      0.0       0.0 "vc"       "m/c"     "Fluvial_channel/mouth_bar_complex"                                                          "Lower_delta_plain_channel_or_proximal_delta_front_complex"
4500.6 "6506_12-7"  68.0700 "Sandstone" -999.25                       -999.25 100.0000      0.0       0.0 "vc"       "m/c"     "Fluvial_channel/mouth_bar_complex"                                                          "Lower_delta_plain_channel_or_proximal_delta_front_complex"
4500.7 "6506_12-7"  67.6800 "Sandstone" -999.25                       -999.25 100.0000      0.0       0.0 "vc"       "m/c"     "Fluvial_channel/mouth_bar_complex"                                                          "Lower_delta_plain_channel_or_proximal_delta_front_complex"
4500.8 "6506_12-7"  66.1900 "Sandstone" -999.25                       -999.25 100.0000      0.0       0.0 "vc"       "m/c"     "Fluvial_channel/mouth_bar_complex"                                                          "Lower_delta_plain_channel_or_proximal_delta_front_complex"
4500.9 "6506_12-7"  63.2000 "Sandstone" -999.25                       -999.25 100.0000      0.0       0.0 "vc"       "m/c"     "Fluvial_channel/mouth_bar_complex"                                                          "Lower_delta_plain_channel_or_proximal_delta_front_complex"
4501.0 "6506_12-7"  61.8900 "Sandstone" "Shale"                       -999.25  96.0000  4.00000       0.0 "m/c"      "f/m"     "Fluvial_channel/mouth_bar_complex"                                                          "Lower_delta_plain_channel_or_proximal_delta_front_complex"
4501.1 "6506_12-7"  61.0600 "Sandstone" "Shale"                       -999.25  96.0000  4.00000       0.0 "m/c"      "f/m"     "Fluvial_channel/mouth_bar_complex"                                                          "Lower_delta_plain_channel_or_proximal_delta_front_complex"
4501.2 "6506_12-7"  61.2500 "Sandstone" "Shale"                       -999.25  96.0000  4.00000       0.0 "m/c"      "f/m"     "Fluvial_channel/mouth_bar_complex"                                                          "Lower_delta_plain_channel_or_proximal_delta_front_complex"
4501.3 "6506_12-7"  61.6200 "Sandstone" "Shale"                       -999.25  96.0000  4.00000       0.0 "m/c"      "f/m"     "Fluvial_channel/mouth_bar_complex"                                                          "Lower_delta_plain_channel_or_proximal_delta_front_complex"
4501.4 "6506_12-7"  62.0500 "Sandstone" "Shale"                       -999.25  96.0000  4.00000       0.0 "m/c"      "f/m"     "Fluvial_channel/mouth_bar_complex"                                                          "Lower_delta_plain_channel_or_proximal_delta_front_complex"
4501.5 "6506_12-7"  62.2900 "Sandstone" "Shale"                       -999.25  96.0000  4.00000       0.0 "m/c"      "f/m"     "Fluvial_channel/mouth_bar_complex"                                                          "Lower_delta_plain_channel_or_proximal_delta_front_complex"
4501.6 "6506_12-7"  62.2300 "Sandstone" "Shale"                       -999.25  96.0000  4.00000       0.0 "m/c"      "f/m"     "Fluvial_channel/mouth_bar_complex"                                                          "Lower_delta_plain_channel_or_proximal_delta_front_complex"
4501.7 "6506_12-7"  61.1300 "Sandstone" -999.25                       -999.25 100.0000      0.0       0.0 "vc"       "f/m"     "Fluvial_channel/mouth_bar_complex"                                                          "Lower_delta_plain_channel_or_proximal_delta_front_complex"
4501.8 "6506_12-7"  59.7400 "Sandstone" -999.25                       -999.25 100.0000      0.0       0.0 "vc"       "f/m"     "Fluvial_channel/mouth_bar_complex"                                                          "Lower_delta_plain_channel_or_proximal_delta_front_complex"
4501.9 "6506_12-7"  58.3600 "Sandstone" -999.25                       -999.25 100.0000      0.0       0.0 "vc"       "f/m"     "Fluvial_channel/mouth_bar_complex"                                                          "Lower_delta_plain_channel_or_proximal_delta_front_complex"
4502.0 "6506_12-7"  57.0200 "Sandstone" -999.25                       -999.25 100.0000      0.0       0.0 "vc"       "f/m"     "Fluvial_channel/mouth_bar_complex"                                                          "Lower_delta_plain_channel_or_proximal_delta_front_complex"
4502.1 "6506_12-7"  55.8100 "Sandstone" -999.25                       -999.25 100.0000      0.0       0.0 "vc"       "f/m"     "Fluvial_channel/mouth_bar_complex"                                                          "Lower_delta_plain_channel_or_proximal_delta_front_complex"
4502.2 "6506_12-7"  55.1700 "Sandstone" -999.25                       -999.25 100.0000      0.0       0.0 "vc"       "f/m"     "Fluvial_channel/mouth_bar_complex"                                                          "Lower_delta_plain_channel_or_proximal_delta_front_complex"
4502.3 "6506_12-7"  54.7500 "Sandstone" -999.25                       -999.25 100.0000      0.0       0.0 "vc"       "f/m"     "Fluvial_channel/mouth_bar_complex"                                                          "Lower_delta_plain_channel_or_proximal_delta_front_complex"
4502.4 "6506_12-7"  54.6200 "Sandstone" -999.25                       -999.25 100.0000      0.0       0.0 "vc"       "f/m"     "Fluvial_channel/mouth_bar_complex"                                                          "Lower_delta_plain_channel_or_proximal_delta_front_complex"
4502.5 "6506_12-7"  54.6500 "Sandstone" -999.25                       -999.25 100.0000      0.0       0.0 "vc"       "f/m"     "Fluvial_channel/mouth_bar_complex"                                                          "Lower_delta_plain_channel_or_proximal_delta_front_complex"
4502.6 "6506_12-7"  -999.25 -999.25   -999.25                       -999.25  -999.25  -999.25   -999.25 -999.25    -999.25   -999.25                                                                                      -999.25                                                  
4502.7 "6506_12-7"  -999.25 -999.25   -999.25                       -999.25  -999.25  -999.25   -999.25 -999.25    -999.25   -999.25                                                                                      -999.25                                                  
4502.8 "6506_12-7"  -999.25 -999.25   -999.25                       -999.25  -999.25  -999.25   -999.25 -999.25    -999.25   -999.25                                                                                      -999.25                                                  
