~Version
VERS  .                                 3.0 : CWLS LAS ASCII Standard - Version 3.0
WRAP  . NO                                  : One line per depth step
DLM   . SPACE                               : Column data section delimiter
SOURCE. Converted to LAS by Log Studio 4.76 : GeoProvider

~Well
STRT.         4053.4 : Start depth
STOP.         4700.0 : Stop depth
STEP.              1 : Step
NULL.        -999.25 : No-value
COMP.                : Company
WELL. 6506/12-7      : Well
FLD .                : Field
LOC .                : Location
LATI.                : Latitude
LONG.                : Longitude
GDAT.                : Geodetic datum
CNTY.                : County
STAT.                : State
CTRY.                : Country
SRVC. GeoProvider AS : Service company
DATE.                : Date
API .                : API number
RUN .                : Run number

~Parameters
WellboreName.  : Wellbore name
RigName     .  : Rig name
StartDate   .  : Start date

~Curves
DEPTH.m            .  : null {F}Depth mMD
Hole_ID.-          .  : null {S}Hole ID
GR.API             .  : null {F}Gamma Ray
Lithology1.-       .  : null {S}Lithology 1
Lithology2.-       .  : null {S}Lithology 2
Lithology3.-       .  : null {S}Lithology 3
Lithology1.%       .  : null {F}Lithology 1 percentage
Lithology2.%       .  : null {F}Lithology 2 percentage
Lithology3.%       .  : null {F}Lithology 3 percentage
Grain_size_Top.-   .  : null {S}Grain size at the top 
Grain_size_Base.-  .  : null {S}Grain size at the bottom
Sub_Environment.-  .  : null {S}Sub Environment
Gross_Environment.-.  : null {S}Gross Environment

~Ascii
# ...
4494.2 "6506_12-7"  73.7500 "Sandstone" "Limestone"                   -999.25  89.0000  8.00000       0.0 "c/vc"     "vc"      "Fluvial_channel/mouth_bar_complex"                                                          "Lower_delta_plain_channel_or_proximal_delta_front_complex"
4494.3 "6506_12-7"  73.5500 "Sandstone" -999.25                       -999.25 100.0000      0.0       0.0 -999.25    -999.25   "Fluvial_channel/mouth_bar_complex"                                                          "Lower_delta_plain_channel_or_proximal_delta_front_complex"
4494.4 "6506_12-7"  74.7100 "Sandstone" -999.25                       -999.25 100.0000      0.0       0.0 -999.25    -999.25   "Fluvial_channel/mouth_bar_complex"                                                          "Lower_delta_plain_channel_or_proximal_delta_front_complex"
4494.5 "6506_12-7"  76.9200 "Sandstone" -999.25                       -999.25 100.0000      0.0       0.0 -999.25    -999.25   "Fluvial_channel/mouth_bar_complex"                                                          "Lower_delta_plain_channel_or_proximal_delta_front_complex"
4494.6 "6506_12-7"  80.3300 "Sandstone" "Limestone"                   -999.25  92.0000  8.00000       0.0 "c/vc"     "vc"      "Fluvial_channel/mouth_bar_complex"                                                          "Lower_delta_plain_channel_or_proximal_delta_front_complex"
4494.7 "6506_12-7"  84.7800 "Sandstone" "Limestone"                   -999.25  92.0000  8.00000       0.0 "c/vc"     "vc"      "Fluvial_channel/mouth_bar_complex"                                                          "Lower_delta_plain_channel_or_proximal_delta_front_complex"
4494.8 "6506_12-7"  89.2700 "Sandstone" "Limestone"                   -999.25  92.0000  8.00000       0.0 "c/vc"     "vc"      "Fluvial_channel/mouth_bar_complex"                                                          "Lower_delta_plain_channel_or_proximal_delta_front_complex"
4494.9 "6506_12-7"  93.6400 "Sandstone" "Limestone"                   -999.25  92.0000  8.00000       0.0 "c/vc"     "vc"      "Fluvial_channel/mouth_bar_complex"                                                          "Lower_delta_plain_channel_or_proximal_delta_front_complex"
4495.0 "6506_12-7"  96.7400 "Sandstone" "Limestone"                   -999.25  92.0000  8.00000       0.0 "c/vc"     "vc"      "Fluvial_channel/mouth_bar_complex"                                                          "Lower_delta_plain_channel_or_proximal_delta_front_complex"
4495.1 "6506_12-7"  99.4000 "Sandstone" "Limestone"                   -999.25  92.0000  8.00000       0.0 "c/vc"     "vc"      "Fluvial_channel/mouth_bar_complex"                                                          "Lower_delta_plain_channel_or_proximal_delta_front_complex"
4495.2 "6506_12-7"  99.8600 "Sandstone" "Limestone"                   -999.25  92.0000  8.00000       0.0 "c/vc"     "vc"      "Fluvial_channel/mouth_bar_complex"                                                          "Lower_delta_plain_channel_or_proximal_delta_front_complex"
4495.3 "6506_12-7"  96.1100 "Sandstone" "Limestone"                   -999.25  92.0000  8.00000       0.0 "c/vc"     "vc"      "Fluvial_channel/mouth_bar_complex"                                                          "Lower_delta_plain_channel_or_proximal_delta_front_complex"
4495.4 "6506_12-7"  90.7100 "Sandstone" "Limestone"                   -999.25  92.0000  8.00000       0.0 "c/vc"     "vc"      "Fluvial_channel/mouth_bar_complex"                                                          "Lower_delta_plain_channel_or_proximal_delta_front_complex"
4495.5 "6506_12-7"  84.6700 "Sandstone" "Limestone"                   -999.25  92.0000  8.00000       0.0 "c/vc"     "vc"      "Fluvial_channel/mouth_bar_complex"                                                          "Lower_delta_plain_channel_or_proximal_delta_front_complex"
4495.6 "6506_12-7"  78.6200 "Sandstone" "Limestone"                   -999.25  92.0000  8.00000       0.0 "c/vc"     "vc"      "Fluvial_channel/mouth_bar_complex"                                                          "Lower_delta_plain_channel_or_proximal_delta_front_complex"
4495.7 "6506_12-7"  71.9000 "Sandstone" "Limestone"                   -999.25  92.0000  8.00000       0.0 "c/vc"     "vc"      "Fluvial_channel/mouth_bar_complex"                                                          "Lower_delta_plain_channel_or_proximal_delta_front_complex"
4495.8 "6506_12-7"  65.5000 "Sandstone" "Limestone"                   -999.25  92.0000  8.00000       0.0 "c/vc"     "vc"      "Fluvial_channel/mouth_bar_complex"                                                          "Lower_delta_plain_channel_or_proximal_delta_front_complex"
4495.9 "6506_12-7"  59.9700 "Sandstone" "Limestone"                   -999.25  92.0000  8.00000       0.0 "c/vc"     "vc"      "Fluvial_channel/mouth_bar_complex"                                                          "Lower_delta_plain_channel_or_proximal_delta_front_complex"
4496.0 "6506_12-7"  55.4100 "Sandstone" "Limestone"                   -999.25  92.0000  8.00000       0.0 "c/vc"     "vc"      "Fluvial_channel/mouth_bar_complex"                                                          "Lower_delta_plain_channel_or_proximal_delta_front_complex"
4496.1 "6506_12-7"  53.1500 "Sandstone" "Limestone"                   -999.25  92.0000  8.00000       0.0 "c/vc"     "vc"      "Fluvial_channel/mouth_bar_complex"                                                          "Lower_delta_plain_channel_or_proximal_delta_front_complex"
4496.2 "6506_12-7"  52.8300 "Sandstone" "Limestone"                   -999.25  92.0000  8.00000       0.0 "c/vc"     "vc"      "Fluvial_channel/mouth_bar_complex"                                                          "Lower_delta_plain_channel_or_proximal_delta_front_complex"
4496.3 "6506_12-7"  52.8900 "Sandstone" "Limestone"                   -999.25  92.0000  8.00000       0.0 "c/vc"     "vc"      "Fluvial_channel/mouth_bar_complex"                                                          "Lower_delta_plain_channel_or_proximal_delta_front_complex"
4496.4 "6506_12-7"  53.8800 "Sandstone" "Limestone"                   -999.25  92.0000  8.00000       0.0 "c/vc"     "vc"      "Fluvial_channel/mouth_bar_complex"                                                          "Lower_delta_plain_channel_or_proximal_delta_front_complex"
4496.5 "6506_12-7"  54.6700 "Sandstone" "Limestone"                   -999.25  92.0000  8.00000       0.0 "c/vc"     "vc"      "Fluvial_channel/mouth_bar_complex"                                                          "Lower_delta_plain_channel_or_proximal_delta_front_complex"
4496.6 "6506_12-7"  54.5200 "Sandstone" "Limestone"                   -999.25  92.0000  8.00000       0.0 "c/vc"     "vc"      "Fluvial_channel/mouth_bar_complex"                                                          "Lower_delta_plain_channel_or_proximal_delta_front_complex"
4496.7 "6506_12-7"  54.3700 "Sandstone" "Limestone"                   -999.25  92.0000  8.00000       0.0 "c/vc"     "vc"      "Fluvial_channel/mouth_bar_complex"                                                          "Lower_delta_plain_channel_or_proximal_delta_front_complex"
4496.8 "6506_12-7"  54.2300 "Sandstone" "Limestone"                   -999.25  92.0000  8.00000       0.0 "c/vc"     "vc"      "Fluvial_channel/mouth_bar_complex"                                                          "Lower_delta_plain_channel_or_proximal_delta_front_complex"
4496.9 "6506_12-7"  54.2700 "Sandstone" "Limestone"                   -999.25  92.0000  8.00000       0.0 "c/vc"     "vc"      "Fluvial_channel/mouth_bar_complex"                                                          "Lower_delta_plain_channel_or_proximal_delta_front_complex"
4497.0 "6506_12-7"  55.4900 "Sandstone" "Limestone"                   -999.25  92.0000  8.00000       0.0 "c/vc"     "vc"      "Fluvial_channel/mouth_bar_complex"                                                          "Lower_delta_plain_channel_or_proximal_delta_front_complex"
