~Version
VERS  .                                 3.0 : CWLS LAS ASCII Standard - Version 3.0
WRAP  . NO                                  : One line per depth step
DLM   . SPACE                               : Column data section delimiter
SOURCE. Converted to LAS by Log Studio 4.76 : GeoProvider

~Well
STRT.         4053.4 : Start depth
STOP.         4700.0 : Stop depth
STEP.              1 : Step
NULL.        -999.25 : No-value
COMP.                : Company
WELL. 6506/12-7      : Well
FLD .                : Field
LOC .                : Location
LATI.                : Latitude
LONG.                : Longitude
GDAT.                : Geodetic datum
CNTY.                : County
STAT.                : State
CTRY.                : Country
SRVC. GeoProvider AS : Service company
DATE.                : Date
API .                : API number
RUN .                : Run number

~Parameters
WellboreName.  : Wellbore name
RigName     .  : Rig name
StartDate   .  : Start date

~Curves
DEPTH.m            .  : null {F}Depth mMD
Hole_ID.-          .  : null {S}Hole ID
GR.API             .  : null {F}Gamma Ray
Lithology1.-       .  : null {S}Lithology 1
Lithology2.-       .  : null {S}Lithology 2
Lithology3.-       .  : null {S}Lithology 3
Lithology1.%       .  : null {F}Lithology 1 percentage
Lithology2.%       .  : null {F}Lithology 2 percentage
Lithology3.%       .  : null {F}Lithology 3 percentage
Grain_size_Top.-   .  : null {S}Grain size at the top 
Grain_size_Base.-  .  : null {S}Grain size at the bottom
Sub_Environment.-  .  : null {S}Sub Environment
Gross_Environment.-.  : null {S}Gross Environment

~Ascii
# ...
4697.2 "6506_12-7"  58.8100 "Sandstone" -999.25                       -999.25 100.0000      0.0       0.0 "m"        "m/c"     "Upper_shoreface"                                                                            "UPPER_DELTA_FRONT"                                      
4697.3 "6506_12-7"  56.9200 "Sandstone" -999.25                       -999.25 100.0000      0.0       0.0 "m"        "m/c"     "Upper_shoreface"                                                                            "UPPER_DELTA_FRONT"                                      
4697.4 "6506_12-7"  55.8500 "Sandstone" -999.25                       -999.25 100.0000      0.0       0.0 "m"        "m/c"     "Upper_shoreface"                                                                            "UPPER_DELTA_FRONT"                                      
4697.5 "6506_12-7"  55.5300 "Sandstone" -999.25                       -999.25 100.0000      0.0       0.0 "m"        "m/c"     "Upper_shoreface"                                                                            "UPPER_DELTA_FRONT"                                      
4697.6 "6506_12-7"  55.8900 "Sandstone" -999.25                       -999.25 100.0000      0.0       0.0 "m"        "m/c"     "Upper_shoreface"                                                                            "UPPER_DELTA_FRONT"                                      
4697.7 "6506_12-7"  56.8400 "Sandstone" -999.25                       -999.25 100.0000      0.0       0.0 "m"        "m/c"     "Upper_shoreface"                                                                            "UPPER_DELTA_FRONT"                                      
4697.8 "6506_12-7"  57.8700 "Sandstone" -999.25                       -999.25 100.0000      0.0       0.0 "m"        "m/c"     "Upper_shoreface"                                                                            "UPPER_DELTA_FRONT"                                      
4697.9 "6506_12-7"  58.9600 "Sandstone" -999.25                       -999.25 100.0000      0.0       0.0 "m"        "m/c"     "Upper_shoreface"                                                                            "UPPER_DELTA_FRONT"                                      
4698.0 "6506_12-7"  61.1500 "Sandstone" -999.25                       -999.25 100.0000      0.0       0.0 "m"        "m/c"     "Upper_shoreface"                                                                            "UPPER_DELTA_FRONT"                                      
4698.1 "6506_12-7"  63.4400 "Sandstone" -999.25                       -999.25 100.0000      0.0       0.0 "m"        "m/c"     "Upper_shoreface"                                                                            "UPPER_DELTA_FRONT"                                      
4698.2 "6506_12-7"  66.2600 "Sandstone" -999.25                       -999.25 100.0000      0.0       0.0 "m"        "m/c"     "Upper_shoreface"                                                                            "UPPER_DELTA_FRONT"                                      
4698.3 "6506_12-7"  66.6700 "Sandstone" -999.25                       -999.25 100.0000      0.0       0.0 "m"        "m/c"     "Upper_shoreface"                                                                            "UPPER_DELTA_FRONT"                                      
4698.4 "6506_12-7"  67.0900 "Sandstone" -999.25                       -999.25 100.0000      0.0       0.0 "m"        "m/c"     "Upper_shoreface"                                                                            "UPPER_DELTA_FRONT"                                      
4698.5 "6506_12-7"  67.3300 "Sandstone" -999.25                       -999.25 100.0000      0.0       0.0 "m"        "m/c"     "Upper_shoreface"                                                                            "UPPER_DELTA_FRONT"                                      
4698.6 "6506_12-7"  67.4800 "Sandstone" -999.25                       -999.25 100.0000      0.0       0.0 "m"        "m/c"     "Upper_shoreface"                                                                            "UPPER_DELTA_FRONT"                                      
4698.7 "6506_12-7"  66.9400 "Sandstone" -999.25                       -999.25 100.0000      0.0       0.0 "m"        "m/c"     "Upper_shoreface"                                                                            "UPPER_DELTA_FRONT"                                      
4698.8 "6506_12-7"  66.2600 "Sandstone" -999.25                       -999.25 100.0000      0.0       0.0 "m"        "m/c"     "Upper_shoreface"                                                                            "UPPER_DELTA_FRONT"                                      
4698.9 "6506_12-7"  65.6400 "Sandstone" -999.25                       -999.25 100.0000      0.0       0.0 "m"        "m/c"     "Upper_shoreface"                                                                            "UPPER_DELTA_FRONT"                                      
4699.0 "6506_12-7"  65.4100 "Sandstone" -999.25                       -999.25 100.0000      0.0       0.0 "m"        "m/c"     "Upper_shoreface"                                                                            "UPPER_DELTA_FRONT"                                      
4699.1 "6506_12-7"  65.1900 "Sandstone" -999.25                       -999.25 100.0000      0.0       0.0 "m"        "m/c"     "Upper_shoreface"                                                                            "UPPER_DELTA_FRONT"                                      
4699.2 "6506_12-7"  65.2200 "Sandstone" -999.25                       -999.25 100.0000      0.0       0.0 "m/c"      "m"       "Upper_shoreface"                                                                            "UPPER_DELTA_FRONT"                                      
4699.3 "6506_12-7"  65.4700 "Sandstone" -999.25                       -999.25 100.0000      0.0       0.0 "m/c"      "m"       "Upper_shoreface"                                                                            "UPPER_DELTA_FRONT"                                      
4699.4 "6506_12-7"  65.8900 "Sandstone" -999.25                       -999.25 100.0000      0.0       0.0 "m/c"      "m"       "Upper_shoreface"                                                                            "UPPER_DELTA_FRONT"                                      
4699.5 "6506_12-7"  66.9700 "Sandstone" -999.25                       -999.25 100.0000      0.0       0.0 "m/c"      "m"       "Upper_shoreface"                                                                            "UPPER_DELTA_FRONT"                                      
4699.6 "6506_12-7"  68.0600 "Sandstone" -999.25                       -999.25 100.0000      0.0       0.0 "m/c"      "m"       "Upper_shoreface"                                                                            "UPPER_DELTA_FRONT"                                      
4699.7 "6506_12-7"  69.2000 "Sandstone" -999.25                       -999.25 100.0000      0.0       0.0 "m/c"      "m"       "Upper_shoreface"                                                                            "UPPER_DELTA_FRONT"                                      
4699.8 "6506_12-7"  70.3800 "Sandstone" -999.25                       -999.25 100.0000      0.0       0.0 "m/c"      "m"       "Upper_shoreface"                                                                            "UPPER_DELTA_FRONT"                                      
4699.9 "6506_12-7"  71.5600 "Sandstone" -999.25                       -999.25 100.0000      0.0       0.0 "m/c"      "m"       "Upper_shoreface"                                                                            "UPPER_DELTA_FRONT"                                      
4700.0 "6506_12-7"  71.9400 "Sandstone" -999.25                       -999.25 100.0000      0.0       0.0 "m/c"      "m"       "Upper_shoreface"                                                                            "UPPER_DELTA_FRONT"                                      
