~Version
VERS  .                                 3.0 : CWLS LAS ASCII Standard - Version 3.0
WRAP  . NO                                  : One line per depth step
DLM   . SPACE                               : Column data section delimiter
SOURCE. Converted to LAS by Log Studio 4.76 : GeoProvider

~Well
STRT.         4053.4 : Start depth
STOP.         4700.0 : Stop depth
STEP.              1 : Step
NULL.        -999.25 : No-value
COMP.                : Company
WELL. 6506/12-7      : Well
FLD .                : Field
LOC .                : Location
LATI.                : Latitude
LONG.                : Longitude
GDAT.                : Geodetic datum
CNTY.                : County
STAT.                : State
CTRY.                : Country
SRVC. GeoProvider AS : Service company
DATE.                : Date
API .                : API number
RUN .                : Run number

~Parameters
WellboreName.  : Wellbore name
RigName     .  : Rig name
StartDate   .  : Start date

~Curves
DEPTH.m            .  : null {F}Depth mMD
Hole_ID.-          .  : null {S}Hole ID
GR.API             .  : null {F}Gamma Ray
Lithology1.-       .  : null {S}Lithology 1
Lithology2.-       .  : null {S}Lithology 2
Lithology3.-       .  : null {S}Lithology 3
Lithology1.%       .  : null {F}Lithology 1 percentage
Lithology2.%       .  : null {F}Lithology 2 percentage
Lithology3.%       .  : null {F}Lithology 3 percentage
Grain_size_Top.-   .  : null {S}Grain size at the top 
Grain_size_Base.-  .  : null {S}Grain size at the bottom
Sub_Environment.-  .  : null {S}Sub Environment
Gross_Environment.-.  : null {S}Gross Environment

~Ascii
# ...
4436.2 "6506_12-7"  46.5200 "Sandstone" "Limestone"                   -999.25  90.0000  8.00000       0.0 "f/m"      "m/c"     "Shallow_marine_(Upper_shoreface/foreshore)_evt._Mouth_bars._Mineralogical_immature_sediments" "Proximal_delta_front"                                   
4436.3 "6506_12-7"  46.1100 "Sandstone" "Limestone"                   -999.25  90.0000  8.00000       0.0 "f/m"      "m/c"     "Shallow_marine_(Upper_shoreface/foreshore)_evt._Mouth_bars._Mineralogical_immature_sediments" "Proximal_delta_front"                                   
4436.4 "6506_12-7"  46.0300 "Sandstone" "Limestone"                   -999.25  90.0000  8.00000       0.0 "f/m"      "m/c"     "Shallow_marine_(Upper_shoreface/foreshore)_evt._Mouth_bars._Mineralogical_immature_sediments" "Proximal_delta_front"                                   
4436.5 "6506_12-7"  46.3100 "Sandstone" "Limestone"                   -999.25  90.0000  8.00000       0.0 "f/m"      "m/c"     "Shallow_marine_(Upper_shoreface/foreshore)_evt._Mouth_bars._Mineralogical_immature_sediments" "Proximal_delta_front"                                   
4436.6 "6506_12-7"  47.0900 "Sandstone" "Limestone"                   -999.25  90.0000  8.00000       0.0 "f/m"      "m/c"     "Shallow_marine_(Upper_shoreface/foreshore)_evt._Mouth_bars._Mineralogical_immature_sediments" "Proximal_delta_front"                                   
4436.7 "6506_12-7"  47.8700 "Sandstone" "Limestone"                   -999.25  90.0000  8.00000       0.0 "f/m"      "m/c"     "Shallow_marine_(Upper_shoreface/foreshore)_evt._Mouth_bars._Mineralogical_immature_sediments" "Proximal_delta_front"                                   
4436.8 "6506_12-7"  48.1900 "Sandstone" "Limestone"                   -999.25  90.0000  8.00000       0.0 "f/m"      "m/c"     "Shallow_marine_(Upper_shoreface/foreshore)_evt._Mouth_bars._Mineralogical_immature_sediments" "Proximal_delta_front"                                   
4436.9 "6506_12-7"  48.1000 "Sandstone" "Limestone"                   -999.25  90.0000  8.00000       0.0 "f/m"      "m/c"     "Shallow_marine_(Upper_shoreface/foreshore)_evt._Mouth_bars._Mineralogical_immature_sediments" "Proximal_delta_front"                                   
4437.0 "6506_12-7"  48.0300 "Sandstone" "Limestone"                   -999.25  90.0000  8.00000       0.0 "f/m"      "m/c"     "Shallow_marine_(Upper_shoreface/foreshore)_evt._Mouth_bars._Mineralogical_immature_sediments" "Proximal_delta_front"                                   
4437.1 "6506_12-7"  47.9600 "Sandstone" "Limestone"                   -999.25  90.0000  8.00000       0.0 "f/m"      "m/c"     "Shallow_marine_(Upper_shoreface/foreshore)_evt._Mouth_bars._Mineralogical_immature_sediments" "Proximal_delta_front"                                   
4437.2 "6506_12-7"  47.7300 "Sandstone" "Limestone"                   -999.25  90.0000  8.00000       0.0 "f/m"      "m/c"     "Shallow_marine_(Upper_shoreface/foreshore)_evt._Mouth_bars._Mineralogical_immature_sediments" "Proximal_delta_front"                                   
4437.3 "6506_12-7"  47.3900 "Sandstone" "Limestone"                   -999.25  90.0000  8.00000       0.0 "f/m"      "m/c"     "Shallow_marine_(Upper_shoreface/foreshore)_evt._Mouth_bars._Mineralogical_immature_sediments" "Proximal_delta_front"                                   
4437.4 "6506_12-7"  47.6500 "Sandstone" "Limestone"                   -999.25  90.0000  8.00000       0.0 "f/m"      "m/c"     "Shallow_marine_(Upper_shoreface/foreshore)_evt._Mouth_bars._Mineralogical_immature_sediments" "Proximal_delta_front"                                   
4437.5 "6506_12-7"  48.7200 "Sandstone" "Limestone"                   -999.25  90.0000  8.00000       0.0 "f/m"      "m/c"     "Shallow_marine_(Upper_shoreface/foreshore)_evt._Mouth_bars._Mineralogical_immature_sediments" "Proximal_delta_front"                                   
4437.6 "6506_12-7"  49.9300 "Sandstone" "Limestone"                   -999.25  90.0000  8.00000       0.0 "f/m"      "m/c"     "Shallow_marine_(Upper_shoreface/foreshore)_evt._Mouth_bars._Mineralogical_immature_sediments" "Proximal_delta_front"                                   
4437.7 "6506_12-7"  51.1400 "Sandstone" "Limestone"                   -999.25  90.0000  8.00000       0.0 "f/m"      "m/c"     "Shallow_marine_(Upper_shoreface/foreshore)_evt._Mouth_bars._Mineralogical_immature_sediments" "Proximal_delta_front"                                   
4437.8 "6506_12-7"  52.1300 "Sandstone" "Limestone"                   -999.25  90.0000  8.00000       0.0 "f/m"      "m/c"     "Shallow_marine_(Upper_shoreface/foreshore)_evt._Mouth_bars._Mineralogical_immature_sediments" "Proximal_delta_front"                                   
4437.9 "6506_12-7"  52.6300 "Sandstone" "Limestone"                   -999.25  90.0000  8.00000       0.0 "f/m"      "m/c"     "Shallow_marine_(Upper_shoreface/foreshore)_evt._Mouth_bars._Mineralogical_immature_sediments" "Proximal_delta_front"                                   
4438.0 "6506_12-7"  52.8400 "Sandstone" "Limestone"                   -999.25  90.0000  8.00000       0.0 "f/m"      "m/c"     "Shallow_marine_(Upper_shoreface/foreshore)_evt._Mouth_bars._Mineralogical_immature_sediments" "Proximal_delta_front"                                   
4438.1 "6506_12-7"  52.8800 "Sandstone" "Limestone"                   -999.25  90.0000  8.00000       0.0 "f/m"      "m/c"     "Shallow_marine_(Upper_shoreface/foreshore)_evt._Mouth_bars._Mineralogical_immature_sediments" "Proximal_delta_front"                                   
4438.2 "6506_12-7"  52.5100 "Sandstone" "Limestone"                   -999.25  90.0000  8.00000       0.0 "f/m"      "m/c"     "Shallow_marine_(Upper_shoreface/foreshore)_evt._Mouth_bars._Mineralogical_immature_sediments" "Proximal_delta_front"                                   
4438.3 "6506_12-7"  52.1100 "Sandstone" "Limestone"                   -999.25  90.0000  8.00000       0.0 "f/m"      "m/c"     "Shallow_marine_(Upper_shoreface/foreshore)_evt._Mouth_bars._Mineralogical_immature_sediments" "Proximal_delta_front"                                   
4438.4 "6506_12-7"  51.6600 "Sandstone" "Limestone"                   -999.25  90.0000  8.00000       0.0 "f/m"      "m/c"     "Shallow_marine_(Upper_shoreface/foreshore)_evt._Mouth_bars._Mineralogical_immature_sediments" "Proximal_delta_front"                                   
4438.5 "6506_12-7"  51.2100 "Sandstone" "Limestone"                   -999.25  90.0000  8.00000       0.0 "f/m"      "m/c"     "Shallow_marine_(Upper_shoreface/foreshore)_evt._Mouth_bars._Mineralogical_immature_sediments" "Proximal_delta_front"                                   
4438.6 "6506_12-7"  51.1900 "Sandstone" "Limestone"                   -999.25  90.0000  8.00000       0.0 "f/m"      "m/c"     "Shallow_marine_(Upper_shoreface/foreshore)_evt._Mouth_bars._Mineralogical_immature_sediments" "Proximal_delta_front"                                   
4438.7 "6506_12-7"  52.8200 "Sandstone" "Limestone"                   -999.25  90.0000  8.00000       0.0 "f/m"      "m/c"     "Shallow_marine_(Upper_shoreface/foreshore)_evt._Mouth_bars._Mineralogical_immature_sediments" "Proximal_delta_front"                                   
4438.8 "6506_12-7"  54.6700 "Sandstone" "Limestone"                   -999.25  90.0000  8.00000       0.0 "f/m"      "m/c"     "Shallow_marine_(Upper_shoreface/foreshore)_evt._Mouth_bars._Mineralogical_immature_sediments" "Proximal_delta_front"                                   
4438.9 "6506_12-7"  56.5500 "Sandstone" "Limestone"                   -999.25  90.0000  8.00000       0.0 "f/m"      "m/c"     "Shallow_marine_(Upper_shoreface/foreshore)_evt._Mouth_bars._Mineralogical_immature_sediments" "Proximal_delta_front"                                   
4439.0 "6506_12-7"  58.4300 "Sandstone" "Limestone"                   -999.25  90.0000  8.00000       0.0 "f/m"      "m/c"     "Shallow_marine_(Upper_shoreface/foreshore)_evt._Mouth_bars._Mineralogical_immature_sediments" "Proximal_delta_front"                                   
