~Version
VERS  .                                 3.0 : CWLS LAS ASCII Standard - Version 3.0
WRAP  . NO                                  : One line per depth step
DLM   . SPACE                               : Column data section delimiter
SOURCE. Converted to LAS by Log Studio 4.76 : GeoProvider

~Well
STRT.         4053.4 : Start depth
STOP.         4700.0 : Stop depth
STEP.              1 : Step
NULL.        -999.25 : No-value
COMP.                : Company
WELL. 6506/12-7      : Well
FLD .                : Field
LOC .                : Location
LATI.                : Latitude
LONG.                : Longitude
GDAT.                : Geodetic datum
CNTY.                : County
STAT.                : State
CTRY.                : Country
SRVC. GeoProvider AS : Service company
DATE.                : Date
API .                : API number
RUN .                : Run number

~Parameters
WellboreName.  : Wellbore name
RigName     .  : Rig name
StartDate   .  : Start date

~Curves
DEPTH.m            .  : null {F}Depth mMD
Hole_ID.-          .  : null {S}Hole ID
GR.API             .  : null {F}Gamma Ray
Lithology1.-       .  : null {S}Lithology 1
Lithology2.-       .  : null {S}Lithology 2
Lithology3.-       .  : null {S}Lithology 3
Lithology1.%       .  : null {F}Lithology 1 percentage
Lithology2.%       .  : null {F}Lithology 2 percentage
Lithology3.%       .  : null {F}Lithology 3 percentage
Grain_size_Top.-   .  : null {S}Grain size at the top 
Grain_size_Base.-  .  : null {S}Grain size at the bottom
Sub_Environment.-  .  : null {S}Sub Environment
Gross_Environment.-.  : null {S}Gross Environment

~Ascii
# ...
4485.5 "6506_12-7"  70.4100 "Sandstone" -999.25                       -999.25 100.0000      0.0       0.0 "m/c"      "f/m"     "Strongly_fluvial_infloenced_upper_shoreface_or_very_proximat_mouth_bar_complex"             "Lower_delta_plain_channel_or_proximal_delta_front_complex"
4485.6 "6506_12-7"  69.0700 "Sandstone" -999.25                       -999.25 100.0000      0.0       0.0 "m/c"      "f/m"     "Strongly_fluvial_infloenced_upper_shoreface_or_very_proximat_mouth_bar_complex"             "Lower_delta_plain_channel_or_proximal_delta_front_complex"
4485.7 "6506_12-7"  67.2600 "Sandstone" -999.25                       -999.25 100.0000      0.0       0.0 "m/c"      "f/m"     "Strongly_fluvial_infloenced_upper_shoreface_or_very_proximat_mouth_bar_complex"             "Lower_delta_plain_channel_or_proximal_delta_front_complex"
4485.8 "6506_12-7"  65.3900 "Sandstone" -999.25                       -999.25 100.0000      0.0       0.0 "m/c"      "f/m"     "Strongly_fluvial_infloenced_upper_shoreface_or_very_proximat_mouth_bar_complex"             "Lower_delta_plain_channel_or_proximal_delta_front_complex"
4485.9 "6506_12-7"  62.8800 "Sandstone" -999.25                       -999.25 100.0000      0.0       0.0 "m/c"      "f/m"     "Strongly_fluvial_infloenced_upper_shoreface_or_very_proximat_mouth_bar_complex"             "Lower_delta_plain_channel_or_proximal_delta_front_complex"
4486.0 "6506_12-7"  60.3700 "Sandstone" -999.25                       -999.25 100.0000      0.0       0.0 "m/c"      "f/m"     "Strongly_fluvial_infloenced_upper_shoreface_or_very_proximat_mouth_bar_complex"             "Lower_delta_plain_channel_or_proximal_delta_front_complex"
4486.1 "6506_12-7"  58.8900 "Sandstone" -999.25                       -999.25 100.0000      0.0       0.0 "m/c"      "f/m"     "Strongly_fluvial_infloenced_upper_shoreface_or_very_proximat_mouth_bar_complex"             "Lower_delta_plain_channel_or_proximal_delta_front_complex"
4486.2 "6506_12-7"  57.6000 "Sandstone" -999.25                       -999.25 100.0000      0.0       0.0 "m/c"      "f/m"     "Strongly_fluvial_infloenced_upper_shoreface_or_very_proximat_mouth_bar_complex"             "Lower_delta_plain_channel_or_proximal_delta_front_complex"
4486.3 "6506_12-7"  57.0600 "Sandstone" -999.25                       -999.25 100.0000      0.0       0.0 "m/c"      "f/m"     "Strongly_fluvial_infloenced_upper_shoreface_or_very_proximat_mouth_bar_complex"             "Lower_delta_plain_channel_or_proximal_delta_front_complex"
4486.4 "6506_12-7"  56.7400 "Sandstone" -999.25                       -999.25 100.0000      0.0       0.0 "m/c"      "f/m"     "Strongly_fluvial_infloenced_upper_shoreface_or_very_proximat_mouth_bar_complex"             "Lower_delta_plain_channel_or_proximal_delta_front_complex"
4486.5 "6506_12-7"  56.7400 "Sandstone" -999.25                       -999.25 100.0000      0.0       0.0 "m/c"      "f/m"     "Strongly_fluvial_infloenced_upper_shoreface_or_very_proximat_mouth_bar_complex"             "Lower_delta_plain_channel_or_proximal_delta_front_complex"
4486.6 "6506_12-7"  56.7400 "Sandstone" -999.25                       -999.25 100.0000      0.0       0.0 "m/c"      "f/m"     "Strongly_fluvial_infloenced_upper_shoreface_or_very_proximat_mouth_bar_complex"             "Lower_delta_plain_channel_or_proximal_delta_front_complex"
4486.7 "6506_12-7"  57.2900 "Sandstone" -999.25                       -999.25 100.0000      0.0       0.0 "m/c"      "f/m"     "Strongly_fluvial_infloenced_upper_shoreface_or_very_proximat_mouth_bar_complex"             "Lower_delta_plain_channel_or_proximal_delta_front_complex"
4486.8 "6506_12-7"  57.8900 "Sandstone" -999.25                       -999.25 100.0000      0.0       0.0 "m/c"      "f/m"     "Strongly_fluvial_infloenced_upper_shoreface_or_very_proximat_mouth_bar_complex"             "Lower_delta_plain_channel_or_proximal_delta_front_complex"
4486.9 "6506_12-7"  58.4800 "Sandstone" -999.25                       -999.25 100.0000      0.0       0.0 "m/c"      "f/m"     "Strongly_fluvial_infloenced_upper_shoreface_or_very_proximat_mouth_bar_complex"             "Lower_delta_plain_channel_or_proximal_delta_front_complex"
4487.0 "6506_12-7"  58.6700 "Sandstone" -999.25                       -999.25 100.0000      0.0       0.0 "m/c"      "f/m"     "Strongly_fluvial_infloenced_upper_shoreface_or_very_proximat_mouth_bar_complex"             "Lower_delta_plain_channel_or_proximal_delta_front_complex"
4487.1 "6506_12-7"  58.7100 "Sandstone" -999.25                       -999.25 100.0000      0.0       0.0 "m/c"      "f/m"     "Strongly_fluvial_infloenced_upper_shoreface_or_very_proximat_mouth_bar_complex"             "Lower_delta_plain_channel_or_proximal_delta_front_complex"
4487.2 "6506_12-7"  58.3400 "Sandstone" -999.25                       -999.25 100.0000      0.0       0.0 "m/c"      "f/m"     "Strongly_fluvial_infloenced_upper_shoreface_or_very_proximat_mouth_bar_complex"             "Lower_delta_plain_channel_or_proximal_delta_front_complex"
4487.3 "6506_12-7"  57.9700 "Sandstone" -999.25                       -999.25 100.0000      0.0       0.0 "m/c"      "f/m"     "Strongly_fluvial_infloenced_upper_shoreface_or_very_proximat_mouth_bar_complex"             "Lower_delta_plain_channel_or_proximal_delta_front_complex"
4487.4 "6506_12-7"  57.6000 "Sandstone" -999.25                       -999.25 100.0000      0.0       0.0 "m/c"      "f/m"     "Strongly_fluvial_infloenced_upper_shoreface_or_very_proximat_mouth_bar_complex"             "Lower_delta_plain_channel_or_proximal_delta_front_complex"
4487.5 "6506_12-7"  57.6000 "Sandstone" -999.25                       -999.25 100.0000      0.0       0.0 "m/c"      "f/m"     "Strongly_fluvial_infloenced_upper_shoreface_or_very_proximat_mouth_bar_complex"             "Lower_delta_plain_channel_or_proximal_delta_front_complex"
4487.6 "6506_12-7"  57.6900 "Sandstone" -999.25                       -999.25 100.0000      0.0       0.0 "m/c"      "f/m"     "Strongly_fluvial_infloenced_upper_shoreface_or_very_proximat_mouth_bar_complex"             "Lower_delta_plain_channel_or_proximal_delta_front_complex"
4487.7 "6506_12-7"  58.1300 "Sandstone" -999.25                       -999.25 100.0000      0.0       0.0 "m/c"      "f/m"     "Strongly_fluvial_infloenced_upper_shoreface_or_very_proximat_mouth_bar_complex"             "Lower_delta_plain_channel_or_proximal_delta_front_complex"
4487.8 "6506_12-7"  58.7200 "Sandstone" -999.25                       -999.25 100.0000      0.0       0.0 "m/c"      "f/m"     "Strongly_fluvial_infloenced_upper_shoreface_or_very_proximat_mouth_bar_complex"             "Lower_delta_plain_channel_or_proximal_delta_front_complex"
4487.9 "6506_12-7"  59.3200 "Sandstone" -999.25                       -999.25 100.0000      0.0       0.0 "m/c"      "f/m"     "Strongly_fluvial_infloenced_upper_shoreface_or_very_proximat_mouth_bar_complex"             "Lower_delta_plain_channel_or_proximal_delta_front_complex"
4488.0 "6506_12-7"  60.2100 "Sandstone" -999.25                       -999.25 100.0000      0.0       0.0 "m/c"      "f/m"     "Strongly_fluvial_infloenced_upper_shoreface_or_very_proximat_mouth_bar_complex"             "Lower_delta_plain_channel_or_proximal_delta_front_complex"
4488.1 "6506_12-7"  61.2100 "Sandstone" -999.25                       -999.25 100.0000      0.0       0.0 "m/c"      "f/m"     "Strongly_fluvial_infloenced_upper_shoreface_or_very_proximat_mouth_bar_complex"             "Lower_delta_plain_channel_or_proximal_delta_front_complex"
4488.2 "6506_12-7"  62.2200 "Sandstone" -999.25                       -999.25 100.0000      0.0       0.0 "m/c"      "f/m"     "Strongly_fluvial_infloenced_upper_shoreface_or_very_proximat_mouth_bar_complex"             "Lower_delta_plain_channel_or_proximal_delta_front_complex"
4488.3 "6506_12-7"  63.2200 "Sandstone" -999.25                       -999.25 100.0000      0.0       0.0 "m/c"      "f/m"     "Strongly_fluvial_infloenced_upper_shoreface_or_very_proximat_mouth_bar_complex"             "Lower_delta_plain_channel_or_proximal_delta_front_complex"
