~Version
VERS  .                                 3.0 : CWLS LAS ASCII Standard - Version 3.0
WRAP  . NO                                  : One line per depth step
DLM   . SPACE                               : Column data section delimiter
SOURCE. Converted to LAS by Log Studio 4.76 : GeoProvider

~Well
STRT.         4053.4 : Start depth
STOP.         4700.0 : Stop depth
STEP.              1 : Step
NULL.        -999.25 : No-value
COMP.                : Company
WELL. 6506/12-7      : Well
FLD .                : Field
LOC .                : Location
LATI.                : Latitude
LONG.                : Longitude
GDAT.                : Geodetic datum
CNTY.                : County
STAT.                : State
CTRY.                : Country
SRVC. GeoProvider AS : Service company
DATE.                : Date
API .                : API number
RUN .                : Run number

~Parameters
WellboreName.  : Wellbore name
RigName     .  : Rig name
StartDate   .  : Start date

~Curves
DEPTH.m            .  : null {F}Depth mMD
Hole_ID.-          .  : null {S}Hole ID
GR.API             .  : null {F}Gamma Ray
Lithology1.-       .  : null {S}Lithology 1
Lithology2.-       .  : null {S}Lithology 2
Lithology3.-       .  : null {S}Lithology 3
Lithology1.%       .  : null {F}Lithology 1 percentage
Lithology2.%       .  : null {F}Lithology 2 percentage
Lithology3.%       .  : null {F}Lithology 3 percentage
Grain_size_Top.-   .  : null {S}Grain size at the top 
Grain_size_Base.-  .  : null {S}Grain size at the bottom
Sub_Environment.-  .  : null {S}Sub Environment
Gross_Environment.-.  : null {S}Gross Environment

~Ascii
# ...
4471.0 "6506_12-7"  90.6400 "Sandstone" "Matrix-supported_conglomerate" -999.25  50.0000 50.00000       0.0 "c"        "f/m"     "Shallow_marine_Upper_shoreface"                                                             "Lower_delta_plain_channel_or_proximal_delta_front_complex"
4471.1 "6506_12-7"  90.6400 "Sandstone" "Matrix-supported_conglomerate" -999.25  50.0000 50.00000       0.0 "c"        "f/m"     "Shallow_marine_Upper_shoreface"                                                             "Lower_delta_plain_channel_or_proximal_delta_front_complex"
4471.2 "6506_12-7"  90.7700 "Sandstone" "Matrix-supported_conglomerate" -999.25  50.0000 50.00000       0.0 "c"        "f/m"     "Shallow_marine_Upper_shoreface"                                                             "Lower_delta_plain_channel_or_proximal_delta_front_complex"
4471.3 "6506_12-7"  91.3000 "Sandstone" "Matrix-supported_conglomerate" -999.25  50.0000 50.00000       0.0 "c"        "f/m"     "Shallow_marine_Upper_shoreface"                                                             "Lower_delta_plain_channel_or_proximal_delta_front_complex"
4471.4 "6506_12-7"  91.8300 "Sandstone" -999.25                       -999.25 100.0000      0.0       0.0 "vf/f"     "m/c"     "Shallow_marine_Upper_shoreface"                                                             "Lower_delta_plain_channel_or_proximal_delta_front_complex"
4471.5 "6506_12-7"  92.7300 "Sandstone" -999.25                       -999.25 100.0000      0.0       0.0 "vf/f"     "m/c"     "Shallow_marine_Upper_shoreface"                                                             "Lower_delta_plain_channel_or_proximal_delta_front_complex"
4471.6 "6506_12-7"  94.5400 "Sandstone" -999.25                       -999.25 100.0000      0.0       0.0 "vf/f"     "m/c"     "Shallow_marine_Upper_shoreface"                                                             "Lower_delta_plain_channel_or_proximal_delta_front_complex"
4471.7 "6506_12-7"  96.3500 "Sandstone" -999.25                       -999.25 100.0000      0.0       0.0 "vf/f"     "m/c"     "Shallow_marine_Upper_shoreface"                                                             "Lower_delta_plain_channel_or_proximal_delta_front_complex"
4471.8 "6506_12-7"  98.1600 "Sandstone" -999.25                       -999.25 100.0000      0.0       0.0 "vf/f"     "m/c"     "Shallow_marine_Upper_shoreface"                                                             "Lower_delta_plain_channel_or_proximal_delta_front_complex"
4471.9 "6506_12-7" 100.1600 "Sandstone" -999.25                       -999.25 100.0000      0.0       0.0 "vf/f"     "m/c"     "Shallow_marine_Upper_shoreface"                                                             "Lower_delta_plain_channel_or_proximal_delta_front_complex"
4472.0 "6506_12-7" 102.1800 "Sandstone" -999.25                       -999.25 100.0000      0.0       0.0 "c/vc"     "vf/f"    "Shallow_marine_Upper_shoreface"                                                             "Lower_delta_plain_channel_or_proximal_delta_front_complex"
4472.1 "6506_12-7" 104.2100 "Sandstone" -999.25                       -999.25 100.0000      0.0       0.0 "c/vc"     "vf/f"    "Shallow_marine_Upper_shoreface"                                                             "Lower_delta_plain_channel_or_proximal_delta_front_complex"
4472.2 "6506_12-7" 106.3300 "Sandstone" -999.25                       -999.25 100.0000      0.0       0.0 "c/vc"     "vf/f"    "Shallow_marine_Upper_shoreface"                                                             "Lower_delta_plain_channel_or_proximal_delta_front_complex"
4472.3 "6506_12-7" 108.1500 "Sandstone" -999.25                       -999.25 100.0000      0.0       0.0 "c/vc"     "vf/f"    "Shallow_marine_Upper_shoreface"                                                             "Lower_delta_plain_channel_or_proximal_delta_front_complex"
4472.4 "6506_12-7" 108.9400 "Sandstone" -999.25                       -999.25 100.0000      0.0       0.0 "c/vc"     "vf/f"    "Shallow_marine_Upper_shoreface"                                                             "Lower_delta_plain_channel_or_proximal_delta_front_complex"
4472.5 "6506_12-7" 109.0200 "Sandstone" -999.25                       -999.25 100.0000      0.0       0.0 "c/vc"     "vf/f"    "Shallow_marine_Upper_shoreface"                                                             "Lower_delta_plain_channel_or_proximal_delta_front_complex"
4472.6 "6506_12-7" 108.2700 "Sandstone" "Clay"                        -999.25  85.0000 15.00000       0.0 "f/m"      "f/m"     "Shallow_marine_Upper_shoreface"                                                             "Lower_delta_plain_channel_or_proximal_delta_front_complex"
4472.7 "6506_12-7" 107.3800 "Sandstone" "Clay"                        -999.25  85.0000 15.00000       0.0 "f/m"      "f/m"     "Shallow_marine_Upper_shoreface"                                                             "Lower_delta_plain_channel_or_proximal_delta_front_complex"
4472.8 "6506_12-7" 105.5300 "Sandstone" "Clay"                        -999.25  85.0000 15.00000       0.0 "f/m"      "f/m"     "Shallow_marine_Upper_shoreface"                                                             "Lower_delta_plain_channel_or_proximal_delta_front_complex"
4472.9 "6506_12-7" 103.5000 "Sandstone" "Clay"                        -999.25  85.0000 15.00000       0.0 "f/m"      "f/m"     "Shallow_marine_Upper_shoreface"                                                             "Lower_delta_plain_channel_or_proximal_delta_front_complex"
4473.0 "6506_12-7" 100.0000 "Sandstone" "Clay"                        -999.25  85.0000 15.00000       0.0 "f/m"      "f/m"     "Shallow_marine_Upper_shoreface"                                                             "Lower_delta_plain_channel_or_proximal_delta_front_complex"
4473.1 "6506_12-7"  99.0100 "Sandstone" "Clay"                        -999.25  85.0000 15.00000       0.0 "f/m"      "f/m"     "Shallow_marine_Upper_shoreface"                                                             "Lower_delta_plain_channel_or_proximal_delta_front_complex"
4473.2 "6506_12-7"  98.0600 "Sandstone" "Clay"                        -999.25  71.0000  1.00000 -14.00000 "f/m"      "f/m"     "Shallow_marine_Upper_shoreface"                                                             "Lower_delta_plain_channel_or_proximal_delta_front_complex"
4473.3 "6506_12-7"  95.5700 "Sandstone" "Clay"                        -999.25  72.0000  2.00000 -13.00000 "f/m"      "f/m"     "Shallow_marine_Upper_shoreface"                                                             "Lower_delta_plain_channel_or_proximal_delta_front_complex"
4473.4 "6506_12-7"  93.0700 "Sandstone" "Clay"                        -999.25  73.0000  3.00000 -12.00000 "f/m"      "f/m"     "Shallow_marine_Upper_shoreface"                                                             "Lower_delta_plain_channel_or_proximal_delta_front_complex"
4473.5 "6506_12-7"  90.5800 "Sandstone" "Clay"                        -999.25  74.0000  4.00000 -11.00000 "f/m"      "f/m"     "Shallow_marine_Upper_shoreface"                                                             "Lower_delta_plain_channel_or_proximal_delta_front_complex"
4473.6 "6506_12-7"  87.4000 "Sandstone" "Clay"                        -999.25  75.0000  5.00000 -10.00000 "f/m"      "f/m"     "Shallow_marine_Upper_shoreface"                                                             "Lower_delta_plain_channel_or_proximal_delta_front_complex"
4473.7 "6506_12-7"  80.1500 "Sandstone" "Clay"                        -999.25  76.0000  6.00000  -9.00000 "f/m"      "f/m"     "Shallow_marine_Upper_shoreface"                                                             "Lower_delta_plain_channel_or_proximal_delta_front_complex"
4473.8 "6506_12-7"  73.2900 "Sandstone" "Clay"                        -999.25  77.0000  7.00000  -8.00000 "f/m"      "f/m"     "Shallow_marine_Upper_shoreface"                                                             "Lower_delta_plain_channel_or_proximal_delta_front_complex"
