~Version
VERS  .                                 3.0 : CWLS LAS ASCII Standard - Version 3.0
WRAP  . NO                                  : One line per depth step
DLM   . SPACE                               : Column data section delimiter
SOURCE. Converted to LAS by Log Studio 4.76 : GeoProvider

~Well
STRT.         4053.4 : Start depth
STOP.         4700.0 : Stop depth
STEP.              1 : Step
NULL.        -999.25 : No-value
COMP.                : Company
WELL. 6506/12-7      : Well
FLD .                : Field
LOC .                : Location
LATI.                : Latitude
LONG.                : Longitude
GDAT.                : Geodetic datum
CNTY.                : County
STAT.                : State
CTRY.                : Country
SRVC. GeoProvider AS : Service company
DATE.                : Date
API .                : API number
RUN .                : Run number

~Parameters
WellboreName.  : Wellbore name
RigName     .  : Rig name
StartDate   .  : Start date

~Curves
DEPTH.m            .  : null {F}Depth mMD
Hole_ID.-          .  : null {S}Hole ID
GR.API             .  : null {F}Gamma Ray
Lithology1.-       .  : null {S}Lithology 1
Lithology2.-       .  : null {S}Lithology 2
Lithology3.-       .  : null {S}Lithology 3
Lithology1.%       .  : null {F}Lithology 1 percentage
Lithology2.%       .  : null {F}Lithology 2 percentage
Lithology3.%       .  : null {F}Lithology 3 percentage
Grain_size_Top.-   .  : null {S}Grain size at the top 
Grain_size_Base.-  .  : null {S}Grain size at the bottom
Sub_Environment.-  .  : null {S}Sub Environment
Gross_Environment.-.  : null {S}Gross Environment

~Ascii
# ...
4688.5 "6506_12-7"  80.5000 "Sandstone" "Mudstone"                    -999.25  40.0000 60.00000       0.0 "silt/vf"  "silt/vf" "Storm_beds"                                                                                 "PRODELTA/OUTER_SHELF"                                   
4688.6 "6506_12-7"  79.4900 "Sandstone" "Mudstone"                    -999.25  40.0000 60.00000       0.0 "silt/vf"  "silt/vf" "Storm_beds"                                                                                 "PRODELTA/OUTER_SHELF"                                   
4688.7 "6506_12-7"  78.6800 "Sandstone" "Mudstone"                    -999.25  40.0000 60.00000       0.0 "silt/vf"  "silt/vf" "Storm_beds"                                                                                 "PRODELTA/OUTER_SHELF"                                   
4688.8 "6506_12-7"  78.2400 "Sandstone" "Mudstone"                    -999.25  40.0000 60.00000       0.0 "silt/vf"  "silt/vf" "Storm_beds"                                                                                 "PRODELTA/OUTER_SHELF"                                   
4688.9 "6506_12-7"  77.8000 "Sandstone" "Mudstone"                    -999.25  40.0000 60.00000       0.0 "silt/vf"  "silt/vf" "Storm_beds"                                                                                 "PRODELTA/OUTER_SHELF"                                   
4689.0 "6506_12-7"  77.5500 "Sandstone" "Mudstone"                    -999.25  40.0000 60.00000       0.0 "silt/vf"  "silt/vf" "Storm_beds"                                                                                 "PRODELTA/OUTER_SHELF"                                   
4689.1 "6506_12-7"  77.7400 "Sandstone" "Mudstone"                    -999.25  40.0000 60.00000       0.0 "silt/vf"  "silt/vf" "Storm_beds"                                                                                 "PRODELTA/OUTER_SHELF"                                   
4689.2 "6506_12-7"  77.9700 "Sandstone" "Mudstone"                    -999.25  40.0000 60.00000       0.0 "silt/vf"  "silt/vf" "Storm_beds"                                                                                 "PRODELTA/OUTER_SHELF"                                   
4689.3 "6506_12-7"  78.2500 "Sandstone" "Mudstone"                    -999.25  40.0000 60.00000       0.0 "silt/vf"  "silt/vf" "Storm_beds"                                                                                 "PRODELTA/OUTER_SHELF"                                   
4689.4 "6506_12-7"  78.5400 "Sandstone" "Mudstone"                    -999.25  40.0000 60.00000       0.0 "silt/vf"  "silt/vf" "Storm_beds"                                                                                 "PRODELTA/OUTER_SHELF"                                   
4689.5 "6506_12-7"  78.3300 "Sandstone" "Mudstone"                    -999.25  40.0000 60.00000       0.0 "silt/vf"  "silt/vf" "Storm_beds"                                                                                 "PRODELTA/OUTER_SHELF"                                   
4689.6 "6506_12-7"  77.7900 "Sandstone" "Mudstone"                    -999.25  40.0000 60.00000       0.0 "silt/vf"  "silt/vf" "Storm_beds"                                                                                 "PRODELTA/OUTER_SHELF"                                   
4689.7 "6506_12-7"  77.2600 "Sandstone" "Mudstone"                    -999.25  40.0000 60.00000       0.0 "silt/vf"  "silt/vf" "Storm_beds"                                                                                 "PRODELTA/OUTER_SHELF"                                   
4689.8 "6506_12-7"  76.8500 "Sandstone" "Mudstone"                    -999.25  40.0000 60.00000       0.0 "silt/vf"  "silt/vf" "Storm_beds"                                                                                 "PRODELTA/OUTER_SHELF"                                   
4689.9 "6506_12-7"  76.7600 "Sandstone" -999.25                       -999.25 100.0000      0.0       0.0 "silt/vf"  "vc"      "MAJOR_TRANSGRESSION"                                                                        "PRODELTA/OUTER_SHELF"                                   
4690.0 "6506_12-7"  77.6000 "Sandstone" -999.25                       -999.25 100.0000      0.0       0.0 "silt/vf"  "vc"      "MAJOR_TRANSGRESSION"                                                                        "PRODELTA/OUTER_SHELF"                                   
4690.1 "6506_12-7"  78.8100 "Sandstone" -999.25                       -999.25 100.0000      0.0       0.0 "silt/vf"  "vc"      "MAJOR_TRANSGRESSION"                                                                        "PRODELTA/OUTER_SHELF"                                   
4690.2 "6506_12-7"  80.7800 "Sandstone" -999.25                       -999.25 100.0000      0.0       0.0 "silt/vf"  "vc"      "MAJOR_TRANSGRESSION"                                                                        "PRODELTA/OUTER_SHELF"                                   
4690.3 "6506_12-7"  82.3200 "Sandstone" "Mudstone"                    -999.25  80.0000 20.00000       0.0 "m/c"      "m/c"     "MAJOR_TRANSGRESSION"                                                                        "PRODELTA/OUTER_SHELF"                                   
4690.4 "6506_12-7"  83.5800 "Sandstone" "Mudstone"                    -999.25  80.0000 20.00000       0.0 "m/c"      "m/c"     "MAJOR_TRANSGRESSION"                                                                        "PRODELTA/OUTER_SHELF"                                   
4690.5 "6506_12-7"  83.7400 "Sandstone" "Mudstone"                    -999.25  80.0000 20.00000       0.0 "m/c"      "m/c"     "MAJOR_TRANSGRESSION"                                                                        "PRODELTA/OUTER_SHELF"                                   
4690.6 "6506_12-7"  83.0600 "Sandstone" "Mudstone"                    -999.25  80.0000 20.00000       0.0 "m/c"      "m/c"     "MAJOR_TRANSGRESSION"                                                                        "PRODELTA/OUTER_SHELF"                                   
4690.7 "6506_12-7"  82.2300 "Sandstone" "Mudstone"                    -999.25  80.0000 20.00000       0.0 "m/c"      "m/c"     "MAJOR_TRANSGRESSION"                                                                        "PRODELTA/OUTER_SHELF"                                   
4690.8 "6506_12-7"  81.1600 "Sandstone" "Mudstone"                    -999.25  80.0000 20.00000       0.0 "m/c"      "m/c"     "MAJOR_TRANSGRESSION"                                                                        "PRODELTA/OUTER_SHELF"                                   
4690.9 "6506_12-7"  78.9500 "Sandstone" -999.25                       -999.25 100.0000      0.0       0.0 -999.25    -999.25   "Shalloow_marine,_upper_shoreface._Close_to_a_river_mouth,_or_tidal_channel"                 "UPPER_DELTA_FRONT"                                      
4691.0 "6506_12-7"  78.0000 "Sandstone" -999.25                       -999.25 100.0000      0.0       0.0 "m/c"      "c/vc"    "Shalloow_marine,_upper_shoreface._Close_to_a_river_mouth,_or_tidal_channel"                 "UPPER_DELTA_FRONT"                                      
4691.1 "6506_12-7"  77.1200 "Sandstone" -999.25                       -999.25 100.0000      0.0       0.0 -999.25    -999.25   "Shalloow_marine,_upper_shoreface._Close_to_a_river_mouth,_or_tidal_channel"                 "UPPER_DELTA_FRONT"                                      
4691.2 "6506_12-7"  76.9500 "Sandstone" -999.25                       -999.25 100.0000      0.0       0.0 "c/vc"     "c/vc"    "Shalloow_marine,_upper_shoreface._Close_to_a_river_mouth,_or_tidal_channel"                 "UPPER_DELTA_FRONT"                                      
4691.3 "6506_12-7"  77.3500 "Sandstone" -999.25                       -999.25 100.0000      0.0       0.0 "c/vc"     "c/vc"    "Shalloow_marine,_upper_shoreface._Close_to_a_river_mouth,_or_tidal_channel"                 "UPPER_DELTA_FRONT"                                      
