~Version
VERS  .                                 3.0 : CWLS LAS ASCII Standard - Version 3.0
WRAP  . NO                                  : One line per depth step
DLM   . SPACE                               : Column data section delimiter
SOURCE. Converted to LAS by Log Studio 4.76 : GeoProvider

~Well
STRT.         4053.4 : Start depth
STOP.         4700.0 : Stop depth
STEP.              1 : Step
NULL.        -999.25 : No-value
COMP.                : Company
WELL. 6506/12-7      : Well
FLD .                : Field
LOC .                : Location
LATI.                : Latitude
LONG.                : Longitude
GDAT.                : Geodetic datum
CNTY.                : County
STAT.                : State
CTRY.                : Country
SRVC. GeoProvider AS : Service company
DATE.                : Date
API .                : API number
RUN .                : Run number

~Parameters
WellboreName.  : Wellbore name
RigName     .  : Rig name
StartDate   .  : Start date

~Curves
DEPTH.m            .  : null {F}Depth mMD
Hole_ID.-          .  : null {S}Hole ID
GR.API             .  : null {F}Gamma Ray
Lithology1.-       .  : null {S}Lithology 1
Lithology2.-       .  : null {S}Lithology 2
Lithology3.-       .  : null {S}Lithology 3
Lithology1.%       .  : null {F}Lithology 1 percentage
Lithology2.%       .  : null {F}Lithology 2 percentage
Lithology3.%       .  : null {F}Lithology 3 percentage
Grain_size_Top.-   .  : null {S}Grain size at the top 
Grain_size_Base.-  .  : null {S}Grain size at the bottom
Sub_Environment.-  .  : null {S}Sub Environment
Gross_Environment.-.  : null {S}Gross Environment

~Ascii
# ...
4427.5 "6506_12-7"  -999.25 "Sandstone" "Limestone"                   -999.25  92.0000  8.00000       0.0 "m/c"      "m/c"     "Shallow_marine_(Upper_shoreface/foreshore)_evt._Mouth_bars._Mineralogical_immature_sediments" "Proximal_delta_front"                                   
4427.6 "6506_12-7"  -999.25 "Sandstone" "Limestone"                   -999.25  92.0000  8.00000       0.0 "m/c"      "m/c"     "Shallow_marine_(Upper_shoreface/foreshore)_evt._Mouth_bars._Mineralogical_immature_sediments" "Proximal_delta_front"                                   
4427.7 "6506_12-7"  -999.25 "Sandstone" "Limestone"                   -999.25  92.0000  8.00000       0.0 "m/c"      "m/c"     "Shallow_marine_(Upper_shoreface/foreshore)_evt._Mouth_bars._Mineralogical_immature_sediments" "Proximal_delta_front"                                   
4427.8 "6506_12-7"  -999.25 "Sandstone" "Limestone"                   -999.25  92.0000  8.00000       0.0 "m/c"      "m/c"     "Shallow_marine_(Upper_shoreface/foreshore)_evt._Mouth_bars._Mineralogical_immature_sediments" "Proximal_delta_front"                                   
4427.9 "6506_12-7"  -999.25 "Sandstone" "Limestone"                   -999.25  92.0000  8.00000       0.0 "m/c"      "m/c"     "Shallow_marine_(Upper_shoreface/foreshore)_evt._Mouth_bars._Mineralogical_immature_sediments" "Proximal_delta_front"                                   
4428.0 "6506_12-7"  -999.25 "Sandstone" "Limestone"                   -999.25  92.0000  8.00000       0.0 "m/c"      "m/c"     "Shallow_marine_(Upper_shoreface/foreshore)_evt._Mouth_bars._Mineralogical_immature_sediments" "Proximal_delta_front"                                   
4428.1 "6506_12-7"  -999.25 "Sandstone" "Limestone"                   -999.25  92.0000  8.00000       0.0 "m/c"      "m/c"     "Shallow_marine_(Upper_shoreface/foreshore)_evt._Mouth_bars._Mineralogical_immature_sediments" "Proximal_delta_front"                                   
4428.2 "6506_12-7"  -999.25 "Sandstone" "Limestone"                   -999.25  92.0000  8.00000       0.0 "m/c"      "m/c"     "Shallow_marine_(Upper_shoreface/foreshore)_evt._Mouth_bars._Mineralogical_immature_sediments" "Proximal_delta_front"                                   
4428.3 "6506_12-7"  48.6300 "Sandstone" -999.25                       -999.25 100.0000      0.0       0.0 -999.25    -999.25   "Shallow_marine_(Upper_shoreface/foreshore)_evt._Mouth_bars._Mineralogical_immature_sediments" "Proximal_delta_front"                                   
4428.4 "6506_12-7"  48.6300 "Sandstone" -999.25                       -999.25 100.0000      0.0       0.0 -999.25    -999.25   "Shallow_marine_(Upper_shoreface/foreshore)_evt._Mouth_bars._Mineralogical_immature_sediments" "Proximal_delta_front"                                   
4428.5 "6506_12-7"  48.6300 "Sandstone" -999.25                       -999.25 100.0000      0.0       0.0 -999.25    -999.25   "Shallow_marine_(Upper_shoreface/foreshore)_evt._Mouth_bars._Mineralogical_immature_sediments" "Proximal_delta_front"                                   
4428.6 "6506_12-7"  49.4800 "Sandstone" -999.25                       -999.25 100.0000      0.0       0.0 "m/c"      "m/c"     "Shallow_marine_(Upper_shoreface/foreshore)_evt._Mouth_bars._Mineralogical_immature_sediments" "Proximal_delta_front"                                   
4428.7 "6506_12-7"  50.5500 "Sandstone" -999.25                       -999.25 100.0000      0.0       0.0 "m/c"      "m/c"     "Shallow_marine_(Upper_shoreface/foreshore)_evt._Mouth_bars._Mineralogical_immature_sediments" "Proximal_delta_front"                                   
4428.8 "6506_12-7"  51.5000 "Sandstone" -999.25                       -999.25 100.0000      0.0       0.0 "m/c"      "m/c"     "Shallow_marine_(Upper_shoreface/foreshore)_evt._Mouth_bars._Mineralogical_immature_sediments" "Proximal_delta_front"                                   
4428.9 "6506_12-7"  52.4000 "Sandstone" -999.25                       -999.25 100.0000      0.0       0.0 "m/c"      "m/c"     "Shallow_marine_(Upper_shoreface/foreshore)_evt._Mouth_bars._Mineralogical_immature_sediments" "Proximal_delta_front"                                   
4429.0 "6506_12-7"  53.1700 "Sandstone" -999.25                       -999.25 100.0000      0.0       0.0 "m/c"      "m/c"     "Shallow_marine_(Upper_shoreface/foreshore)_evt._Mouth_bars._Mineralogical_immature_sediments" "Proximal_delta_front"                                   
4429.1 "6506_12-7"  53.3600 "Sandstone" -999.25                       -999.25 100.0000      0.0       0.0 "m/c"      "m/c"     "Shallow_marine_(Upper_shoreface/foreshore)_evt._Mouth_bars._Mineralogical_immature_sediments" "Proximal_delta_front"                                   
4429.2 "6506_12-7"  53.5400 "Sandstone" -999.25                       -999.25 100.0000      0.0       0.0 "m/c"      "m/c"     "Shallow_marine_(Upper_shoreface/foreshore)_evt._Mouth_bars._Mineralogical_immature_sediments" "Proximal_delta_front"                                   
4429.3 "6506_12-7"  53.7300 "Sandstone" -999.25                       -999.25 100.0000      0.0       0.0 "m/c"      "m/c"     "Shallow_marine_(Upper_shoreface/foreshore)_evt._Mouth_bars._Mineralogical_immature_sediments" "Proximal_delta_front"                                   
4429.4 "6506_12-7"  53.8600 "Sandstone" -999.25                       -999.25 100.0000      0.0       0.0 "m/c"      "m/c"     "Shallow_marine_(Upper_shoreface/foreshore)_evt._Mouth_bars._Mineralogical_immature_sediments" "Proximal_delta_front"                                   
4429.5 "6506_12-7"  53.6900 "Sandstone" -999.25                       -999.25 100.0000      0.0       0.0 "m/c"      "m/c"     "Shallow_marine_(Upper_shoreface/foreshore)_evt._Mouth_bars._Mineralogical_immature_sediments" "Proximal_delta_front"                                   
4429.6 "6506_12-7"  53.5100 "Sandstone" -999.25                       -999.25 100.0000      0.0       0.0 "m/c"      "m/c"     "Shallow_marine_(Upper_shoreface/foreshore)_evt._Mouth_bars._Mineralogical_immature_sediments" "Proximal_delta_front"                                   
4429.7 "6506_12-7"  53.3400 "Sandstone" -999.25                       -999.25 100.0000      0.0       0.0 "m/c"      "m/c"     "Shallow_marine_(Upper_shoreface/foreshore)_evt._Mouth_bars._Mineralogical_immature_sediments" "Proximal_delta_front"                                   
4429.8 "6506_12-7"  53.0000 "Sandstone" -999.25                       -999.25 100.0000      0.0       0.0 "m/c"      "m/c"     "Shallow_marine_(Upper_shoreface/foreshore)_evt._Mouth_bars._Mineralogical_immature_sediments" "Proximal_delta_front"                                   
4429.9 "6506_12-7"  52.5800 "Sandstone" -999.25                       -999.25 100.0000      0.0       0.0 "m/c"      "m/c"     "Shallow_marine_(Upper_shoreface/foreshore)_evt._Mouth_bars._Mineralogical_immature_sediments" "Proximal_delta_front"                                   
4430.0 "6506_12-7"  52.1700 "Sandstone" -999.25                       -999.25 100.0000      0.0       0.0 "m/c"      "m/c"     "Shallow_marine_(Upper_shoreface/foreshore)_evt._Mouth_bars._Mineralogical_immature_sediments" "Proximal_delta_front"                                   
4430.1 "6506_12-7"  51.7500 "Sandstone" -999.25                       -999.25 100.0000      0.0       0.0 "m/c"      "m/c"     "Shallow_marine_(Upper_shoreface/foreshore)_evt._Mouth_bars._Mineralogical_immature_sediments" "Proximal_delta_front"                                   
4430.2 "6506_12-7"  51.3300 "Sandstone" -999.25                       -999.25 100.0000      0.0       0.0 "m/c"      "m/c"     "Shallow_marine_(Upper_shoreface/foreshore)_evt._Mouth_bars._Mineralogical_immature_sediments" "Proximal_delta_front"                                   
4430.3 "6506_12-7"  50.9200 "Sandstone" -999.25                       -999.25 100.0000      0.0       0.0 "m/c"      "m/c"     "Shallow_marine_(Upper_shoreface/foreshore)_evt._Mouth_bars._Mineralogical_immature_sediments" "Proximal_delta_front"                                   
