~Version
VERS  .                                 3.0 : CWLS LAS ASCII Standard - Version 3.0
WRAP  . NO                                  : One line per depth step
DLM   . SPACE                               : Column data section delimiter
SOURCE. Converted to LAS by Log Studio 4.76 : GeoProvider

~Well
STRT.         4053.4 : Start depth
STOP.         4700.0 : Stop depth
STEP.              1 : Step
NULL.        -999.25 : No-value
COMP.                : Company
WELL. 6506/12-7      : Well
FLD .                : Field
LOC .                : Location
LATI.                : Latitude
LONG.                : Longitude
GDAT.                : Geodetic datum
CNTY.                : County
STAT.                : State
CTRY.                : Country
SRVC. GeoProvider AS : Service company
DATE.                : Date
API .                : API number
RUN .                : Run number

~Parameters
WellboreName.  : Wellbore name
RigName     .  : Rig name
StartDate   .  : Start date

~Curves
DEPTH.m            .  : null {F}Depth mMD
Hole_ID.-          .  : null {S}Hole ID
GR.API             .  : null {F}Gamma Ray
Lithology1.-       .  : null {S}Lithology 1
Lithology2.-       .  : null {S}Lithology 2
Lithology3.-       .  : null {S}Lithology 3
Lithology1.%       .  : null {F}Lithology 1 percentage
Lithology2.%       .  : null {F}Lithology 2 percentage
Lithology3.%       .  : null {F}Lithology 3 percentage
Grain_size_Top.-   .  : null {S}Grain size at the top 
Grain_size_Base.-  .  : null {S}Grain size at the bottom
Sub_Environment.-  .  : null {S}Sub Environment
Gross_Environment.-.  : null {S}Gross Environment

~Ascii
# ...
4691.4 "6506_12-7"  77.9400 "Sandstone" -999.25                       -999.25 100.0000      0.0       0.0 "c/vc"     "c/vc"    "Shalloow_marine,_upper_shoreface._Close_to_a_river_mouth,_or_tidal_channel"                 "UPPER_DELTA_FRONT"                                      
4691.5 "6506_12-7"  79.4600 "Sandstone" -999.25                       -999.25 100.0000      0.0       0.0 "c/vc"     "c/vc"    "Shalloow_marine,_upper_shoreface._Close_to_a_river_mouth,_or_tidal_channel"                 "UPPER_DELTA_FRONT"                                      
4691.6 "6506_12-7"  81.2500 "Sandstone" -999.25                       -999.25 100.0000      0.0       0.0 "c/vc"     "c/vc"    "Shalloow_marine,_upper_shoreface._Close_to_a_river_mouth,_or_tidal_channel"                 "UPPER_DELTA_FRONT"                                      
4691.7 "6506_12-7"  83.0400 "Sandstone" -999.25                       -999.25 100.0000      0.0       0.0 "c/vc"     "c/vc"    "Shalloow_marine,_upper_shoreface._Close_to_a_river_mouth,_or_tidal_channel"                 "UPPER_DELTA_FRONT"                                      
4691.8 "6506_12-7"  84.8500 "Sandstone" -999.25                       -999.25 100.0000      0.0       0.0 "c/vc"     "c/vc"    "Shalloow_marine,_upper_shoreface._Close_to_a_river_mouth,_or_tidal_channel"                 "UPPER_DELTA_FRONT"                                      
4691.9 "6506_12-7"  86.7600 "Sandstone" -999.25                       -999.25 100.0000      0.0       0.0 "c/vc"     "c/vc"    "Shalloow_marine,_upper_shoreface._Close_to_a_river_mouth,_or_tidal_channel"                 "UPPER_DELTA_FRONT"                                      
4692.0 "6506_12-7"  88.6600 "Sandstone" -999.25                       -999.25 100.0000      0.0       0.0 "c/vc"     "c/vc"    "Shalloow_marine,_upper_shoreface._Close_to_a_river_mouth,_or_tidal_channel"                 "UPPER_DELTA_FRONT"                                      
4692.1 "6506_12-7"  90.1700 "Sandstone" -999.25                       "Clay"  100.0000      0.0   5.00000 "vc"       "m/c"     "Shalloow_marine,_upper_shoreface._Close_to_a_river_mouth,_or_tidal_channel"                 "UPPER_DELTA_FRONT"                                      
4692.2 "6506_12-7"  90.5300 "Sandstone" -999.25                       "Clay"  100.0000      0.0   5.00000 "vc"       "m/c"     "Shalloow_marine,_upper_shoreface._Close_to_a_river_mouth,_or_tidal_channel"                 "UPPER_DELTA_FRONT"                                      
4692.3 "6506_12-7"  89.9100 "Sandstone" -999.25                       "Clay"  100.0000      0.0   5.00000 "vc"       "m/c"     "Shalloow_marine,_upper_shoreface._Close_to_a_river_mouth,_or_tidal_channel"                 "UPPER_DELTA_FRONT"                                      
4692.4 "6506_12-7"  89.0700 "Sandstone" -999.25                       "Clay"  100.0000      0.0   5.00000 "vc"       "m/c"     "Shalloow_marine,_upper_shoreface._Close_to_a_river_mouth,_or_tidal_channel"                 "UPPER_DELTA_FRONT"                                      
4692.5 "6506_12-7"  85.9400 "Sandstone" -999.25                       "Clay"  100.0000      0.0   5.00000 "vc"       "m/c"     "Shalloow_marine,_upper_shoreface._Close_to_a_river_mouth,_or_tidal_channel"                 "UPPER_DELTA_FRONT"                                      
4692.6 "6506_12-7"  82.8100 "Sandstone" -999.25                       "Clay"  100.0000      0.0   5.00000 "vc"       "m/c"     "Shalloow_marine,_upper_shoreface._Close_to_a_river_mouth,_or_tidal_channel"                 "UPPER_DELTA_FRONT"                                      
4692.7 "6506_12-7"  79.6800 "Sandstone" -999.25                       "Clay"  100.0000      0.0   5.00000 "vc"       "m/c"     "Shalloow_marine,_upper_shoreface._Close_to_a_river_mouth,_or_tidal_channel"                 "UPPER_DELTA_FRONT"                                      
4692.8 "6506_12-7"  76.5500 "Sandstone" -999.25                       "Clay"  100.0000      0.0   5.00000 "vc"       "m/c"     "Shalloow_marine,_upper_shoreface._Close_to_a_river_mouth,_or_tidal_channel"                 "UPPER_DELTA_FRONT"                                      
4692.9 "6506_12-7"  73.4200 "Sandstone" -999.25                       "Clay"  100.0000      0.0   5.00000 "vc"       "m/c"     "Shalloow_marine,_upper_shoreface._Close_to_a_river_mouth,_or_tidal_channel"                 "UPPER_DELTA_FRONT"                                      
4693.0 "6506_12-7"  70.2900 "Sandstone" -999.25                       "Clay"  100.0000      0.0   5.00000 "vc"       "m/c"     "Shalloow_marine,_upper_shoreface._Close_to_a_river_mouth,_or_tidal_channel"                 "UPPER_DELTA_FRONT"                                      
4693.1 "6506_12-7"  67.8400 "Sandstone" -999.25                       "Clay"  100.0000      0.0   5.00000 "vc"       "m/c"     "Shalloow_marine,_upper_shoreface._Close_to_a_river_mouth,_or_tidal_channel"                 "UPPER_DELTA_FRONT"                                      
4693.2 "6506_12-7"  65.8200 "Sandstone" -999.25                       "Clay"  100.0000      0.0   5.00000 "vc"       "m/c"     "Shalloow_marine,_upper_shoreface._Close_to_a_river_mouth,_or_tidal_channel"                 "UPPER_DELTA_FRONT"                                      
4693.3 "6506_12-7"  64.6200 "Sandstone" -999.25                       "Clay"  100.0000      0.0   5.00000 "vc"       "m/c"     "Shalloow_marine,_upper_shoreface._Close_to_a_river_mouth,_or_tidal_channel"                 "UPPER_DELTA_FRONT"                                      
4693.4 "6506_12-7"  63.7800 "Sandstone" -999.25                       "Clay"  100.0000      0.0   5.00000 "vc"       "m/c"     "Shalloow_marine,_upper_shoreface._Close_to_a_river_mouth,_or_tidal_channel"                 "UPPER_DELTA_FRONT"                                      
4693.5 "6506_12-7"  63.6700 "Sandstone" -999.25                       "Clay"  100.0000      0.0   5.00000 "vc"       "m/c"     "Shalloow_marine,_upper_shoreface._Close_to_a_river_mouth,_or_tidal_channel"                 "UPPER_DELTA_FRONT"                                      
4693.6 "6506_12-7"  63.9500 "Sandstone" -999.25                       "Clay"  100.0000      0.0   5.00000 "vc"       "m/c"     "Shalloow_marine,_upper_shoreface._Close_to_a_river_mouth,_or_tidal_channel"                 "UPPER_DELTA_FRONT"                                      
4693.7 "6506_12-7"  64.6300 "Sandstone" -999.25                       "Clay"  100.0000      0.0   5.00000 "vc"       "m/c"     "Shalloow_marine,_upper_shoreface._Close_to_a_river_mouth,_or_tidal_channel"                 "UPPER_DELTA_FRONT"                                      
4693.8 "6506_12-7"  65.3500 "Sandstone" -999.25                       -999.25 100.0000      0.0       0.0 "f/m"      "vc"      "Shalloow_marine,_upper_shoreface._Close_to_a_river_mouth,_or_tidal_channel"                 "UPPER_DELTA_FRONT"                                      
4693.9 "6506_12-7"  66.0800 "Sandstone" -999.25                       -999.25 100.0000      0.0       0.0 "f/m"      "vc"      "Shalloow_marine,_upper_shoreface._Close_to_a_river_mouth,_or_tidal_channel"                 "UPPER_DELTA_FRONT"                                      
4694.0 "6506_12-7"  66.1900 "Sandstone" -999.25                       -999.25 100.0000      0.0       0.0 "f/m"      "vc"      "Shalloow_marine,_upper_shoreface._Close_to_a_river_mouth,_or_tidal_channel"                 "UPPER_DELTA_FRONT"                                      
4694.1 "6506_12-7"  65.8000 "Sandstone" -999.25                       -999.25 100.0000      0.0       0.0 "f/m"      "vc"      "Shalloow_marine,_upper_shoreface._Close_to_a_river_mouth,_or_tidal_channel"                 "UPPER_DELTA_FRONT"                                      
4694.2 "6506_12-7"  65.1600 "Sandstone" -999.25                       -999.25 100.0000      0.0       0.0 "f/m"      "vc"      "Shalloow_marine,_upper_shoreface._Close_to_a_river_mouth,_or_tidal_channel"                 "UPPER_DELTA_FRONT"                                      
