~Version
VERS  .                                 3.0 : CWLS LAS ASCII Standard - Version 3.0
WRAP  . NO                                  : One line per depth step
DLM   . SPACE                               : Column data section delimiter
SOURCE. Converted to LAS by Log Studio 4.76 : GeoProvider

~Well
STRT.         4053.4 : Start depth
STOP.         4700.0 : Stop depth
STEP.              1 : Step
NULL.        -999.25 : No-value
COMP.                : Company
WELL. 6506/12-7      : Well
FLD .                : Field
LOC .                : Location
LATI.                : Latitude
LONG.                : Longitude
GDAT.                : Geodetic datum
CNTY.                : County
STAT.                : State
CTRY.                : Country
SRVC. GeoProvider AS : Service company
DATE.                : Date
API .                : API number
RUN .                : Run number

~Parameters
WellboreName.  : Wellbore name
RigName     .  : Rig name
StartDate   .  : Start date

~Curves
DEPTH.m            .  : null {F}Depth mMD
Hole_ID.-          .  : null {S}Hole ID
GR.API             .  : null {F}Gamma Ray
Lithology1.-       .  : null {S}Lithology 1
Lithology2.-       .  : null {S}Lithology 2
Lithology3.-       .  : null {S}Lithology 3
Lithology1.%       .  : null {F}Lithology 1 percentage
Lithology2.%       .  : null {F}Lithology 2 percentage
Lithology3.%       .  : null {F}Lithology 3 percentage
Grain_size_Top.-   .  : null {S}Grain size at the top 
Grain_size_Base.-  .  : null {S}Grain size at the bottom
Sub_Environment.-  .  : null {S}Sub Environment
Gross_Environment.-.  : null {S}Gross Environment

~Ascii
# ...
4491.3 "6506_12-7"  64.3900 "Sandstone" -999.25                       -999.25 100.0000      0.0       0.0 "c/vc"     "m/c"     "Strongly_fluvial_infloenced_upper_shoreface_or_very_proximat_mouth_bar_complex"             "Lower_delta_plain_channel_or_proximal_delta_front_complex"
4491.4 "6506_12-7"  64.3700 "Sandstone" -999.25                       -999.25 100.0000      0.0       0.0 "c/vc"     "m/c"     "Strongly_fluvial_infloenced_upper_shoreface_or_very_proximat_mouth_bar_complex"             "Lower_delta_plain_channel_or_proximal_delta_front_complex"
4491.5 "6506_12-7"  65.1300 "Sandstone" -999.25                       -999.25 100.0000      0.0       0.0 "c/vc"     "m/c"     "Strongly_fluvial_infloenced_upper_shoreface_or_very_proximat_mouth_bar_complex"             "Lower_delta_plain_channel_or_proximal_delta_front_complex"
4491.6 "6506_12-7"  66.1600 "Sandstone" -999.25                       -999.25 100.0000      0.0       0.0 "c/vc"     "m/c"     "Strongly_fluvial_infloenced_upper_shoreface_or_very_proximat_mouth_bar_complex"             "Lower_delta_plain_channel_or_proximal_delta_front_complex"
4491.7 "6506_12-7"  68.1000 "Sandstone" -999.25                       -999.25 100.0000      0.0       0.0 "c/vc"     "m/c"     "Strongly_fluvial_infloenced_upper_shoreface_or_very_proximat_mouth_bar_complex"             "Lower_delta_plain_channel_or_proximal_delta_front_complex"
4491.8 "6506_12-7"  70.0300 "Sandstone" -999.25                       -999.25 100.0000      0.0       0.0 "c/vc"     "m/c"     "Strongly_fluvial_infloenced_upper_shoreface_or_very_proximat_mouth_bar_complex"             "Lower_delta_plain_channel_or_proximal_delta_front_complex"
4491.9 "6506_12-7"  71.9700 "Sandstone" "Clay"                        -999.25  93.0000  7.00000       0.0 "silt"     "f/m"     "Strongly_fluvial_infloenced_upper_shoreface_or_very_proximat_mouth_bar_complex"             "Lower_delta_plain_channel_or_proximal_delta_front_complex"
4492.0 "6506_12-7"  74.2600 "Sandstone" "Clay"                        -999.25  93.0000  7.00000       0.0 "silt"     "f/m"     "Strongly_fluvial_infloenced_upper_shoreface_or_very_proximat_mouth_bar_complex"             "Lower_delta_plain_channel_or_proximal_delta_front_complex"
4492.1 "6506_12-7"  76.6300 "Sandstone" "Clay"                        -999.25  93.0000  7.00000       0.0 "silt"     "f/m"     "Strongly_fluvial_infloenced_upper_shoreface_or_very_proximat_mouth_bar_complex"             "Lower_delta_plain_channel_or_proximal_delta_front_complex"
4492.2 "6506_12-7"  79.0300 "Sandstone" "Clay"                        -999.25  93.0000  7.00000       0.0 "silt"     "f/m"     "Strongly_fluvial_infloenced_upper_shoreface_or_very_proximat_mouth_bar_complex"             "Lower_delta_plain_channel_or_proximal_delta_front_complex"
4492.3 "6506_12-7"  81.5200 "Sandstone" "Clay"                        -999.25  93.0000  7.00000       0.0 "silt"     "f/m"     "Strongly_fluvial_infloenced_upper_shoreface_or_very_proximat_mouth_bar_complex"             "Lower_delta_plain_channel_or_proximal_delta_front_complex"
4492.4 "6506_12-7"  84.0200 "Sandstone" "Clay"                        -999.25  93.0000  7.00000       0.0 "silt"     "f/m"     "Strongly_fluvial_infloenced_upper_shoreface_or_very_proximat_mouth_bar_complex"             "Lower_delta_plain_channel_or_proximal_delta_front_complex"
4492.5 "6506_12-7"  85.9500 "Sandstone" "Limestone"                   -999.25  89.0000  8.00000       0.0 "c/vc"     "vc"      "Fluvial_channel/mouth_bar_complex"                                                          "Lower_delta_plain_channel_or_proximal_delta_front_complex"
4492.6 "6506_12-7"  87.5300 "Sandstone" "Limestone"                   -999.25  89.0000  8.00000       0.0 "c/vc"     "vc"      "Fluvial_channel/mouth_bar_complex"                                                          "Lower_delta_plain_channel_or_proximal_delta_front_complex"
4492.7 "6506_12-7"  89.1200 "Sandstone" "Limestone"                   -999.25  89.0000  8.00000       0.0 "c/vc"     "vc"      "Fluvial_channel/mouth_bar_complex"                                                          "Lower_delta_plain_channel_or_proximal_delta_front_complex"
4492.8 "6506_12-7"  89.4500 "Sandstone" "Limestone"                   -999.25  89.0000  8.00000       0.0 "c/vc"     "vc"      "Fluvial_channel/mouth_bar_complex"                                                          "Lower_delta_plain_channel_or_proximal_delta_front_complex"
4492.9 "6506_12-7"  89.3800 "Sandstone" "Limestone"                   -999.25  89.0000  8.00000       0.0 "c/vc"     "vc"      "Fluvial_channel/mouth_bar_complex"                                                          "Lower_delta_plain_channel_or_proximal_delta_front_complex"
4493.0 "6506_12-7"  88.6000 "Sandstone" "Limestone"                   -999.25  89.0000  8.00000       0.0 "c/vc"     "vc"      "Fluvial_channel/mouth_bar_complex"                                                          "Lower_delta_plain_channel_or_proximal_delta_front_complex"
4493.1 "6506_12-7"  87.0800 "Sandstone" "Limestone"                   -999.25  89.0000  8.00000       0.0 "c/vc"     "vc"      "Fluvial_channel/mouth_bar_complex"                                                          "Lower_delta_plain_channel_or_proximal_delta_front_complex"
4493.2 "6506_12-7"  85.5600 "Sandstone" "Limestone"                   -999.25  89.0000  8.00000       0.0 "c/vc"     "vc"      "Fluvial_channel/mouth_bar_complex"                                                          "Lower_delta_plain_channel_or_proximal_delta_front_complex"
4493.3 "6506_12-7"  84.7000 "Sandstone" "Limestone"                   -999.25  89.0000  8.00000       0.0 "c/vc"     "vc"      "Fluvial_channel/mouth_bar_complex"                                                          "Lower_delta_plain_channel_or_proximal_delta_front_complex"
4493.4 "6506_12-7"  84.5300 "Sandstone" "Limestone"                   -999.25  89.0000  8.00000       0.0 "c/vc"     "vc"      "Fluvial_channel/mouth_bar_complex"                                                          "Lower_delta_plain_channel_or_proximal_delta_front_complex"
4493.5 "6506_12-7"  84.3500 "Sandstone" "Limestone"                   -999.25  89.0000  8.00000       0.0 "c/vc"     "vc"      "Fluvial_channel/mouth_bar_complex"                                                          "Lower_delta_plain_channel_or_proximal_delta_front_complex"
4493.6 "6506_12-7"  84.0500 "Sandstone" "Limestone"                   -999.25  89.0000  8.00000       0.0 "c/vc"     "vc"      "Fluvial_channel/mouth_bar_complex"                                                          "Lower_delta_plain_channel_or_proximal_delta_front_complex"
4493.7 "6506_12-7"  83.5700 "Sandstone" "Limestone"                   -999.25  89.0000  8.00000       0.0 "c/vc"     "vc"      "Fluvial_channel/mouth_bar_complex"                                                          "Lower_delta_plain_channel_or_proximal_delta_front_complex"
4493.8 "6506_12-7"  82.1800 "Sandstone" "Limestone"                   -999.25  89.0000  8.00000       0.0 "c/vc"     "vc"      "Fluvial_channel/mouth_bar_complex"                                                          "Lower_delta_plain_channel_or_proximal_delta_front_complex"
4493.9 "6506_12-7"  80.5400 "Sandstone" "Limestone"                   -999.25  89.0000  8.00000       0.0 "c/vc"     "vc"      "Fluvial_channel/mouth_bar_complex"                                                          "Lower_delta_plain_channel_or_proximal_delta_front_complex"
4494.0 "6506_12-7"  77.8200 "Sandstone" "Limestone"                   -999.25  89.0000  8.00000       0.0 "c/vc"     "vc"      "Fluvial_channel/mouth_bar_complex"                                                          "Lower_delta_plain_channel_or_proximal_delta_front_complex"
4494.1 "6506_12-7"  75.4900 "Sandstone" "Limestone"                   -999.25  89.0000  8.00000       0.0 "c/vc"     "vc"      "Fluvial_channel/mouth_bar_complex"                                                          "Lower_delta_plain_channel_or_proximal_delta_front_complex"
