~Version
VERS  .                                 3.0 : CWLS LAS ASCII Standard - Version 3.0
WRAP  . NO                                  : One line per depth step
DLM   . SPACE                               : Column data section delimiter
SOURCE. Converted to LAS by Log Studio 4.76 : GeoProvider

~Well
STRT.         4053.4 : Start depth
STOP.         4700.0 : Stop depth
STEP.              1 : Step
NULL.        -999.25 : No-value
COMP.                : Company
WELL. 6506/12-7      : Well
FLD .                : Field
LOC .                : Location
LATI.                : Latitude
LONG.                : Longitude
GDAT.                : Geodetic datum
CNTY.                : County
STAT.                : State
CTRY.                : Country
SRVC. GeoProvider AS : Service company
DATE.                : Date
API .                : API number
RUN .                : Run number

~Parameters
WellboreName.  : Wellbore name
RigName     .  : Rig name
StartDate   .  : Start date

~Curves
DEPTH.m            .  : null {F}Depth mMD
Hole_ID.-          .  : null {S}Hole ID
GR.API             .  : null {F}Gamma Ray
Lithology1.-       .  : null {S}Lithology 1
Lithology2.-       .  : null {S}Lithology 2
Lithology3.-       .  : null {S}Lithology 3
Lithology1.%       .  : null {F}Lithology 1 percentage
Lithology2.%       .  : null {F}Lithology 2 percentage
Lithology3.%       .  : null {F}Lithology 3 percentage
Grain_size_Top.-   .  : null {S}Grain size at the top 
Grain_size_Base.-  .  : null {S}Grain size at the bottom
Sub_Environment.-  .  : null {S}Sub Environment
Gross_Environment.-.  : null {S}Gross Environment

~Ascii
# ...
4676.9 "6506_12-7"  81.9900 "Sandstone" "Mudstone"                    -999.25  20.0000 80.00000       0.0 "silt/vf"  "c/vc"    "Coarsening-upwards_due_to_prograding_delta_front"                                           "PRODELTA/OUTER_SHELF"                                   
4677.0 "6506_12-7"  81.6000 "Sandstone" "Mudstone"                    -999.25  20.0000 80.00000       0.0 "silt/vf"  "c/vc"    "Coarsening-upwards_due_to_prograding_delta_front"                                           "PRODELTA/OUTER_SHELF"                                   
4677.1 "6506_12-7"  81.2000 "Sandstone" "Mudstone"                    -999.25  20.0000 80.00000       0.0 "silt/vf"  "c/vc"    "Coarsening-upwards_due_to_prograding_delta_front"                                           "PRODELTA/OUTER_SHELF"                                   
4677.2 "6506_12-7"  81.1700 "Sandstone" "Mudstone"                    -999.25  20.0000 80.00000       0.0 "silt/vf"  "c/vc"    "Coarsening-upwards_due_to_prograding_delta_front"                                           "PRODELTA/OUTER_SHELF"                                   
4677.3 "6506_12-7"  81.1700 "Sandstone" "Mudstone"                    -999.25  20.0000 80.00000       0.0 "silt/vf"  "c/vc"    "Coarsening-upwards_due_to_prograding_delta_front"                                           "PRODELTA/OUTER_SHELF"                                   
4677.4 "6506_12-7"  81.3600 "Sandstone" "Mudstone"                    -999.25  20.0000 80.00000       0.0 "silt/vf"  "c/vc"    "Coarsening-upwards_due_to_prograding_delta_front"                                           "PRODELTA/OUTER_SHELF"                                   
4677.5 "6506_12-7"  81.9300 "Sandstone" "Mudstone"                    -999.25  20.0000 80.00000       0.0 "silt/vf"  "c/vc"    "Coarsening-upwards_due_to_prograding_delta_front"                                           "PRODELTA/OUTER_SHELF"                                   
4677.6 "6506_12-7"  82.4500 "Sandstone" "Mudstone"                    -999.25  20.0000 80.00000       0.0 "silt/vf"  "c/vc"    "Coarsening-upwards_due_to_prograding_delta_front"                                           "PRODELTA/OUTER_SHELF"                                   
4677.7 "6506_12-7"  82.5800 "Sandstone" "Mudstone"                    -999.25  20.0000 80.00000       0.0 "silt/vf"  "c/vc"    "Coarsening-upwards_due_to_prograding_delta_front"                                           "PRODELTA/OUTER_SHELF"                                   
4677.8 "6506_12-7"  82.7200 "Sandstone" "Mudstone"                    -999.25  20.0000 80.00000       0.0 "silt/vf"  "c/vc"    "Coarsening-upwards_due_to_prograding_delta_front"                                           "PRODELTA/OUTER_SHELF"                                   
4677.9 "6506_12-7"  82.8500 "Sandstone" "Mudstone"                    -999.25  20.0000 80.00000       0.0 "silt/vf"  "c/vc"    "Coarsening-upwards_due_to_prograding_delta_front"                                           "PRODELTA/OUTER_SHELF"                                   
4678.0 "6506_12-7"  82.8000 "Sandstone" "Mudstone"                    -999.25  20.0000 80.00000       0.0 "silt/vf"  "c/vc"    "Coarsening-upwards_due_to_prograding_delta_front"                                           "PRODELTA/OUTER_SHELF"                                   
4678.1 "6506_12-7"  82.5200 "Sandstone" "Mudstone"                    -999.25  20.0000 80.00000       0.0 "silt/vf"  "c/vc"    "Coarsening-upwards_due_to_prograding_delta_front"                                           "PRODELTA/OUTER_SHELF"                                   
4678.2 "6506_12-7"  81.9300 "Sandstone" "Mudstone"                    -999.25  20.0000 80.00000       0.0 "silt/vf"  "c/vc"    "Coarsening-upwards_due_to_prograding_delta_front"                                           "PRODELTA/OUTER_SHELF"                                   
4678.3 "6506_12-7"  81.3400 "Sandstone" "Mudstone"                    -999.25  20.0000 80.00000       0.0 "silt/vf"  "c/vc"    "Coarsening-upwards_due_to_prograding_delta_front"                                           "PRODELTA/OUTER_SHELF"                                   
4678.4 "6506_12-7"  81.1400 "Sandstone" "Mudstone"                    -999.25  20.0000 80.00000       0.0 "silt/vf"  "c/vc"    "Coarsening-upwards_due_to_prograding_delta_front"                                           "PRODELTA/OUTER_SHELF"                                   
4678.5 "6506_12-7"  81.0900 "Sandstone" "Mudstone"                    -999.25  20.0000 80.00000       0.0 "silt/vf"  "c/vc"    "Coarsening-upwards_due_to_prograding_delta_front"                                           "PRODELTA/OUTER_SHELF"                                   
4678.6 "6506_12-7"  81.9000 "Sandstone" "Mudstone"                    -999.25  20.0000 80.00000       0.0 "silt/vf"  "c/vc"    "Coarsening-upwards_due_to_prograding_delta_front"                                           "PRODELTA/OUTER_SHELF"                                   
4678.7 "6506_12-7"  83.0000 "Sandstone" "Mudstone"                    -999.25  20.0000 80.00000       0.0 "silt/vf"  "c/vc"    "Coarsening-upwards_due_to_prograding_delta_front"                                           "PRODELTA/OUTER_SHELF"                                   
4678.8 "6506_12-7"  83.0800 "Sandstone" "Mudstone"                    -999.25  20.0000 80.00000       0.0 "silt/vf"  "c/vc"    "Coarsening-upwards_due_to_prograding_delta_front"                                           "PRODELTA/OUTER_SHELF"                                   
4678.9 "6506_12-7"  82.3600 "Sandstone" "Mudstone"                    -999.25  20.0000 80.00000       0.0 "silt/vf"  "c/vc"    "Coarsening-upwards_due_to_prograding_delta_front"                                           "PRODELTA/OUTER_SHELF"                                   
4679.0 "6506_12-7"  81.6400 "Sandstone" "Mudstone"                    -999.25  20.0000 80.00000       0.0 "silt/vf"  "c/vc"    "Coarsening-upwards_due_to_prograding_delta_front"                                           "PRODELTA/OUTER_SHELF"                                   
4679.1 "6506_12-7"  80.9800 "Sandstone" "Mudstone"                    -999.25  20.0000 80.00000       0.0 "silt/vf"  "c/vc"    "Coarsening-upwards_due_to_prograding_delta_front"                                           "PRODELTA/OUTER_SHELF"                                   
4679.2 "6506_12-7"  80.1000 "Sandstone" "Mudstone"                    -999.25  20.0000 80.00000       0.0 "silt/vf"  "c/vc"    "Coarsening-upwards_due_to_prograding_delta_front"                                           "PRODELTA/OUTER_SHELF"                                   
4679.3 "6506_12-7"  78.8900 "Sandstone" "Mudstone"                    -999.25  20.0000 80.00000       0.0 "silt/vf"  "c/vc"    "Coarsening-upwards_due_to_prograding_delta_front"                                           "PRODELTA/OUTER_SHELF"                                   
4679.4 "6506_12-7"  78.0100 "Sandstone" "Mudstone"                    -999.25  20.0000 80.00000       0.0 "silt/vf"  "c/vc"    "Coarsening-upwards_due_to_prograding_delta_front"                                           "PRODELTA/OUTER_SHELF"                                   
4679.5 "6506_12-7"  77.1200 "Sandstone" "Mudstone"                    -999.25  20.0000 80.00000       0.0 "silt/vf"  "c/vc"    "Coarsening-upwards_due_to_prograding_delta_front"                                           "PRODELTA/OUTER_SHELF"                                   
4679.6 "6506_12-7"  76.2400 "Sandstone" "Mudstone"                    -999.25  20.0000 80.00000       0.0 "silt/vf"  "c/vc"    "Open_marine_offshore"                                                                       "PRODELTA/OUTER_SHELF"                                   
4679.7 "6506_12-7"  75.8300 "Sandstone" "Mudstone"                    -999.25  20.0000 80.00000       0.0 "silt/vf"  "c/vc"    "Open_marine_offshore"                                                                       "PRODELTA/OUTER_SHELF"                                   
