~Version
VERS  .                                 3.0 : CWLS LAS ASCII Standard - Version 3.0
WRAP  . NO                                  : One line per depth step
DLM   . SPACE                               : Column data section delimiter
SOURCE. Converted to LAS by Log Studio 4.76 : GeoProvider

~Well
STRT.         4053.4 : Start depth
STOP.         4700.0 : Stop depth
STEP.              1 : Step
NULL.        -999.25 : No-value
COMP.                : Company
WELL. 6506/12-7      : Well
FLD .                : Field
LOC .                : Location
LATI.                : Latitude
LONG.                : Longitude
GDAT.                : Geodetic datum
CNTY.                : County
STAT.                : State
CTRY.                : Country
SRVC. GeoProvider AS : Service company
DATE.                : Date
API .                : API number
RUN .                : Run number

~Parameters
WellboreName.  : Wellbore name
RigName     .  : Rig name
StartDate   .  : Start date

~Curves
DEPTH.m            .  : null {F}Depth mMD
Hole_ID.-          .  : null {S}Hole ID
GR.API             .  : null {F}Gamma Ray
Lithology1.-       .  : null {S}Lithology 1
Lithology2.-       .  : null {S}Lithology 2
Lithology3.-       .  : null {S}Lithology 3
Lithology1.%       .  : null {F}Lithology 1 percentage
Lithology2.%       .  : null {F}Lithology 2 percentage
Lithology3.%       .  : null {F}Lithology 3 percentage
Grain_size_Top.-   .  : null {S}Grain size at the top 
Grain_size_Base.-  .  : null {S}Grain size at the bottom
Sub_Environment.-  .  : null {S}Sub Environment
Gross_Environment.-.  : null {S}Gross Environment

~Ascii
# ...
4479.7 "6506_12-7"  76.7200 "Sandstone" -999.25                       -999.25 100.0000      0.0       0.0 "f/m"      "vf/f"    "Strongly_fluvial_infloenced_upper_shoreface_or_very_proximat_mouth_bar_complex"             "Lower_delta_plain_channel_or_proximal_delta_front_complex"
4479.8 "6506_12-7"  77.3900 "Sandstone" -999.25                       -999.25 100.0000      0.0       0.0 "f/m"      "vf/f"    "Strongly_fluvial_infloenced_upper_shoreface_or_very_proximat_mouth_bar_complex"             "Lower_delta_plain_channel_or_proximal_delta_front_complex"
4479.9 "6506_12-7"  78.0700 "Sandstone" -999.25                       -999.25 100.0000      0.0       0.0 "f/m"      "vf/f"    "Strongly_fluvial_infloenced_upper_shoreface_or_very_proximat_mouth_bar_complex"             "Lower_delta_plain_channel_or_proximal_delta_front_complex"
4480.0 "6506_12-7"  78.3300 "Sandstone" -999.25                       -999.25 100.0000      0.0       0.0 "f/m"      "vf/f"    "Strongly_fluvial_infloenced_upper_shoreface_or_very_proximat_mouth_bar_complex"             "Lower_delta_plain_channel_or_proximal_delta_front_complex"
4480.1 "6506_12-7"  78.3300 "Sandstone" -999.25                       -999.25 100.0000      0.0       0.0 "f/m"      "vf/f"    "Strongly_fluvial_infloenced_upper_shoreface_or_very_proximat_mouth_bar_complex"             "Lower_delta_plain_channel_or_proximal_delta_front_complex"
4480.2 "6506_12-7"  77.6300 "Sandstone" -999.25                       -999.25 100.0000      0.0       0.0 "f/m"      "vf/f"    "Strongly_fluvial_infloenced_upper_shoreface_or_very_proximat_mouth_bar_complex"             "Lower_delta_plain_channel_or_proximal_delta_front_complex"
4480.3 "6506_12-7"  76.4700 "Sandstone" -999.25                       -999.25 100.0000      0.0       0.0 "f/m"      "vf/f"    "Strongly_fluvial_infloenced_upper_shoreface_or_very_proximat_mouth_bar_complex"             "Lower_delta_plain_channel_or_proximal_delta_front_complex"
4480.4 "6506_12-7"  74.7700 "Sandstone" -999.25                       -999.25 100.0000      0.0       0.0 "f/m"      "vf/f"    "Strongly_fluvial_infloenced_upper_shoreface_or_very_proximat_mouth_bar_complex"             "Lower_delta_plain_channel_or_proximal_delta_front_complex"
4480.5 "6506_12-7"  73.0800 "Sandstone" -999.25                       -999.25 100.0000      0.0       0.0 "f/m"      "vf/f"    "Strongly_fluvial_infloenced_upper_shoreface_or_very_proximat_mouth_bar_complex"             "Lower_delta_plain_channel_or_proximal_delta_front_complex"
4480.6 "6506_12-7"  71.3800 "Sandstone" -999.25                       -999.25 100.0000      0.0       0.0 "m/c"      "m/c"     "Strongly_fluvial_infloenced_upper_shoreface_or_very_proximat_mouth_bar_complex"             "Lower_delta_plain_channel_or_proximal_delta_front_complex"
4480.7 "6506_12-7"  70.0700 "Sandstone" -999.25                       -999.25 100.0000      0.0       0.0 "m/c"      "m/c"     "Strongly_fluvial_infloenced_upper_shoreface_or_very_proximat_mouth_bar_complex"             "Lower_delta_plain_channel_or_proximal_delta_front_complex"
4480.8 "6506_12-7"  68.7800 "Sandstone" -999.25                       -999.25 100.0000      0.0       0.0 "m/c"      "m/c"     "Strongly_fluvial_infloenced_upper_shoreface_or_very_proximat_mouth_bar_complex"             "Lower_delta_plain_channel_or_proximal_delta_front_complex"
4480.9 "6506_12-7"  67.7900 "Sandstone" -999.25                       -999.25 100.0000      0.0       0.0 "m/c"      "m/c"     "Strongly_fluvial_infloenced_upper_shoreface_or_very_proximat_mouth_bar_complex"             "Lower_delta_plain_channel_or_proximal_delta_front_complex"
4481.0 "6506_12-7"  67.2900 "Sandstone" -999.25                       -999.25 100.0000      0.0       0.0 "m/c"      "m/c"     "Strongly_fluvial_infloenced_upper_shoreface_or_very_proximat_mouth_bar_complex"             "Lower_delta_plain_channel_or_proximal_delta_front_complex"
4481.1 "6506_12-7"  67.2900 "Sandstone" -999.25                       -999.25 100.0000      0.0       0.0 "m/c"      "m"       "Strongly_fluvial_infloenced_upper_shoreface_or_very_proximat_mouth_bar_complex"             "Lower_delta_plain_channel_or_proximal_delta_front_complex"
4481.2 "6506_12-7"  67.5000 "Sandstone" -999.25                       -999.25 100.0000      0.0       0.0 "m/c"      "m"       "Strongly_fluvial_infloenced_upper_shoreface_or_very_proximat_mouth_bar_complex"             "Lower_delta_plain_channel_or_proximal_delta_front_complex"
4481.3 "6506_12-7"  67.9900 "Sandstone" -999.25                       -999.25 100.0000      0.0       0.0 "m/c"      "m"       "Strongly_fluvial_infloenced_upper_shoreface_or_very_proximat_mouth_bar_complex"             "Lower_delta_plain_channel_or_proximal_delta_front_complex"
4481.4 "6506_12-7"  69.7600 "Sandstone" -999.25                       -999.25 100.0000      0.0       0.0 "m/c"      "m"       "Strongly_fluvial_infloenced_upper_shoreface_or_very_proximat_mouth_bar_complex"             "Lower_delta_plain_channel_or_proximal_delta_front_complex"
4481.5 "6506_12-7"  70.5800 "Sandstone" -999.25                       -999.25 100.0000      0.0       0.0 "m/c"      "m"       "Strongly_fluvial_infloenced_upper_shoreface_or_very_proximat_mouth_bar_complex"             "Lower_delta_plain_channel_or_proximal_delta_front_complex"
4481.6 "6506_12-7"  70.0500 "Sandstone" -999.25                       -999.25 100.0000      0.0       0.0 "m/c"      "m/c"     "Strongly_fluvial_infloenced_upper_shoreface_or_very_proximat_mouth_bar_complex"             "Lower_delta_plain_channel_or_proximal_delta_front_complex"
4481.7 "6506_12-7"  69.4000 "Sandstone" -999.25                       -999.25 100.0000      0.0       0.0 "m/c"      "m/c"     "Strongly_fluvial_infloenced_upper_shoreface_or_very_proximat_mouth_bar_complex"             "Lower_delta_plain_channel_or_proximal_delta_front_complex"
4481.8 "6506_12-7"  69.0000 "Sandstone" -999.25                       -999.25 100.0000      0.0       0.0 "m/c"      "m/c"     "Strongly_fluvial_infloenced_upper_shoreface_or_very_proximat_mouth_bar_complex"             "Lower_delta_plain_channel_or_proximal_delta_front_complex"
4481.9 "6506_12-7"  69.5600 "Sandstone" -999.25                       -999.25 100.0000      0.0       0.0 "m/c"      "m/c"     "Strongly_fluvial_infloenced_upper_shoreface_or_very_proximat_mouth_bar_complex"             "Lower_delta_plain_channel_or_proximal_delta_front_complex"
4482.0 "6506_12-7"  70.8000 "Sandstone" -999.25                       -999.25 100.0000      0.0       0.0 "m/c"      "m/c"     "Strongly_fluvial_infloenced_upper_shoreface_or_very_proximat_mouth_bar_complex"             "Lower_delta_plain_channel_or_proximal_delta_front_complex"
4482.1 "6506_12-7"  72.7100 "Sandstone" -999.25                       -999.25 100.0000      0.0       0.0 "m/c"      "m/c"     "Strongly_fluvial_infloenced_upper_shoreface_or_very_proximat_mouth_bar_complex"             "Lower_delta_plain_channel_or_proximal_delta_front_complex"
4482.2 "6506_12-7"  74.4500 "Sandstone" -999.25                       -999.25 100.0000      0.0       0.0 "c/vc"     "m/c"     "Strongly_fluvial_infloenced_upper_shoreface_or_very_proximat_mouth_bar_complex"             "Lower_delta_plain_channel_or_proximal_delta_front_complex"
4482.3 "6506_12-7"  75.9700 "Sandstone" -999.25                       -999.25 100.0000      0.0       0.0 "c/vc"     "m/c"     "Strongly_fluvial_infloenced_upper_shoreface_or_very_proximat_mouth_bar_complex"             "Lower_delta_plain_channel_or_proximal_delta_front_complex"
4482.4 "6506_12-7"  77.0600 "Sandstone" -999.25                       -999.25 100.0000      0.0       0.0 "c/vc"     "m/c"     "Strongly_fluvial_infloenced_upper_shoreface_or_very_proximat_mouth_bar_complex"             "Lower_delta_plain_channel_or_proximal_delta_front_complex"
4482.5 "6506_12-7"  77.1100 "Sandstone" -999.25                       -999.25 100.0000      0.0       0.0 "c/vc"     "m/c"     "Strongly_fluvial_infloenced_upper_shoreface_or_very_proximat_mouth_bar_complex"             "Lower_delta_plain_channel_or_proximal_delta_front_complex"
