~Version
VERS  .                                 3.0 : CWLS LAS ASCII Standard - Version 3.0
WRAP  . NO                                  : One line per depth step
DLM   . SPACE                               : Column data section delimiter
SOURCE. Converted to LAS by Log Studio 4.76 : GeoProvider

~Well
STRT.         4211.0 : Start depth
STOP.         4238.4 : Stop depth
STEP.              1 : Step
NULL.        -999.25 : No-value
COMP.                : Company
WELL. 6406/6-1       : Well
FLD .                : Field
LOC .                : Location
LATI.                : Latitude
LONG.                : Longitude
GDAT.                : Geodetic datum
CNTY.                : County
STAT.                : State
CTRY.                : Country
SRVC. GeoProvider AS : Service company
DATE.                : Date
API .                : API number
RUN .                : Run number

~Parameters
WellboreName.  : Wellbore name
RigName     .  : Rig name
StartDate   .  : Start date

~Curves
DEPTH.m            .  : null {F}Depth mMD
Hole_ID.-          .  : null {S}Hole ID
GR.API             .  : null {F}Gamma Ray
Lithology1.-       .  : null {S}Lithology 1
Lithology2.-       .  : null {S}Lithology 2
Lithology3.-       .  : null {S}Lithology 3
Lithology1.%       .  : null {F}Lithology 1 percentage
Lithology2.%       .  : null {F}Lithology 2 percentage
Lithology3.%       .  : null {F}Lithology 3 percentage
Grain_size_Top.-   .  : null {S}Grain size at the top 
Grain_size_Base.-  .  : null {S}Grain size at the bottom
Sub_Environment.-  .  : null {S}Sub Environment
Gross_Environment.-.  : null {S}Gross Environment

~Ascii
# ...
4230.3 "6406_6-1" 31.74000 "Sandstone" -999.25 -999.25 100.0000 0.0 0.0 "m/c" "m/c" "Verikal_ og_ lateral_ utbygging_ av_ proksimal_ 'braid'-delta_ front/munnings-banke" "Braid_ -_ delta_ front_ (munningsbanke)"
4230.4 "6406_6-1" 31.77000 "Sandstone" -999.25 -999.25 100.0000 0.0 0.0 "m/c" "m/c" "Verikal_ og_ lateral_ utbygging_ av_ proksimal_ 'braid'-delta_ front/munnings-banke" "Braid_ -_ delta_ front_ (munningsbanke)"
4230.5 "6406_6-1" 31.60000 "Sandstone" -999.25 -999.25 100.0000 0.0 0.0 "m/c" "m/c" "Verikal_ og_ lateral_ utbygging_ av_ proksimal_ 'braid'-delta_ front/munnings-banke" "Braid_ -_ delta_ front_ (munningsbanke)"
4230.6 "6406_6-1" 31.33000 "Sandstone" -999.25 -999.25 100.0000 0.0 0.0 "m/c" "m/c" "Verikal_ og_ lateral_ utbygging_ av_ proksimal_ 'braid'-delta_ front/munnings-banke" "Braid_ -_ delta_ front_ (munningsbanke)"
4230.7 "6406_6-1" 30.78000 "Sandstone" -999.25 -999.25 100.0000 0.0 0.0 "m/c" "m/c" "Verikal_ og_ lateral_ utbygging_ av_ proksimal_ 'braid'-delta_ front/munnings-banke" "Braid_ -_ delta_ front_ (munningsbanke)"
4230.8 "6406_6-1" 30.07000 "Sandstone" -999.25 -999.25 100.0000 0.0 0.0 "m/c" "m/c" "Verikal_ og_ lateral_ utbygging_ av_ proksimal_ 'braid'-delta_ front/munnings-banke" "Braid_ -_ delta_ front_ (munningsbanke)"
4230.9 "6406_6-1" 29.27000 "Sandstone" -999.25 -999.25 100.0000 0.0 0.0 "m/c" "m/c" "Verikal_ og_ lateral_ utbygging_ av_ proksimal_ 'braid'-delta_ front/munnings-banke" "Braid_ -_ delta_ front_ (munningsbanke)"
4231.0 "6406_6-1" 28.48000 "Sandstone" -999.25 -999.25 100.0000 0.0 0.0 "m/c" "m/c" "Verikal_ og_ lateral_ utbygging_ av_ proksimal_ 'braid'-delta_ front/munnings-banke" "Braid_ -_ delta_ front_ (munningsbanke)"
4231.1 "6406_6-1" 27.68000 "Sandstone" -999.25 -999.25 100.0000 0.0 0.0 "m/c" "m/c" "Verikal_ og_ lateral_ utbygging_ av_ proksimal_ 'braid'-delta_ front/munnings-banke" "Braid_ -_ delta_ front_ (munningsbanke)"
4231.2 "6406_6-1" 27.45000 "Sandstone" -999.25 -999.25 100.0000 0.0 0.0 "m/c" "m/c" "Verikal_ og_ lateral_ utbygging_ av_ proksimal_ 'braid'-delta_ front/munnings-banke" "Braid_ -_ delta_ front_ (munningsbanke)"
4231.3 "6406_6-1" 27.68000 "Sandstone" -999.25 -999.25 100.0000 0.0 0.0 "m/c" "m/c" "Verikal_ og_ lateral_ utbygging_ av_ proksimal_ 'braid'-delta_ front/munnings-banke" "Braid_ -_ delta_ front_ (munningsbanke)"
4231.4 "6406_6-1" 27.78000 "Sandstone" -999.25 -999.25 100.0000 0.0 0.0 "m/c" "m/c" "Verikal_ og_ lateral_ utbygging_ av_ proksimal_ 'braid'-delta_ front/munnings-banke" "Braid_ -_ delta_ front_ (munningsbanke)"
4231.5 "6406_6-1" 27.85000 "Sandstone" -999.25 -999.25 100.0000 0.0 0.0 "m/c" "m/c" "Verikal_ og_ lateral_ utbygging_ av_ proksimal_ 'braid'-delta_ front/munnings-banke" "Braid_ -_ delta_ front_ (munningsbanke)"
4231.6 "6406_6-1" 27.91000 "Sandstone" -999.25 -999.25 100.0000 0.0 0.0 "m/c" "m/c" "Verikal_ og_ lateral_ utbygging_ av_ proksimal_ 'braid'-delta_ front/munnings-banke" "Braid_ -_ delta_ front_ (munningsbanke)"
4231.7 "6406_6-1" 28.50000 "Sandstone" -999.25 -999.25 100.0000 0.0 0.0 "m/c" "m/c" "Verikal_ og_ lateral_ utbygging_ av_ proksimal_ 'braid'-delta_ front/munnings-banke" "Braid_ -_ delta_ front_ (munningsbanke)"
4231.8 "6406_6-1" 29.23000 "Sandstone" -999.25 -999.25 100.0000 0.0 0.0 "m/c" "m/c" "Verikal_ og_ lateral_ utbygging_ av_ proksimal_ 'braid'-delta_ front/munnings-banke" "Braid_ -_ delta_ front_ (munningsbanke)"
4231.9 "6406_6-1" 30.69000 "Sandstone" -999.25 -999.25 100.0000 0.0 0.0 "m/c" "m/c" "Verikal_ og_ lateral_ utbygging_ av_ proksimal_ 'braid'-delta_ front/munnings-banke" "Braid_ -_ delta_ front_ (munningsbanke)"
4232.0 "6406_6-1" 32.46000 "Sandstone" -999.25 -999.25 100.0000 0.0 0.0 "m/c" "m/c" "Verikal_ og_ lateral_ utbygging_ av_ proksimal_ 'braid'-delta_ front/munnings-banke" "Braid_ -_ delta_ front_ (munningsbanke)"
4232.1 "6406_6-1" 34.24000 "Sandstone" -999.25 -999.25 100.0000 0.0 0.0 "m/c" "m/c" "Verikal_ og_ lateral_ utbygging_ av_ proksimal_ 'braid'-delta_ front/munnings-banke" "Braid_ -_ delta_ front_ (munningsbanke)"
4232.2 "6406_6-1" 35.98000 "Sandstone" -999.25 -999.25 100.0000 0.0 0.0 "m/c" "m/c" "Verikal_ og_ lateral_ utbygging_ av_ proksimal_ 'braid'-delta_ front/munnings-banke" "Braid_ -_ delta_ front_ (munningsbanke)"
4232.3 "6406_6-1" 37.55000 "Sandstone" -999.25 -999.25 100.0000 0.0 0.0 "m/c" "m/c" "Verikal_ og_ lateral_ utbygging_ av_ proksimal_ 'braid'-delta_ front/munnings-banke" "Braid_ -_ delta_ front_ (munningsbanke)"
4232.4 "6406_6-1" 39.12000 "Sandstone" -999.25 -999.25 100.0000 0.0 0.0 "m/c" "m/c" "Verikal_ og_ lateral_ utbygging_ av_ proksimal_ 'braid'-delta_ front/munnings-banke" "Braid_ -_ delta_ front_ (munningsbanke)"
4232.5 "6406_6-1" 40.61000 "Sandstone" -999.25 -999.25 100.0000 0.0 0.0 "m/c" "m/c" "Verikal_ og_ lateral_ utbygging_ av_ proksimal_ 'braid'-delta_ front/munnings-banke" "Braid_ -_ delta_ front_ (munningsbanke)"
4232.6 "6406_6-1" 41.49000 "Sandstone" -999.25 -999.25 100.0000 0.0 0.0 "m/c" "m/c" "Verikal_ og_ lateral_ utbygging_ av_ proksimal_ 'braid'-delta_ front/munnings-banke" "Braid_ -_ delta_ front_ (munningsbanke)"
4232.7 "6406_6-1" 42.30000 "Sandstone" -999.25 -999.25 100.0000 0.0 0.0 "m/c" "m/c" "Verikal_ og_ lateral_ utbygging_ av_ proksimal_ 'braid'-delta_ front/munnings-banke" "Braid_ -_ delta_ front_ (munningsbanke)"
4232.8 "6406_6-1" 41.18000 "Sandstone" -999.25 -999.25 100.0000 0.0 0.0 "m/c" "m/c" "Verikal_ og_ lateral_ utbygging_ av_ proksimal_ 'braid'-delta_ front/munnings-banke" "Braid_ -_ delta_ front_ (munningsbanke)"
4232.9 "6406_6-1" 40.06000 "Sandstone" -999.25 -999.25 100.0000 0.0 0.0 "m/c" "m/c" "Verikal_ og_ lateral_ utbygging_ av_ proksimal_ 'braid'-delta_ front/munnings-banke" "Braid_ -_ delta_ front_ (munningsbanke)"
4233.0 "6406_6-1" 39.55000 "Sandstone" -999.25 -999.25 100.0000 0.0 0.0 "m/c" "m/c" "Verikal_ og_ lateral_ utbygging_ av_ proksimal_ 'braid'-delta_ front/munnings-banke" "Braid_ -_ delta_ front_ (munningsbanke)"
4233.1 "6406_6-1" 38.38000 "Sandstone" -999.25 -999.25 100.0000 0.0 0.0 "m/c" "m/c" "Verikal_ og_ lateral_ utbygging_ av_ proksimal_ 'braid'-delta_ front/munnings-banke" "Braid_ -_ delta_ front_ (munningsbanke)"
4233.2 "6406_6-1" 35.93000 "Sandstone" -999.25 -999.25 100.0000 0.0 0.0 "m/c" "m/c" "Verikal_ og_ lateral_ utbygging_ av_ proksimal_ 'braid'-delta_ front/munnings-banke" "Braid_ -_ delta_ front_ (munningsbanke)"
4233.3 "6406_6-1" 32.49000 "Sandstone" -999.25 -999.25 100.0000 0.0 0.0 "m/c" "m/c" "Verikal_ og_ lateral_ utbygging_ av_ proksimal_ 'braid'-delta_ front/munnings-banke" "Braid_ -_ delta_ front_ (munningsbanke)"
4233.4 "6406_6-1" 31.33000 "Sandstone" -999.25 -999.25 100.0000 0.0 0.0 "m/c" "m/c" "Verikal_ og_ lateral_ utbygging_ av_ proksimal_ 'braid'-delta_ front/munnings-banke" "Braid_ -_ delta_ front_ (munningsbanke)"
4233.5 "6406_6-1" 31.74000 "Sandstone" -999.25 -999.25 100.0000 0.0 0.0 "m/c" "m/c" "Verikal_ og_ lateral_ utbygging_ av_ proksimal_ 'braid'-delta_ front/munnings-banke" "Braid_ -_ delta_ front_ (munningsbanke)"
4233.6 "6406_6-1" 32.37000 "Sandstone" -999.25 -999.25 100.0000 0.0 0.0 "m/c" "m/c" "Verikal_ og_ lateral_ utbygging_ av_ proksimal_ 'braid'-delta_ front/munnings-banke" "Braid_ -_ delta_ front_ (munningsbanke)"
4233.7 "6406_6-1" 33.08000 "Sandstone" -999.25 -999.25 100.0000 0.0 0.0 "m/c" "m/c" "Verikal_ og_ lateral_ utbygging_ av_ proksimal_ 'braid'-delta_ front/munnings-banke" "Braid_ -_ delta_ front_ (munningsbanke)"
4233.8 "6406_6-1" 33.74000 "Sandstone" -999.25 -999.25 100.0000 0.0 0.0 "m/c" "m/c" "Verikal_ og_ lateral_ utbygging_ av_ proksimal_ 'braid'-delta_ front/munnings-banke" "Braid_ -_ delta_ front_ (munningsbanke)"
4233.9 "6406_6-1" 33.93000 "Sandstone" -999.25 -999.25 100.0000 0.0 0.0 "m/c" "m/c" "Verikal_ og_ lateral_ utbygging_ av_ proksimal_ 'braid'-delta_ front/munnings-banke" "Braid_ -_ delta_ front_ (munningsbanke)"
4234.0 "6406_6-1" 34.12000 "Sandstone" -999.25 -999.25 100.0000 0.0 0.0 "m/c" "m/c" "Verikal_ og_ lateral_ utbygging_ av_ proksimal_ 'braid'-delta_ front/munnings-banke" "Braid_ -_ delta_ front_ (munningsbanke)"
