~Version
VERS  .                                 3.0 : CWLS LAS ASCII Standard - Version 3.0
WRAP  . NO                                  : One line per depth step
DLM   . SPACE                               : Column data section delimiter
SOURCE. Converted to LAS by Log Studio 4.76 : GeoProvider

~Well
STRT.         4211.0 : Start depth
STOP.         4238.4 : Stop depth
STEP.              1 : Step
NULL.        -999.25 : No-value
COMP.                : Company
WELL. 6406/6-1       : Well
FLD .                : Field
LOC .                : Location
LATI.                : Latitude
LONG.                : Longitude
GDAT.                : Geodetic datum
CNTY.                : County
STAT.                : State
CTRY.                : Country
SRVC. GeoProvider AS : Service company
DATE.                : Date
API .                : API number
RUN .                : Run number

~Parameters
WellboreName.  : Wellbore name
RigName     .  : Rig name
StartDate   .  : Start date

~Curves
DEPTH.m            .  : null {F}Depth mMD
Hole_ID.-          .  : null {S}Hole ID
GR.API             .  : null {F}Gamma Ray
Lithology1.-       .  : null {S}Lithology 1
Lithology2.-       .  : null {S}Lithology 2
Lithology3.-       .  : null {S}Lithology 3
Lithology1.%       .  : null {F}Lithology 1 percentage
Lithology2.%       .  : null {F}Lithology 2 percentage
Lithology3.%       .  : null {F}Lithology 3 percentage
Grain_size_Top.-   .  : null {S}Grain size at the top 
Grain_size_Base.-  .  : null {S}Grain size at the bottom
Sub_Environment.-  .  : null {S}Sub Environment
Gross_Environment.-.  : null {S}Gross Environment

~Ascii
# ...
4218.8 "6406_6-1" 27.45000 "Sandstone" -999.25 -999.25 100.0000 0.0 0.0 "c" "c" "Verikal_ og_ lateral_ utbygging_ av_ proksimal_ 'braid'-delta_ front/munnings-banke" "Braid_ -_ delta_ front_ (munningsbanke)"
4218.9 "6406_6-1" 27.67000 "Sandstone" -999.25 -999.25 100.0000 0.0 0.0 "c" "c" "Verikal_ og_ lateral_ utbygging_ av_ proksimal_ 'braid'-delta_ front/munnings-banke" "Braid_ -_ delta_ front_ (munningsbanke)"
4219.0 "6406_6-1" 28.21000 "Sandstone" -999.25 -999.25 100.0000 0.0 0.0 "c" "c" "Verikal_ og_ lateral_ utbygging_ av_ proksimal_ 'braid'-delta_ front/munnings-banke" "Braid_ -_ delta_ front_ (munningsbanke)"
4219.1 "6406_6-1" 28.45000 "Sandstone" -999.25 -999.25 100.0000 0.0 0.0 "c" "c" "Verikal_ og_ lateral_ utbygging_ av_ proksimal_ 'braid'-delta_ front/munnings-banke" "Braid_ -_ delta_ front_ (munningsbanke)"
4219.2 "6406_6-1" 27.97000 "Sandstone" -999.25 -999.25 100.0000 0.0 0.0 "c" "c" "Verikal_ og_ lateral_ utbygging_ av_ proksimal_ 'braid'-delta_ front/munnings-banke" "Braid_ -_ delta_ front_ (munningsbanke)"
4219.3 "6406_6-1" 27.71000 "Sandstone" -999.25 -999.25 100.0000 0.0 0.0 "c" "c" "Verikal_ og_ lateral_ utbygging_ av_ proksimal_ 'braid'-delta_ front/munnings-banke" "Braid_ -_ delta_ front_ (munningsbanke)"
4219.4 "6406_6-1" 28.44000 "Sandstone" -999.25 -999.25 100.0000 0.0 0.0 "c" "c" "Verikal_ og_ lateral_ utbygging_ av_ proksimal_ 'braid'-delta_ front/munnings-banke" "Braid_ -_ delta_ front_ (munningsbanke)"
4219.5 "6406_6-1" 29.12000 "Sandstone" -999.25 -999.25 100.0000 0.0 0.0 "c" "c" "Verikal_ og_ lateral_ utbygging_ av_ proksimal_ 'braid'-delta_ front/munnings-banke" "Braid_ -_ delta_ front_ (munningsbanke)"
4219.6 "6406_6-1" 29.66000 "Sandstone" -999.25 -999.25 100.0000 0.0 0.0 "c" "c" "Verikal_ og_ lateral_ utbygging_ av_ proksimal_ 'braid'-delta_ front/munnings-banke" "Braid_ -_ delta_ front_ (munningsbanke)"
4219.7 "6406_6-1" 30.20000 "Sandstone" -999.25 -999.25 100.0000 0.0 0.0 "c" "c" "Verikal_ og_ lateral_ utbygging_ av_ proksimal_ 'braid'-delta_ front/munnings-banke" "Braid_ -_ delta_ front_ (munningsbanke)"
4219.8 "6406_6-1" 30.74000 "Sandstone" -999.25 -999.25 100.0000 0.0 0.0 "c" "c" "Verikal_ og_ lateral_ utbygging_ av_ proksimal_ 'braid'-delta_ front/munnings-banke" "Braid_ -_ delta_ front_ (munningsbanke)"
4219.9 "6406_6-1" 31.77000 "Sandstone" -999.25 -999.25 100.0000 0.0 0.0 "c" "c" "Verikal_ og_ lateral_ utbygging_ av_ proksimal_ 'braid'-delta_ front/munnings-banke" "Braid_ -_ delta_ front_ (munningsbanke)"
4220.0 "6406_6-1" 33.44000 "Sandstone" -999.25 -999.25 100.0000 0.0 0.0 "c" "c" "Verikal_ og_ lateral_ utbygging_ av_ proksimal_ 'braid'-delta_ front/munnings-banke" "Braid_ -_ delta_ front_ (munningsbanke)"
4220.1 "6406_6-1" 35.10000 "Sandstone" -999.25 -999.25 100.0000 0.0 0.0 "c" "c" "Verikal_ og_ lateral_ utbygging_ av_ proksimal_ 'braid'-delta_ front/munnings-banke" "Braid_ -_ delta_ front_ (munningsbanke)"
4220.2 "6406_6-1" 36.54000 "Sandstone" -999.25 -999.25 100.0000 0.0 0.0 "c" "c" "Verikal_ og_ lateral_ utbygging_ av_ proksimal_ 'braid'-delta_ front/munnings-banke" "Braid_ -_ delta_ front_ (munningsbanke)"
4220.3 "6406_6-1" 37.84000 "Sandstone" -999.25 -999.25 100.0000 0.0 0.0 "m/c" "m/c" "Verikal_ og_ lateral_ utbygging_ av_ proksimal_ 'braid'-delta_ front/munnings-banke" "Braid_ -_ delta_ front_ (munningsbanke)"
4220.4 "6406_6-1" 39.14000 "Sandstone" -999.25 -999.25 100.0000 0.0 0.0 "m/c" "m/c" "Verikal_ og_ lateral_ utbygging_ av_ proksimal_ 'braid'-delta_ front/munnings-banke" "Braid_ -_ delta_ front_ (munningsbanke)"
4220.5 "6406_6-1" 37.27000 "Sandstone" -999.25 -999.25 100.0000 0.0 0.0 "m/c" "m/c" "Verikal_ og_ lateral_ utbygging_ av_ proksimal_ 'braid'-delta_ front/munnings-banke" "Braid_ -_ delta_ front_ (munningsbanke)"
4220.6 "6406_6-1" 35.31000 "Sandstone" -999.25 -999.25 100.0000 0.0 0.0 "m/c" "m/c" "Verikal_ og_ lateral_ utbygging_ av_ proksimal_ 'braid'-delta_ front/munnings-banke" "Braid_ -_ delta_ front_ (munningsbanke)"
4220.7 "6406_6-1" 33.36000 "Sandstone" -999.25 -999.25 100.0000 0.0 0.0 "m/c" "m/c" "Verikal_ og_ lateral_ utbygging_ av_ proksimal_ 'braid'-delta_ front/munnings-banke" "Braid_ -_ delta_ front_ (munningsbanke)"
4220.8 "6406_6-1" 32.52000 "Sandstone" -999.25 -999.25 100.0000 0.0 0.0 "m/c" "m/c" "Verikal_ og_ lateral_ utbygging_ av_ proksimal_ 'braid'-delta_ front/munnings-banke" "Braid_ -_ delta_ front_ (munningsbanke)"
4220.9 "6406_6-1" 32.84000 "Sandstone" -999.25 -999.25 100.0000 0.0 0.0 "m/c" "m/c" "Verikal_ og_ lateral_ utbygging_ av_ proksimal_ 'braid'-delta_ front/munnings-banke" "Braid_ -_ delta_ front_ (munningsbanke)"
4221.0 "6406_6-1" 33.85000 "Sandstone" -999.25 -999.25 100.0000 0.0 0.0 "m/c" "m/c" "Verikal_ og_ lateral_ utbygging_ av_ proksimal_ 'braid'-delta_ front/munnings-banke" "Braid_ -_ delta_ front_ (munningsbanke)"
4221.1 "6406_6-1" 32.99000 "Sandstone" -999.25 -999.25 100.0000 0.0 0.0 "m/c" "m/c" "Verikal_ og_ lateral_ utbygging_ av_ proksimal_ 'braid'-delta_ front/munnings-banke" "Braid_ -_ delta_ front_ (munningsbanke)"
4221.2 "6406_6-1" 31.37000 "Sandstone" -999.25 -999.25 100.0000 0.0 0.0 "m/c" "m/c" "Verikal_ og_ lateral_ utbygging_ av_ proksimal_ 'braid'-delta_ front/munnings-banke" "Braid_ -_ delta_ front_ (munningsbanke)"
4221.3 "6406_6-1" 30.02000 "Sandstone" -999.25 -999.25 100.0000 0.0 0.0 "m/c" "m/c" "Verikal_ og_ lateral_ utbygging_ av_ proksimal_ 'braid'-delta_ front/munnings-banke" "Braid_ -_ delta_ front_ (munningsbanke)"
4221.4 "6406_6-1" 29.44000 "Sandstone" -999.25 -999.25 100.0000 0.0 0.0 "m/c" "m/c" "Verikal_ og_ lateral_ utbygging_ av_ proksimal_ 'braid'-delta_ front/munnings-banke" "Braid_ -_ delta_ front_ (munningsbanke)"
4221.5 "6406_6-1" 28.85000 "Sandstone" -999.25 -999.25 100.0000 0.0 0.0 "m/c" "m/c" "Verikal_ og_ lateral_ utbygging_ av_ proksimal_ 'braid'-delta_ front/munnings-banke" "Braid_ -_ delta_ front_ (munningsbanke)"
4221.6 "6406_6-1" 28.27000 "Sandstone" -999.25 -999.25 100.0000 0.0 0.0 "m/c" "m/c" "Verikal_ og_ lateral_ utbygging_ av_ proksimal_ 'braid'-delta_ front/munnings-banke" "Braid_ -_ delta_ front_ (munningsbanke)"
4221.7 "6406_6-1" 27.85000 "Sandstone" -999.25 -999.25 100.0000 0.0 0.0 "m/c" "m/c" "Verikal_ og_ lateral_ utbygging_ av_ proksimal_ 'braid'-delta_ front/munnings-banke" "Braid_ -_ delta_ front_ (munningsbanke)"
4221.8 "6406_6-1" 27.65000 "Sandstone" -999.25 -999.25 100.0000 0.0 0.0 "m/c" "m/c" "Verikal_ og_ lateral_ utbygging_ av_ proksimal_ 'braid'-delta_ front/munnings-banke" "Braid_ -_ delta_ front_ (munningsbanke)"
4221.9 "6406_6-1" 27.46000 "Sandstone" -999.25 -999.25 100.0000 0.0 0.0 "m/c" "m/c" "Verikal_ og_ lateral_ utbygging_ av_ proksimal_ 'braid'-delta_ front/munnings-banke" "Braid_ -_ delta_ front_ (munningsbanke)"
4222.0 "6406_6-1" 26.78000 "Sandstone" -999.25 -999.25 100.0000 0.0 0.0 "m/c" "m/c" "Verikal_ og_ lateral_ utbygging_ av_ proksimal_ 'braid'-delta_ front/munnings-banke" "Braid_ -_ delta_ front_ (munningsbanke)"
4222.1 "6406_6-1" 26.24000 "Sandstone" -999.25 -999.25 100.0000 0.0 0.0 "m/c" "m/c" "Verikal_ og_ lateral_ utbygging_ av_ proksimal_ 'braid'-delta_ front/munnings-banke" "Braid_ -_ delta_ front_ (munningsbanke)"
4222.2 "6406_6-1" 26.36000 "Sandstone" -999.25 -999.25 100.0000 0.0 0.0 "m/c" "m/c" "Verikal_ og_ lateral_ utbygging_ av_ proksimal_ 'braid'-delta_ front/munnings-banke" "Braid_ -_ delta_ front_ (munningsbanke)"
4222.3 "6406_6-1" 26.48000 "Sandstone" -999.25 -999.25 100.0000 0.0 0.0 "m/c" "m/c" "Verikal_ og_ lateral_ utbygging_ av_ proksimal_ 'braid'-delta_ front/munnings-banke" "Braid_ -_ delta_ front_ (munningsbanke)"
4222.4 "6406_6-1" 26.60000 "Sandstone" -999.25 -999.25 100.0000 0.0 0.0 "m/c" "m/c" "Verikal_ og_ lateral_ utbygging_ av_ proksimal_ 'braid'-delta_ front/munnings-banke" "Braid_ -_ delta_ front_ (munningsbanke)"
4222.5 "6406_6-1" 26.73000 "Sandstone" -999.25 -999.25 100.0000 0.0 0.0 "m/c" "m/c" "Verikal_ og_ lateral_ utbygging_ av_ proksimal_ 'braid'-delta_ front/munnings-banke" "Braid_ -_ delta_ front_ (munningsbanke)"
4222.6 "6406_6-1" 26.85000 "Sandstone" -999.25 -999.25 100.0000 0.0 0.0 "m/c" "m/c" "Verikal_ og_ lateral_ utbygging_ av_ proksimal_ 'braid'-delta_ front/munnings-banke" "Braid_ -_ delta_ front_ (munningsbanke)"
