~Version
VERS  .                                 3.0 : CWLS LAS ASCII Standard - Version 3.0
WRAP  . NO                                  : One line per depth step
DLM   . SPACE                               : Column data section delimiter
SOURCE. Converted to LAS by Log Studio 4.76 : GeoProvider

~Well
STRT.         4211.0 : Start depth
STOP.         4238.4 : Stop depth
STEP.              1 : Step
NULL.        -999.25 : No-value
COMP.                : Company
WELL. 6406/6-1       : Well
FLD .                : Field
LOC .                : Location
LATI.                : Latitude
LONG.                : Longitude
GDAT.                : Geodetic datum
CNTY.                : County
STAT.                : State
CTRY.                : Country
SRVC. GeoProvider AS : Service company
DATE.                : Date
API .                : API number
RUN .                : Run number

~Parameters
WellboreName.  : Wellbore name
RigName     .  : Rig name
StartDate   .  : Start date

~Curves
DEPTH.m            .  : null {F}Depth mMD
Hole_ID.-          .  : null {S}Hole ID
GR.API             .  : null {F}Gamma Ray
Lithology1.-       .  : null {S}Lithology 1
Lithology2.-       .  : null {S}Lithology 2
Lithology3.-       .  : null {S}Lithology 3
Lithology1.%       .  : null {F}Lithology 1 percentage
Lithology2.%       .  : null {F}Lithology 2 percentage
Lithology3.%       .  : null {F}Lithology 3 percentage
Grain_size_Top.-   .  : null {S}Grain size at the top 
Grain_size_Base.-  .  : null {S}Grain size at the bottom
Sub_Environment.-  .  : null {S}Sub Environment
Gross_Environment.-.  : null {S}Gross Environment

~Ascii
# ...
4222.7 "6406_6-1" 26.97000 "Sandstone" -999.25 -999.25 100.0000 0.0 0.0 "m/c" "m/c" "Verikal_ og_ lateral_ utbygging_ av_ proksimal_ 'braid'-delta_ front/munnings-banke" "Braid_ -_ delta_ front_ (munningsbanke)"
4222.8 "6406_6-1" 27.21000 "Sandstone" -999.25 -999.25 100.0000 0.0 0.0 "m/c" "m/c" "Verikal_ og_ lateral_ utbygging_ av_ proksimal_ 'braid'-delta_ front/munnings-banke" "Braid_ -_ delta_ front_ (munningsbanke)"
4222.9 "6406_6-1" 27.95000 "Sandstone" -999.25 -999.25 100.0000 0.0 0.0 "m/c" "m/c" "Verikal_ og_ lateral_ utbygging_ av_ proksimal_ 'braid'-delta_ front/munnings-banke" "Braid_ -_ delta_ front_ (munningsbanke)"
4223.0 "6406_6-1" 28.69000 "Sandstone" -999.25 -999.25 100.0000 0.0 0.0 "m/c" "m/c" "Verikal_ og_ lateral_ utbygging_ av_ proksimal_ 'braid'-delta_ front/munnings-banke" "Braid_ -_ delta_ front_ (munningsbanke)"
4223.1 "6406_6-1" 29.43000 "Sandstone" -999.25 -999.25 100.0000 0.0 0.0 "m/c" "m/c" "Verikal_ og_ lateral_ utbygging_ av_ proksimal_ 'braid'-delta_ front/munnings-banke" "Braid_ -_ delta_ front_ (munningsbanke)"
4223.2 "6406_6-1" 30.17000 "Sandstone" -999.25 -999.25 100.0000 0.0 0.0 "m/c" "m/c" "Verikal_ og_ lateral_ utbygging_ av_ proksimal_ 'braid'-delta_ front/munnings-banke" "Braid_ -_ delta_ front_ (munningsbanke)"
4223.3 "6406_6-1" 30.95000 "Sandstone" -999.25 -999.25 100.0000 0.0 0.0 "m/c" "m/c" "Verikal_ og_ lateral_ utbygging_ av_ proksimal_ 'braid'-delta_ front/munnings-banke" "Braid_ -_ delta_ front_ (munningsbanke)"
4223.4 "6406_6-1" 31.32000 "Sandstone" -999.25 -999.25 100.0000 0.0 0.0 "m/c" "m/c" "Verikal_ og_ lateral_ utbygging_ av_ proksimal_ 'braid'-delta_ front/munnings-banke" "Braid_ -_ delta_ front_ (munningsbanke)"
4223.5 "6406_6-1" 31.18000 "Sandstone" -999.25 -999.25 100.0000 0.0 0.0 "m/c" "m/c" "Verikal_ og_ lateral_ utbygging_ av_ proksimal_ 'braid'-delta_ front/munnings-banke" "Braid_ -_ delta_ front_ (munningsbanke)"
4223.6 "6406_6-1" 30.98000 "Sandstone" -999.25 -999.25 100.0000 0.0 0.0 "m/c" "m/c" "Verikal_ og_ lateral_ utbygging_ av_ proksimal_ 'braid'-delta_ front/munnings-banke" "Braid_ -_ delta_ front_ (munningsbanke)"
4223.7 "6406_6-1" 30.12000 "Sandstone" -999.25 -999.25 100.0000 0.0 0.0 "m/c" "m/c" "Verikal_ og_ lateral_ utbygging_ av_ proksimal_ 'braid'-delta_ front/munnings-banke" "Braid_ -_ delta_ front_ (munningsbanke)"
4223.8 "6406_6-1" 29.27000 "Sandstone" -999.25 -999.25 100.0000 0.0 0.0 "m/c" "m/c" "Verikal_ og_ lateral_ utbygging_ av_ proksimal_ 'braid'-delta_ front/munnings-banke" "Braid_ -_ delta_ front_ (munningsbanke)"
4223.9 "6406_6-1" 28.42000 "Sandstone" -999.25 -999.25 100.0000 0.0 0.0 "m/c" "m/c" "Verikal_ og_ lateral_ utbygging_ av_ proksimal_ 'braid'-delta_ front/munnings-banke" "Braid_ -_ delta_ front_ (munningsbanke)"
4224.0 "6406_6-1" 26.86000 "Sandstone" -999.25 -999.25 100.0000 0.0 0.0 "m/c" "m/c" "Verikal_ og_ lateral_ utbygging_ av_ proksimal_ 'braid'-delta_ front/munnings-banke" "Braid_ -_ delta_ front_ (munningsbanke)"
4224.1 "6406_6-1" 25.14000 "Sandstone" -999.25 -999.25 100.0000 0.0 0.0 "m/c" "m/c" "Verikal_ og_ lateral_ utbygging_ av_ proksimal_ 'braid'-delta_ front/munnings-banke" "Braid_ -_ delta_ front_ (munningsbanke)"
4224.2 "6406_6-1" 24.91000 "Sandstone" -999.25 -999.25 100.0000 0.0 0.0 "m/c" "m/c" "Verikal_ og_ lateral_ utbygging_ av_ proksimal_ 'braid'-delta_ front/munnings-banke" "Braid_ -_ delta_ front_ (munningsbanke)"
4224.3 "6406_6-1" 24.82000 "Sandstone" -999.25 -999.25 100.0000 0.0 0.0 "m/c" "m/c" "Verikal_ og_ lateral_ utbygging_ av_ proksimal_ 'braid'-delta_ front/munnings-banke" "Braid_ -_ delta_ front_ (munningsbanke)"
4224.4 "6406_6-1" 25.29000 "Sandstone" -999.25 -999.25 100.0000 0.0 0.0 "m/c" "m/c" "Verikal_ og_ lateral_ utbygging_ av_ proksimal_ 'braid'-delta_ front/munnings-banke" "Braid_ -_ delta_ front_ (munningsbanke)"
4224.5 "6406_6-1" 25.77000 "Sandstone" -999.25 -999.25 100.0000 0.0 0.0 "m/c" "m/c" "Verikal_ og_ lateral_ utbygging_ av_ proksimal_ 'braid'-delta_ front/munnings-banke" "Braid_ -_ delta_ front_ (munningsbanke)"
4224.6 "6406_6-1" 26.25000 "Sandstone" -999.25 -999.25 100.0000 0.0 0.0 "m/c" "m/c" "Verikal_ og_ lateral_ utbygging_ av_ proksimal_ 'braid'-delta_ front/munnings-banke" "Braid_ -_ delta_ front_ (munningsbanke)"
4224.7 "6406_6-1" 26.21000 "Sandstone" -999.25 -999.25 100.0000 0.0 0.0 "m/c" "m/c" "Verikal_ og_ lateral_ utbygging_ av_ proksimal_ 'braid'-delta_ front/munnings-banke" "Braid_ -_ delta_ front_ (munningsbanke)"
4224.8 "6406_6-1" 26.00000 "Sandstone" -999.25 -999.25 100.0000 0.0 0.0 "m/c" "m/c" "Verikal_ og_ lateral_ utbygging_ av_ proksimal_ 'braid'-delta_ front/munnings-banke" "Braid_ -_ delta_ front_ (munningsbanke)"
4224.9 "6406_6-1" 25.78000 "Sandstone" -999.25 -999.25 100.0000 0.0 0.0 "m/c" "m/c" "Verikal_ og_ lateral_ utbygging_ av_ proksimal_ 'braid'-delta_ front/munnings-banke" "Braid_ -_ delta_ front_ (munningsbanke)"
4225.0 "6406_6-1" 25.56000 "Sandstone" -999.25 -999.25 100.0000 0.0 0.0 "m/c" "m/c" "Verikal_ og_ lateral_ utbygging_ av_ proksimal_ 'braid'-delta_ front/munnings-banke" "Braid_ -_ delta_ front_ (munningsbanke)"
4225.1 "6406_6-1" 25.88000 "Sandstone" -999.25 -999.25 100.0000 0.0 0.0 "m/c" "m/c" "Verikal_ og_ lateral_ utbygging_ av_ proksimal_ 'braid'-delta_ front/munnings-banke" "Braid_ -_ delta_ front_ (munningsbanke)"
4225.2 "6406_6-1" 26.36000 "Sandstone" -999.25 -999.25 100.0000 0.0 0.0 "m/c" "m/c" "Verikal_ og_ lateral_ utbygging_ av_ proksimal_ 'braid'-delta_ front/munnings-banke" "Braid_ -_ delta_ front_ (munningsbanke)"
4225.3 "6406_6-1" 26.95000 "Sandstone" -999.25 -999.25 100.0000 0.0 0.0 "m/c" "m/c" "Verikal_ og_ lateral_ utbygging_ av_ proksimal_ 'braid'-delta_ front/munnings-banke" "Braid_ -_ delta_ front_ (munningsbanke)"
4225.4 "6406_6-1" 27.64000 "Sandstone" -999.25 -999.25 100.0000 0.0 0.0 "m/c" "m/c" "Verikal_ og_ lateral_ utbygging_ av_ proksimal_ 'braid'-delta_ front/munnings-banke" "Braid_ -_ delta_ front_ (munningsbanke)"
4225.5 "6406_6-1" 28.33000 "Sandstone" -999.25 -999.25 100.0000 0.0 0.0 "m/c" "m/c" "Verikal_ og_ lateral_ utbygging_ av_ proksimal_ 'braid'-delta_ front/munnings-banke" "Braid_ -_ delta_ front_ (munningsbanke)"
4225.6 "6406_6-1" 28.92000 "Sandstone" -999.25 -999.25 100.0000 0.0 0.0 "m/c" "m/c" "Verikal_ og_ lateral_ utbygging_ av_ proksimal_ 'braid'-delta_ front/munnings-banke" "Braid_ -_ delta_ front_ (munningsbanke)"
4225.7 "6406_6-1" 28.71000 "Sandstone" -999.25 -999.25 100.0000 0.0 0.0 "m/c" "m/c" "Verikal_ og_ lateral_ utbygging_ av_ proksimal_ 'braid'-delta_ front/munnings-banke" "Braid_ -_ delta_ front_ (munningsbanke)"
4225.8 "6406_6-1" 28.51000 "Sandstone" -999.25 -999.25 100.0000 0.0 0.0 "m/c" "m/c" "Verikal_ og_ lateral_ utbygging_ av_ proksimal_ 'braid'-delta_ front/munnings-banke" "Braid_ -_ delta_ front_ (munningsbanke)"
4225.9 "6406_6-1" 28.30000 "Sandstone" -999.25 -999.25 100.0000 0.0 0.0 "m/c" "m/c" "Verikal_ og_ lateral_ utbygging_ av_ proksimal_ 'braid'-delta_ front/munnings-banke" "Braid_ -_ delta_ front_ (munningsbanke)"
4226.0 "6406_6-1" 28.11000 "Sandstone" -999.25 -999.25 100.0000 0.0 0.0 "m/c" "m/c" "Verikal_ og_ lateral_ utbygging_ av_ proksimal_ 'braid'-delta_ front/munnings-banke" "Braid_ -_ delta_ front_ (munningsbanke)"
4226.1 "6406_6-1" 27.92000 "Sandstone" -999.25 -999.25 100.0000 0.0 0.0 "m/c" "m/c" "Verikal_ og_ lateral_ utbygging_ av_ proksimal_ 'braid'-delta_ front/munnings-banke" "Braid_ -_ delta_ front_ (munningsbanke)"
4226.2 "6406_6-1" 27.73000 "Sandstone" -999.25 -999.25 100.0000 0.0 0.0 "m/c" "m/c" "Verikal_ og_ lateral_ utbygging_ av_ proksimal_ 'braid'-delta_ front/munnings-banke" "Braid_ -_ delta_ front_ (munningsbanke)"
4226.3 "6406_6-1" 27.56000 "Sandstone" -999.25 -999.25 100.0000 0.0 0.0 "m/c" "m/c" "Verikal_ og_ lateral_ utbygging_ av_ proksimal_ 'braid'-delta_ front/munnings-banke" "Braid_ -_ delta_ front_ (munningsbanke)"
4226.4 "6406_6-1" 27.46000 "Sandstone" -999.25 -999.25 100.0000 0.0 0.0 "m/c" "m/c" "Verikal_ og_ lateral_ utbygging_ av_ proksimal_ 'braid'-delta_ front/munnings-banke" "Braid_ -_ delta_ front_ (munningsbanke)"
