~Version
VERS  .                                 3.0 : CWLS LAS ASCII Standard - Version 3.0
WRAP  . NO                                  : One line per depth step
DLM   . SPACE                               : Column data section delimiter
SOURCE. Converted to LAS by Log Studio 4.76 : GeoProvider

~Well
STRT.         4211.0 : Start depth
STOP.         4238.4 : Stop depth
STEP.              1 : Step
NULL.        -999.25 : No-value
COMP.                : Company
WELL. 6406/6-1       : Well
FLD .                : Field
LOC .                : Location
LATI.                : Latitude
LONG.                : Longitude
GDAT.                : Geodetic datum
CNTY.                : County
STAT.                : State
CTRY.                : Country
SRVC. GeoProvider AS : Service company
DATE.                : Date
API .                : API number
RUN .                : Run number

~Parameters
WellboreName.  : Wellbore name
RigName     .  : Rig name
StartDate   .  : Start date

~Curves
DEPTH.m            .  : null {F}Depth mMD
Hole_ID.-          .  : null {S}Hole ID
GR.API             .  : null {F}Gamma Ray
Lithology1.-       .  : null {S}Lithology 1
Lithology2.-       .  : null {S}Lithology 2
Lithology3.-       .  : null {S}Lithology 3
Lithology1.%       .  : null {F}Lithology 1 percentage
Lithology2.%       .  : null {F}Lithology 2 percentage
Lithology3.%       .  : null {F}Lithology 3 percentage
Grain_size_Top.-   .  : null {S}Grain size at the top 
Grain_size_Base.-  .  : null {S}Grain size at the bottom
Sub_Environment.-  .  : null {S}Sub Environment
Gross_Environment.-.  : null {S}Gross Environment

~Ascii
# ...
4214.9 "6406_6-1" 29.21000 "Sandstone" -999.25 -999.25 100.0000 0.0 0.0 "c" "c" "Verikal_ og_ lateral_ utbygging_ av_ proksimal_ 'braid'-delta_ front/munnings-banke" "Braid_ -_ delta_ front_ (munningsbanke)"
4215.0 "6406_6-1" 27.97000 "Sandstone" -999.25 -999.25 100.0000 0.0 0.0 "c" "c" "Verikal_ og_ lateral_ utbygging_ av_ proksimal_ 'braid'-delta_ front/munnings-banke" "Braid_ -_ delta_ front_ (munningsbanke)"
4215.1 "6406_6-1" 26.77000 "Sandstone" -999.25 -999.25 100.0000 0.0 0.0 "c" "c" "Verikal_ og_ lateral_ utbygging_ av_ proksimal_ 'braid'-delta_ front/munnings-banke" "Braid_ -_ delta_ front_ (munningsbanke)"
4215.2 "6406_6-1" 25.86000 "Sandstone" -999.25 -999.25 100.0000 0.0 0.0 "c" "c" "Verikal_ og_ lateral_ utbygging_ av_ proksimal_ 'braid'-delta_ front/munnings-banke" "Braid_ -_ delta_ front_ (munningsbanke)"
4215.3 "6406_6-1" 24.95000 "Sandstone" -999.25 -999.25 100.0000 0.0 0.0 "c" "c" "Verikal_ og_ lateral_ utbygging_ av_ proksimal_ 'braid'-delta_ front/munnings-banke" "Braid_ -_ delta_ front_ (munningsbanke)"
4215.4 "6406_6-1" 24.04000 "Sandstone" -999.25 -999.25 100.0000 0.0 0.0 "c" "c" "Verikal_ og_ lateral_ utbygging_ av_ proksimal_ 'braid'-delta_ front/munnings-banke" "Braid_ -_ delta_ front_ (munningsbanke)"
4215.5 "6406_6-1" 23.35000 "Sandstone" -999.25 -999.25 100.0000 0.0 0.0 "c" "c" "Verikal_ og_ lateral_ utbygging_ av_ proksimal_ 'braid'-delta_ front/munnings-banke" "Braid_ -_ delta_ front_ (munningsbanke)"
4215.6 "6406_6-1" 23.94000 "Sandstone" -999.25 -999.25 100.0000 0.0 0.0 "c" "c" "Verikal_ og_ lateral_ utbygging_ av_ proksimal_ 'braid'-delta_ front/munnings-banke" "Braid_ -_ delta_ front_ (munningsbanke)"
4215.7 "6406_6-1" 25.23000 "Sandstone" -999.25 -999.25 100.0000 0.0 0.0 "c" "c" "Verikal_ og_ lateral_ utbygging_ av_ proksimal_ 'braid'-delta_ front/munnings-banke" "Braid_ -_ delta_ front_ (munningsbanke)"
4215.8 "6406_6-1" 26.87000 "Sandstone" -999.25 -999.25 100.0000 0.0 0.0 "c" "c" "Verikal_ og_ lateral_ utbygging_ av_ proksimal_ 'braid'-delta_ front/munnings-banke" "Braid_ -_ delta_ front_ (munningsbanke)"
4215.9 "6406_6-1" 28.51000 "Sandstone" -999.25 -999.25 100.0000 0.0 0.0 "c" "c" "Verikal_ og_ lateral_ utbygging_ av_ proksimal_ 'braid'-delta_ front/munnings-banke" "Braid_ -_ delta_ front_ (munningsbanke)"
4216.0 "6406_6-1" 29.88000 "Sandstone" -999.25 -999.25 100.0000 0.0 0.0 "c" "c" "Verikal_ og_ lateral_ utbygging_ av_ proksimal_ 'braid'-delta_ front/munnings-banke" "Braid_ -_ delta_ front_ (munningsbanke)"
4216.1 "6406_6-1" 31.15000 "Sandstone" -999.25 -999.25 100.0000 0.0 0.0 "c" "c" "Verikal_ og_ lateral_ utbygging_ av_ proksimal_ 'braid'-delta_ front/munnings-banke" "Braid_ -_ delta_ front_ (munningsbanke)"
4216.2 "6406_6-1" 31.30000 "Sandstone" -999.25 -999.25 100.0000 0.0 0.0 "c" "c" "Verikal_ og_ lateral_ utbygging_ av_ proksimal_ 'braid'-delta_ front/munnings-banke" "Braid_ -_ delta_ front_ (munningsbanke)"
4216.3 "6406_6-1" 31.35000 "Sandstone" -999.25 -999.25 100.0000 0.0 0.0 "c" "c" "Verikal_ og_ lateral_ utbygging_ av_ proksimal_ 'braid'-delta_ front/munnings-banke" "Braid_ -_ delta_ front_ (munningsbanke)"
4216.4 "6406_6-1" 30.00000 "Sandstone" -999.25 -999.25 100.0000 0.0 0.0 "c" "c" "Verikal_ og_ lateral_ utbygging_ av_ proksimal_ 'braid'-delta_ front/munnings-banke" "Braid_ -_ delta_ front_ (munningsbanke)"
4216.5 "6406_6-1" 28.76000 "Sandstone" -999.25 -999.25 100.0000 0.0 0.0 "c" "c" "Verikal_ og_ lateral_ utbygging_ av_ proksimal_ 'braid'-delta_ front/munnings-banke" "Braid_ -_ delta_ front_ (munningsbanke)"
4216.6 "6406_6-1" 27.51000 "Sandstone" -999.25 -999.25 100.0000 0.0 0.0 "c" "c" "Verikal_ og_ lateral_ utbygging_ av_ proksimal_ 'braid'-delta_ front/munnings-banke" "Braid_ -_ delta_ front_ (munningsbanke)"
4216.7 "6406_6-1" 26.20000 "Sandstone" -999.25 -999.25 100.0000 0.0 0.0 "c" "c" "Verikal_ og_ lateral_ utbygging_ av_ proksimal_ 'braid'-delta_ front/munnings-banke" "Braid_ -_ delta_ front_ (munningsbanke)"
4216.8 "6406_6-1" 24.86000 "Sandstone" -999.25 -999.25 100.0000 0.0 0.0 "c" "c" "Verikal_ og_ lateral_ utbygging_ av_ proksimal_ 'braid'-delta_ front/munnings-banke" "Braid_ -_ delta_ front_ (munningsbanke)"
4216.9 "6406_6-1" 24.53000 "Sandstone" -999.25 -999.25 100.0000 0.0 0.0 "c" "c" "Verikal_ og_ lateral_ utbygging_ av_ proksimal_ 'braid'-delta_ front/munnings-banke" "Braid_ -_ delta_ front_ (munningsbanke)"
4217.0 "6406_6-1" 24.61000 "Sandstone" -999.25 -999.25 100.0000 0.0 0.0 "c" "c" "Verikal_ og_ lateral_ utbygging_ av_ proksimal_ 'braid'-delta_ front/munnings-banke" "Braid_ -_ delta_ front_ (munningsbanke)"
4217.1 "6406_6-1" 25.08000 "Sandstone" -999.25 -999.25 100.0000 0.0 0.0 "c" "c" "Verikal_ og_ lateral_ utbygging_ av_ proksimal_ 'braid'-delta_ front/munnings-banke" "Braid_ -_ delta_ front_ (munningsbanke)"
4217.2 "6406_6-1" 25.96000 "Sandstone" -999.25 -999.25 100.0000 0.0 0.0 "c" "c" "Verikal_ og_ lateral_ utbygging_ av_ proksimal_ 'braid'-delta_ front/munnings-banke" "Braid_ -_ delta_ front_ (munningsbanke)"
4217.3 "6406_6-1" 26.99000 "Sandstone" -999.25 -999.25 100.0000 0.0 0.0 "c" "c" "Verikal_ og_ lateral_ utbygging_ av_ proksimal_ 'braid'-delta_ front/munnings-banke" "Braid_ -_ delta_ front_ (munningsbanke)"
4217.4 "6406_6-1" 28.09000 "Sandstone" -999.25 -999.25 100.0000 0.0 0.0 "c" "c" "Verikal_ og_ lateral_ utbygging_ av_ proksimal_ 'braid'-delta_ front/munnings-banke" "Braid_ -_ delta_ front_ (munningsbanke)"
4217.5 "6406_6-1" 28.62000 "Sandstone" -999.25 -999.25 100.0000 0.0 0.0 "c" "c" "Verikal_ og_ lateral_ utbygging_ av_ proksimal_ 'braid'-delta_ front/munnings-banke" "Braid_ -_ delta_ front_ (munningsbanke)"
4217.6 "6406_6-1" 28.62000 "Sandstone" -999.25 -999.25 100.0000 0.0 0.0 "c" "c" "Verikal_ og_ lateral_ utbygging_ av_ proksimal_ 'braid'-delta_ front/munnings-banke" "Braid_ -_ delta_ front_ (munningsbanke)"
4217.7 "6406_6-1" 28.31000 "Sandstone" -999.25 -999.25 100.0000 0.0 0.0 "c" "c" "Verikal_ og_ lateral_ utbygging_ av_ proksimal_ 'braid'-delta_ front/munnings-banke" "Braid_ -_ delta_ front_ (munningsbanke)"
4217.8 "6406_6-1" 27.59000 "Sandstone" -999.25 -999.25 100.0000 0.0 0.0 "c" "c" "Verikal_ og_ lateral_ utbygging_ av_ proksimal_ 'braid'-delta_ front/munnings-banke" "Braid_ -_ delta_ front_ (munningsbanke)"
4217.9 "6406_6-1" 26.88000 "Sandstone" -999.25 -999.25 100.0000 0.0 0.0 "c" "c" "Verikal_ og_ lateral_ utbygging_ av_ proksimal_ 'braid'-delta_ front/munnings-banke" "Braid_ -_ delta_ front_ (munningsbanke)"
4218.0 "6406_6-1" 25.80000 "Sandstone" -999.25 -999.25 100.0000 0.0 0.0 "c" "c" "Verikal_ og_ lateral_ utbygging_ av_ proksimal_ 'braid'-delta_ front/munnings-banke" "Braid_ -_ delta_ front_ (munningsbanke)"
4218.1 "6406_6-1" 25.21000 "Sandstone" -999.25 -999.25 100.0000 0.0 0.0 "c" "c" "Verikal_ og_ lateral_ utbygging_ av_ proksimal_ 'braid'-delta_ front/munnings-banke" "Braid_ -_ delta_ front_ (munningsbanke)"
4218.2 "6406_6-1" 25.32000 "Sandstone" -999.25 -999.25 100.0000 0.0 0.0 "c" "c" "Verikal_ og_ lateral_ utbygging_ av_ proksimal_ 'braid'-delta_ front/munnings-banke" "Braid_ -_ delta_ front_ (munningsbanke)"
4218.3 "6406_6-1" 26.04000 "Sandstone" -999.25 -999.25 100.0000 0.0 0.0 "c" "c" "Verikal_ og_ lateral_ utbygging_ av_ proksimal_ 'braid'-delta_ front/munnings-banke" "Braid_ -_ delta_ front_ (munningsbanke)"
4218.4 "6406_6-1" 26.89000 "Sandstone" -999.25 -999.25 100.0000 0.0 0.0 "c" "c" "Verikal_ og_ lateral_ utbygging_ av_ proksimal_ 'braid'-delta_ front/munnings-banke" "Braid_ -_ delta_ front_ (munningsbanke)"
4218.5 "6406_6-1" 27.59000 "Sandstone" -999.25 -999.25 100.0000 0.0 0.0 "c" "c" "Verikal_ og_ lateral_ utbygging_ av_ proksimal_ 'braid'-delta_ front/munnings-banke" "Braid_ -_ delta_ front_ (munningsbanke)"
4218.6 "6406_6-1" 27.59000 "Sandstone" -999.25 -999.25 100.0000 0.0 0.0 "c" "c" "Verikal_ og_ lateral_ utbygging_ av_ proksimal_ 'braid'-delta_ front/munnings-banke" "Braid_ -_ delta_ front_ (munningsbanke)"
4218.7 "6406_6-1" 27.52000 "Sandstone" -999.25 -999.25 100.0000 0.0 0.0 "c" "c" "Verikal_ og_ lateral_ utbygging_ av_ proksimal_ 'braid'-delta_ front/munnings-banke" "Braid_ -_ delta_ front_ (munningsbanke)"
