~Version
VERS  .                                 3.0 : CWLS LAS ASCII Standard - Version 3.0
WRAP  . NO                                  : One line per depth step
DLM   . SPACE                               : Column data section delimiter
SOURCE. Converted to LAS by Log Studio 4.76 : GeoProvider

~Well
STRT.         4211.0 : Start depth
STOP.         4238.4 : Stop depth
STEP.              1 : Step
NULL.        -999.25 : No-value
COMP.                : Company
WELL. 6406/6-1       : Well
FLD .                : Field
LOC .                : Location
LATI.                : Latitude
LONG.                : Longitude
GDAT.                : Geodetic datum
CNTY.                : County
STAT.                : State
CTRY.                : Country
SRVC. GeoProvider AS : Service company
DATE.                : Date
API .                : API number
RUN .                : Run number

~Parameters
WellboreName.  : Wellbore name
RigName     .  : Rig name
StartDate   .  : Start date

~Curves
DEPTH.m            .  : null {F}Depth mMD
Hole_ID.-          .  : null {S}Hole ID
GR.API             .  : null {F}Gamma Ray
Lithology1.-       .  : null {S}Lithology 1
Lithology2.-       .  : null {S}Lithology 2
Lithology3.-       .  : null {S}Lithology 3
Lithology1.%       .  : null {F}Lithology 1 percentage
Lithology2.%       .  : null {F}Lithology 2 percentage
Lithology3.%       .  : null {F}Lithology 3 percentage
Grain_size_Top.-   .  : null {S}Grain size at the top 
Grain_size_Base.-  .  : null {S}Grain size at the bottom
Sub_Environment.-  .  : null {S}Sub Environment
Gross_Environment.-.  : null {S}Gross Environment

~Ascii
# ...
4234.1 "6406_6-1" 34.31000 "Sandstone" -999.25 -999.25 100.0000 0.0 0.0 "m/c" "m/c" "Verikal_ og_ lateral_ utbygging_ av_ proksimal_ 'braid'-delta_ front/munnings-banke" "Braid_ -_ delta_ front_ (munningsbanke)"
4234.2 "6406_6-1" 34.50000 "Sandstone" -999.25 -999.25 100.0000 0.0 0.0 "m/c" "m/c" "Verikal_ og_ lateral_ utbygging_ av_ proksimal_ 'braid'-delta_ front/munnings-banke" "Braid_ -_ delta_ front_ (munningsbanke)"
4234.3 "6406_6-1" 33.13000 "Sandstone" -999.25 -999.25 100.0000 0.0 0.0 "m/c" "m/c" "Verikal_ og_ lateral_ utbygging_ av_ proksimal_ 'braid'-delta_ front/munnings-banke" "Braid_ -_ delta_ front_ (munningsbanke)"
4234.4 "6406_6-1" 32.58000 "Sandstone" -999.25 -999.25 100.0000 0.0 0.0 "m/c" "m/c" "Verikal_ og_ lateral_ utbygging_ av_ proksimal_ 'braid'-delta_ front/munnings-banke" "Braid_ -_ delta_ front_ (munningsbanke)"
4234.5 "6406_6-1" 32.90000 "Sandstone" -999.25 -999.25 100.0000 0.0 0.0 "m/c" "m/c" "Verikal_ og_ lateral_ utbygging_ av_ proksimal_ 'braid'-delta_ front/munnings-banke" "Braid_ -_ delta_ front_ (munningsbanke)"
4234.6 "6406_6-1" 33.84000 "Sandstone" -999.25 -999.25 100.0000 0.0 0.0 "m/c" "m/c" "Verikal_ og_ lateral_ utbygging_ av_ proksimal_ 'braid'-delta_ front/munnings-banke" "Braid_ -_ delta_ front_ (munningsbanke)"
4234.7 "6406_6-1" 34.03000 "Sandstone" -999.25 -999.25 100.0000 0.0 0.0 "m/c" "m/c" "Verikal_ og_ lateral_ utbygging_ av_ proksimal_ 'braid'-delta_ front/munnings-banke" "Braid_ -_ delta_ front_ (munningsbanke)"
4234.8 "6406_6-1" 33.88000 "Sandstone" -999.25 -999.25 100.0000 0.0 0.0 "m/c" "m/c" "Verikal_ og_ lateral_ utbygging_ av_ proksimal_ 'braid'-delta_ front/munnings-banke" "Braid_ -_ delta_ front_ (munningsbanke)"
4234.9 "6406_6-1" 33.18000 "Sandstone" -999.25 -999.25 100.0000 0.0 0.0 "m/c" "m/c" "Verikal_ og_ lateral_ utbygging_ av_ proksimal_ 'braid'-delta_ front/munnings-banke" "Braid_ -_ delta_ front_ (munningsbanke)"
4235.0 "6406_6-1" 32.47000 "Sandstone" -999.25 -999.25 100.0000 0.0 0.0 "m/c" "m/c" "Verikal_ og_ lateral_ utbygging_ av_ proksimal_ 'braid'-delta_ front/munnings-banke" "Braid_ -_ delta_ front_ (munningsbanke)"
4235.1 "6406_6-1" 31.91000 "Sandstone" -999.25 -999.25 100.0000 0.0 0.0 "m/c" "m/c" "Verikal_ og_ lateral_ utbygging_ av_ proksimal_ 'braid'-delta_ front/munnings-banke" "Braid_ -_ delta_ front_ (munningsbanke)"
4235.2 "6406_6-1" 32.36000 "Sandstone" -999.25 -999.25 100.0000 0.0 0.0 "m/c" "m/c" "Verikal_ og_ lateral_ utbygging_ av_ proksimal_ 'braid'-delta_ front/munnings-banke" "Braid_ -_ delta_ front_ (munningsbanke)"
4235.3 "6406_6-1" 33.12000 "Sandstone" -999.25 -999.25 100.0000 0.0 0.0 "m/c" "m/c" "Verikal_ og_ lateral_ utbygging_ av_ proksimal_ 'braid'-delta_ front/munnings-banke" "Braid_ -_ delta_ front_ (munningsbanke)"
4235.4 "6406_6-1" 33.88000 "Sandstone" -999.25 -999.25 100.0000 0.0 0.0 "m/c" "m/c" "Verikal_ og_ lateral_ utbygging_ av_ proksimal_ 'braid'-delta_ front/munnings-banke" "Braid_ -_ delta_ front_ (munningsbanke)"
4235.5 "6406_6-1" 34.64000 "Sandstone" -999.25 -999.25 100.0000 0.0 0.0 "m/c" "m/c" "Verikal_ og_ lateral_ utbygging_ av_ proksimal_ 'braid'-delta_ front/munnings-banke" "Braid_ -_ delta_ front_ (munningsbanke)"
4235.6 "6406_6-1" 35.07000 "Sandstone" -999.25 -999.25 100.0000 0.0 0.0 "m/c" "m/c" "Verikal_ og_ lateral_ utbygging_ av_ proksimal_ 'braid'-delta_ front/munnings-banke" "Braid_ -_ delta_ front_ (munningsbanke)"
4235.7 "6406_6-1" 34.87000 "Sandstone" -999.25 -999.25 100.0000 0.0 0.0 "m/c" "m/c" "Verikal_ og_ lateral_ utbygging_ av_ proksimal_ 'braid'-delta_ front/munnings-banke" "Braid_ -_ delta_ front_ (munningsbanke)"
4235.8 "6406_6-1" 34.07000 "Sandstone" -999.25 -999.25 100.0000 0.0 0.0 "m/c" "m/c" "Verikal_ og_ lateral_ utbygging_ av_ proksimal_ 'braid'-delta_ front/munnings-banke" "Braid_ -_ delta_ front_ (munningsbanke)"
4235.9 "6406_6-1" 33.12000 "Sandstone" -999.25 -999.25 100.0000 0.0 0.0 "m/c" "m/c" "Verikal_ og_ lateral_ utbygging_ av_ proksimal_ 'braid'-delta_ front/munnings-banke" "Braid_ -_ delta_ front_ (munningsbanke)"
4236.0 "6406_6-1" 32.25000 "Sandstone" -999.25 -999.25 100.0000 0.0 0.0 "m/c" "m/c" "Verikal_ og_ lateral_ utbygging_ av_ proksimal_ 'braid'-delta_ front/munnings-banke" "Braid_ -_ delta_ front_ (munningsbanke)"
4236.1 "6406_6-1" 31.38000 "Sandstone" -999.25 -999.25 100.0000 0.0 0.0 "m/c" "m/c" "Verikal_ og_ lateral_ utbygging_ av_ proksimal_ 'braid'-delta_ front/munnings-banke" "Braid_ -_ delta_ front_ (munningsbanke)"
4236.2 "6406_6-1" 30.93000 "Sandstone" -999.25 -999.25 100.0000 0.0 0.0 "m/c" "m/c" "Verikal_ og_ lateral_ utbygging_ av_ proksimal_ 'braid'-delta_ front/munnings-banke" "Braid_ -_ delta_ front_ (munningsbanke)"
4236.3 "6406_6-1" 30.54000 "Sandstone" -999.25 -999.25 100.0000 0.0 0.0 "m/c" "m/c" "Verikal_ og_ lateral_ utbygging_ av_ proksimal_ 'braid'-delta_ front/munnings-banke" "Braid_ -_ delta_ front_ (munningsbanke)"
4236.4 "6406_6-1" 29.27000 "Sandstone" -999.25 -999.25 100.0000 0.0 0.0 "m/c" "m/c" "Verikal_ og_ lateral_ utbygging_ av_ proksimal_ 'braid'-delta_ front/munnings-banke" "Braid_ -_ delta_ front_ (munningsbanke)"
4236.5 "6406_6-1" 28.88000 "Sandstone" -999.25 -999.25 100.0000 0.0 0.0 "m/c" "m/c" "Verikal_ og_ lateral_ utbygging_ av_ proksimal_ 'braid'-delta_ front/munnings-banke" "Braid_ -_ delta_ front_ (munningsbanke)"
4236.6 "6406_6-1" 28.71000 "Sandstone" -999.25 -999.25 100.0000 0.0 0.0 "m/c" "m/c" "Verikal_ og_ lateral_ utbygging_ av_ proksimal_ 'braid'-delta_ front/munnings-banke" "Braid_ -_ delta_ front_ (munningsbanke)"
4236.7 "6406_6-1" 28.92000 "Sandstone" -999.25 -999.25 100.0000 0.0 0.0 "m/c" "m/c" "Verikal_ og_ lateral_ utbygging_ av_ proksimal_ 'braid'-delta_ front/munnings-banke" "Braid_ -_ delta_ front_ (munningsbanke)"
4236.8 "6406_6-1" 29.41000 "Sandstone" -999.25 -999.25 100.0000 0.0 0.0 "m/c" "m/c" "Verikal_ og_ lateral_ utbygging_ av_ proksimal_ 'braid'-delta_ front/munnings-banke" "Braid_ -_ delta_ front_ (munningsbanke)"
4236.9 "6406_6-1" 30.39000 "Sandstone" -999.25 -999.25 100.0000 0.0 0.0 "m/c" "m/c" "Verikal_ og_ lateral_ utbygging_ av_ proksimal_ 'braid'-delta_ front/munnings-banke" "Braid_ -_ delta_ front_ (munningsbanke)"
4237.0 "6406_6-1" 31.32000 "Sandstone" -999.25 -999.25 100.0000 0.0 0.0 "m/c" "m/c" "Verikal_ og_ lateral_ utbygging_ av_ proksimal_ 'braid'-delta_ front/munnings-banke" "Braid_ -_ delta_ front_ (munningsbanke)"
4237.1 "6406_6-1" 32.13000 "Sandstone" -999.25 -999.25 100.0000 0.0 0.0 "m/c" "m/c" "Verikal_ og_ lateral_ utbygging_ av_ proksimal_ 'braid'-delta_ front/munnings-banke" "Braid_ -_ delta_ front_ (munningsbanke)"
4237.2 "6406_6-1" 32.92000 "Sandstone" -999.25 -999.25 100.0000 0.0 0.0 "m/c" "m/c" "Verikal_ og_ lateral_ utbygging_ av_ proksimal_ 'braid'-delta_ front/munnings-banke" "Braid_ -_ delta_ front_ (munningsbanke)"
4237.3 "6406_6-1" 33.29000 "Sandstone" -999.25 -999.25 100.0000 0.0 0.0 "m/c" "m/c" "Verikal_ og_ lateral_ utbygging_ av_ proksimal_ 'braid'-delta_ front/munnings-banke" "Braid_ -_ delta_ front_ (munningsbanke)"
4237.4 "6406_6-1" 33.67000 "Sandstone" -999.25 -999.25 100.0000 0.0 0.0 "m/c" "m/c" "Verikal_ og_ lateral_ utbygging_ av_ proksimal_ 'braid'-delta_ front/munnings-banke" "Braid_ -_ delta_ front_ (munningsbanke)"
4237.5 "6406_6-1" 33.36000 "Sandstone" -999.25 -999.25 100.0000 0.0 0.0 "m/c" "m/c" "Verikal_ og_ lateral_ utbygging_ av_ proksimal_ 'braid'-delta_ front/munnings-banke" "Braid_ -_ delta_ front_ (munningsbanke)"
4237.6 "6406_6-1" 32.61000 "Sandstone" -999.25 -999.25 100.0000 0.0 0.0 "m/c" "m/c" "Verikal_ og_ lateral_ utbygging_ av_ proksimal_ 'braid'-delta_ front/munnings-banke" "Braid_ -_ delta_ front_ (munningsbanke)"
4237.7 "6406_6-1" 31.94000 "Sandstone" -999.25 -999.25 100.0000 0.0 0.0 "m/c" "m/c" "Verikal_ og_ lateral_ utbygging_ av_ proksimal_ 'braid'-delta_ front/munnings-banke" "Braid_ -_ delta_ front_ (munningsbanke)"
4237.8 "6406_6-1" 31.30000 "Sandstone" -999.25 -999.25 100.0000 0.0 0.0 "m/c" "m/c" "Verikal_ og_ lateral_ utbygging_ av_ proksimal_ 'braid'-delta_ front/munnings-banke" "Braid_ -_ delta_ front_ (munningsbanke)"
