~Version
VERS  .                                 3.0 : CWLS LAS ASCII Standard - Version 3.0
WRAP  . NO                                  : One line per depth step
DLM   . SPACE                               : Column data section delimiter
SOURCE. Converted to LAS by Log Studio 4.76 : GeoProvider

~Well
STRT.         4211.0 : Start depth
STOP.         4238.4 : Stop depth
STEP.              1 : Step
NULL.        -999.25 : No-value
COMP.                : Company
WELL. 6406/6-1       : Well
FLD .                : Field
LOC .                : Location
LATI.                : Latitude
LONG.                : Longitude
GDAT.                : Geodetic datum
CNTY.                : County
STAT.                : State
CTRY.                : Country
SRVC. GeoProvider AS : Service company
DATE.                : Date
API .                : API number
RUN .                : Run number

~Parameters
WellboreName.  : Wellbore name
RigName     .  : Rig name
StartDate   .  : Start date

~Curves
DEPTH.m            .  : null {F}Depth mMD
Hole_ID.-          .  : null {S}Hole ID
GR.API             .  : null {F}Gamma Ray
Lithology1.-       .  : null {S}Lithology 1
Lithology2.-       .  : null {S}Lithology 2
Lithology3.-       .  : null {S}Lithology 3
Lithology1.%       .  : null {F}Lithology 1 percentage
Lithology2.%       .  : null {F}Lithology 2 percentage
Lithology3.%       .  : null {F}Lithology 3 percentage
Grain_size_Top.-   .  : null {S}Grain size at the top 
Grain_size_Base.-  .  : null {S}Grain size at the bottom
Sub_Environment.-  .  : null {S}Sub Environment
Gross_Environment.-.  : null {S}Gross Environment

~Ascii
4211.0 "6406_6-1" 26.55000 "Sandstone" -999.25 -999.25 100.0000 0.0 0.0 "c" "c" "Verikal_ og_ lateral_ utbygging_ av_ proksimal_ 'braid'-delta_ front/munnings-banke" "Braid_ -_ delta_ front_ (munningsbanke)"
4211.1 "6406_6-1" 26.76000 "Sandstone" -999.25 -999.25 100.0000 0.0 0.0 "c" "c" "Verikal_ og_ lateral_ utbygging_ av_ proksimal_ 'braid'-delta_ front/munnings-banke" "Braid_ -_ delta_ front_ (munningsbanke)"
4211.2 "6406_6-1" 26.96000 "Sandstone" -999.25 -999.25 100.0000 0.0 0.0 "c" "c" "Verikal_ og_ lateral_ utbygging_ av_ proksimal_ 'braid'-delta_ front/munnings-banke" "Braid_ -_ delta_ front_ (munningsbanke)"
4211.3 "6406_6-1" 27.16000 "Sandstone" -999.25 -999.25 100.0000 0.0 0.0 "c" "c" "Verikal_ og_ lateral_ utbygging_ av_ proksimal_ 'braid'-delta_ front/munnings-banke" "Braid_ -_ delta_ front_ (munningsbanke)"
4211.4 "6406_6-1" 27.36000 "Sandstone" -999.25 -999.25 100.0000 0.0 0.0 "c" "c" "Verikal_ og_ lateral_ utbygging_ av_ proksimal_ 'braid'-delta_ front/munnings-banke" "Braid_ -_ delta_ front_ (munningsbanke)"
4211.5 "6406_6-1" 27.04000 "Sandstone" -999.25 -999.25 100.0000 0.0 0.0 "c" "c" "Verikal_ og_ lateral_ utbygging_ av_ proksimal_ 'braid'-delta_ front/munnings-banke" "Braid_ -_ delta_ front_ (munningsbanke)"
4211.6 "6406_6-1" 26.55000 "Sandstone" -999.25 -999.25 100.0000 0.0 0.0 "c" "c" "Verikal_ og_ lateral_ utbygging_ av_ proksimal_ 'braid'-delta_ front/munnings-banke" "Braid_ -_ delta_ front_ (munningsbanke)"
4211.7 "6406_6-1" 25.62000 "Sandstone" -999.25 -999.25 100.0000 0.0 0.0 "c" "c" "Verikal_ og_ lateral_ utbygging_ av_ proksimal_ 'braid'-delta_ front/munnings-banke" "Braid_ -_ delta_ front_ (munningsbanke)"
4211.8 "6406_6-1" 24.69000 "Sandstone" -999.25 -999.25 100.0000 0.0 0.0 "c" "c" "Verikal_ og_ lateral_ utbygging_ av_ proksimal_ 'braid'-delta_ front/munnings-banke" "Braid_ -_ delta_ front_ (munningsbanke)"
4211.9 "6406_6-1" 24.62000 "Sandstone" -999.25 -999.25 100.0000 0.0 0.0 "c" "c" "Verikal_ og_ lateral_ utbygging_ av_ proksimal_ 'braid'-delta_ front/munnings-banke" "Braid_ -_ delta_ front_ (munningsbanke)"
4212.0 "6406_6-1" 24.82000 "Sandstone" -999.25 -999.25 100.0000 0.0 0.0 "c" "c" "Verikal_ og_ lateral_ utbygging_ av_ proksimal_ 'braid'-delta_ front/munnings-banke" "Braid_ -_ delta_ front_ (munningsbanke)"
4212.1 "6406_6-1" 25.01000 "Sandstone" -999.25 -999.25 100.0000 0.0 0.0 "c" "c" "Verikal_ og_ lateral_ utbygging_ av_ proksimal_ 'braid'-delta_ front/munnings-banke" "Braid_ -_ delta_ front_ (munningsbanke)"
4212.2 "6406_6-1" 25.31000 "Sandstone" -999.25 -999.25 100.0000 0.0 0.0 "c" "c" "Verikal_ og_ lateral_ utbygging_ av_ proksimal_ 'braid'-delta_ front/munnings-banke" "Braid_ -_ delta_ front_ (munningsbanke)"
4212.3 "6406_6-1" 25.93000 "Sandstone" -999.25 -999.25 100.0000 0.0 0.0 "c" "c" "Verikal_ og_ lateral_ utbygging_ av_ proksimal_ 'braid'-delta_ front/munnings-banke" "Braid_ -_ delta_ front_ (munningsbanke)"
4212.4 "6406_6-1" 26.55000 "Sandstone" -999.25 -999.25 100.0000 0.0 0.0 "c" "c" "Verikal_ og_ lateral_ utbygging_ av_ proksimal_ 'braid'-delta_ front/munnings-banke" "Braid_ -_ delta_ front_ (munningsbanke)"
4212.5 "6406_6-1" 26.64000 "Sandstone" -999.25 -999.25 100.0000 0.0 0.0 "c" "c" "Verikal_ og_ lateral_ utbygging_ av_ proksimal_ 'braid'-delta_ front/munnings-banke" "Braid_ -_ delta_ front_ (munningsbanke)"
4212.6 "6406_6-1" 26.67000 "Sandstone" -999.25 -999.25 100.0000 0.0 0.0 "c" "c" "Verikal_ og_ lateral_ utbygging_ av_ proksimal_ 'braid'-delta_ front/munnings-banke" "Braid_ -_ delta_ front_ (munningsbanke)"
4212.7 "6406_6-1" 26.15000 "Sandstone" -999.25 -999.25 100.0000 0.0 0.0 "c" "c" "Verikal_ og_ lateral_ utbygging_ av_ proksimal_ 'braid'-delta_ front/munnings-banke" "Braid_ -_ delta_ front_ (munningsbanke)"
4212.8 "6406_6-1" 25.21000 "Sandstone" -999.25 -999.25 100.0000 0.0 0.0 "c" "c" "Verikal_ og_ lateral_ utbygging_ av_ proksimal_ 'braid'-delta_ front/munnings-banke" "Braid_ -_ delta_ front_ (munningsbanke)"
4212.9 "6406_6-1" 24.70000 "Sandstone" -999.25 -999.25 100.0000 0.0 0.0 "c" "c" "Verikal_ og_ lateral_ utbygging_ av_ proksimal_ 'braid'-delta_ front/munnings-banke" "Braid_ -_ delta_ front_ (munningsbanke)"
4213.0 "6406_6-1" 24.49000 "Sandstone" -999.25 -999.25 100.0000 0.0 0.0 "c" "c" "Verikal_ og_ lateral_ utbygging_ av_ proksimal_ 'braid'-delta_ front/munnings-banke" "Braid_ -_ delta_ front_ (munningsbanke)"
4213.1 "6406_6-1" 24.30000 "Sandstone" -999.25 -999.25 100.0000 0.0 0.0 "c" "c" "Verikal_ og_ lateral_ utbygging_ av_ proksimal_ 'braid'-delta_ front/munnings-banke" "Braid_ -_ delta_ front_ (munningsbanke)"
4213.2 "6406_6-1" 24.35000 "Sandstone" -999.25 -999.25 100.0000 0.0 0.0 "c" "c" "Verikal_ og_ lateral_ utbygging_ av_ proksimal_ 'braid'-delta_ front/munnings-banke" "Braid_ -_ delta_ front_ (munningsbanke)"
4213.3 "6406_6-1" 24.40000 "Sandstone" -999.25 -999.25 100.0000 0.0 0.0 "c" "c" "Verikal_ og_ lateral_ utbygging_ av_ proksimal_ 'braid'-delta_ front/munnings-banke" "Braid_ -_ delta_ front_ (munningsbanke)"
4213.4 "6406_6-1" 24.44000 "Sandstone" -999.25 -999.25 100.0000 0.0 0.0 "c" "c" "Verikal_ og_ lateral_ utbygging_ av_ proksimal_ 'braid'-delta_ front/munnings-banke" "Braid_ -_ delta_ front_ (munningsbanke)"
4213.5 "6406_6-1" 24.49000 "Sandstone" -999.25 -999.25 100.0000 0.0 0.0 "c" "c" "Verikal_ og_ lateral_ utbygging_ av_ proksimal_ 'braid'-delta_ front/munnings-banke" "Braid_ -_ delta_ front_ (munningsbanke)"
4213.6 "6406_6-1" 24.54000 "Sandstone" -999.25 -999.25 100.0000 0.0 0.0 "c" "c" "Verikal_ og_ lateral_ utbygging_ av_ proksimal_ 'braid'-delta_ front/munnings-banke" "Braid_ -_ delta_ front_ (munningsbanke)"
4213.7 "6406_6-1" 24.58000 "Sandstone" -999.25 -999.25 100.0000 0.0 0.0 "c" "c" "Verikal_ og_ lateral_ utbygging_ av_ proksimal_ 'braid'-delta_ front/munnings-banke" "Braid_ -_ delta_ front_ (munningsbanke)"
4213.8 "6406_6-1" 24.63000 "Sandstone" -999.25 -999.25 100.0000 0.0 0.0 "c" "c" "Verikal_ og_ lateral_ utbygging_ av_ proksimal_ 'braid'-delta_ front/munnings-banke" "Braid_ -_ delta_ front_ (munningsbanke)"
4213.9 "6406_6-1" 24.68000 "Sandstone" -999.25 -999.25 100.0000 0.0 0.0 "c" "c" "Verikal_ og_ lateral_ utbygging_ av_ proksimal_ 'braid'-delta_ front/munnings-banke" "Braid_ -_ delta_ front_ (munningsbanke)"
4214.0 "6406_6-1" 24.72000 "Sandstone" -999.25 -999.25 100.0000 0.0 0.0 "c" "c" "Verikal_ og_ lateral_ utbygging_ av_ proksimal_ 'braid'-delta_ front/munnings-banke" "Braid_ -_ delta_ front_ (munningsbanke)"
4214.1 "6406_6-1" 24.77000 "Sandstone" -999.25 -999.25 100.0000 0.0 0.0 "c" "c" "Verikal_ og_ lateral_ utbygging_ av_ proksimal_ 'braid'-delta_ front/munnings-banke" "Braid_ -_ delta_ front_ (munningsbanke)"
4214.2 "6406_6-1" 24.82000 "Sandstone" -999.25 -999.25 100.0000 0.0 0.0 "c" "c" "Verikal_ og_ lateral_ utbygging_ av_ proksimal_ 'braid'-delta_ front/munnings-banke" "Braid_ -_ delta_ front_ (munningsbanke)"
4214.3 "6406_6-1" 25.65000 "Sandstone" -999.25 -999.25 100.0000 0.0 0.0 "c" "c" "Verikal_ og_ lateral_ utbygging_ av_ proksimal_ 'braid'-delta_ front/munnings-banke" "Braid_ -_ delta_ front_ (munningsbanke)"
4214.4 "6406_6-1" 26.49000 "Sandstone" -999.25 -999.25 100.0000 0.0 0.0 "c" "c" "Verikal_ og_ lateral_ utbygging_ av_ proksimal_ 'braid'-delta_ front/munnings-banke" "Braid_ -_ delta_ front_ (munningsbanke)"
4214.5 "6406_6-1" 27.33000 "Sandstone" -999.25 -999.25 100.0000 0.0 0.0 "c" "c" "Verikal_ og_ lateral_ utbygging_ av_ proksimal_ 'braid'-delta_ front/munnings-banke" "Braid_ -_ delta_ front_ (munningsbanke)"
4214.6 "6406_6-1" 28.05000 "Sandstone" -999.25 -999.25 100.0000 0.0 0.0 "c" "c" "Verikal_ og_ lateral_ utbygging_ av_ proksimal_ 'braid'-delta_ front/munnings-banke" "Braid_ -_ delta_ front_ (munningsbanke)"
4214.7 "6406_6-1" 28.76000 "Sandstone" -999.25 -999.25 100.0000 0.0 0.0 "c" "c" "Verikal_ og_ lateral_ utbygging_ av_ proksimal_ 'braid'-delta_ front/munnings-banke" "Braid_ -_ delta_ front_ (munningsbanke)"
4214.8 "6406_6-1" 29.48000 "Sandstone" -999.25 -999.25 100.0000 0.0 0.0 "c" "c" "Verikal_ og_ lateral_ utbygging_ av_ proksimal_ 'braid'-delta_ front/munnings-banke" "Braid_ -_ delta_ front_ (munningsbanke)"
