~Version
VERS  .                                 3.0 : CWLS LAS ASCII Standard - Version 3.0
WRAP  . NO                                  : One line per depth step
DLM   . SPACE                               : Column data section delimiter
SOURCE. Converted to LAS by Log Studio 4.76 : GeoProvider

~Well
STRT.         4211.0 : Start depth
STOP.         4238.4 : Stop depth
STEP.              1 : Step
NULL.        -999.25 : No-value
COMP.                : Company
WELL. 6406/6-1       : Well
FLD .                : Field
LOC .                : Location
LATI.                : Latitude
LONG.                : Longitude
GDAT.                : Geodetic datum
CNTY.                : County
STAT.                : State
CTRY.                : Country
SRVC. GeoProvider AS : Service company
DATE.                : Date
API .                : API number
RUN .                : Run number

~Parameters
WellboreName.  : Wellbore name
RigName     .  : Rig name
StartDate   .  : Start date

~Curves
DEPTH.m            .  : null {F}Depth mMD
Hole_ID.-          .  : null {S}Hole ID
GR.API             .  : null {F}Gamma Ray
Lithology1.-       .  : null {S}Lithology 1
Lithology2.-       .  : null {S}Lithology 2
Lithology3.-       .  : null {S}Lithology 3
Lithology1.%       .  : null {F}Lithology 1 percentage
Lithology2.%       .  : null {F}Lithology 2 percentage
Lithology3.%       .  : null {F}Lithology 3 percentage
Grain_size_Top.-   .  : null {S}Grain size at the top 
Grain_size_Base.-  .  : null {S}Grain size at the bottom
Sub_Environment.-  .  : null {S}Sub Environment
Gross_Environment.-.  : null {S}Gross Environment

~Ascii
# ...
4226.5 "6406_6-1" 27.77000 "Sandstone" -999.25 -999.25 100.0000 0.0 0.0 "m/c" "m/c" "Verikal_ og_ lateral_ utbygging_ av_ proksimal_ 'braid'-delta_ front/munnings-banke" "Braid_ -_ delta_ front_ (munningsbanke)"
4226.6 "6406_6-1" 28.03000 "Sandstone" -999.25 -999.25 100.0000 0.0 0.0 "m/c" "m/c" "Verikal_ og_ lateral_ utbygging_ av_ proksimal_ 'braid'-delta_ front/munnings-banke" "Braid_ -_ delta_ front_ (munningsbanke)"
4226.7 "6406_6-1" 28.02000 "Sandstone" -999.25 -999.25 100.0000 0.0 0.0 "m/c" "m/c" "Verikal_ og_ lateral_ utbygging_ av_ proksimal_ 'braid'-delta_ front/munnings-banke" "Braid_ -_ delta_ front_ (munningsbanke)"
4226.8 "6406_6-1" 27.96000 "Sandstone" -999.25 -999.25 100.0000 0.0 0.0 "m/c" "m/c" "Verikal_ og_ lateral_ utbygging_ av_ proksimal_ 'braid'-delta_ front/munnings-banke" "Braid_ -_ delta_ front_ (munningsbanke)"
4226.9 "6406_6-1" 27.75000 "Sandstone" -999.25 -999.25 100.0000 0.0 0.0 "m/c" "m/c" "Verikal_ og_ lateral_ utbygging_ av_ proksimal_ 'braid'-delta_ front/munnings-banke" "Braid_ -_ delta_ front_ (munningsbanke)"
4227.0 "6406_6-1" 27.36000 "Sandstone" -999.25 -999.25 100.0000 0.0 0.0 "m/c" "m/c" "Verikal_ og_ lateral_ utbygging_ av_ proksimal_ 'braid'-delta_ front/munnings-banke" "Braid_ -_ delta_ front_ (munningsbanke)"
4227.1 "6406_6-1" 26.75000 "Sandstone" -999.25 -999.25 100.0000 0.0 0.0 "m/c" "m/c" "Verikal_ og_ lateral_ utbygging_ av_ proksimal_ 'braid'-delta_ front/munnings-banke" "Braid_ -_ delta_ front_ (munningsbanke)"
4227.2 "6406_6-1" 26.54000 "Sandstone" -999.25 -999.25 100.0000 0.0 0.0 "m/c" "m/c" "Verikal_ og_ lateral_ utbygging_ av_ proksimal_ 'braid'-delta_ front/munnings-banke" "Braid_ -_ delta_ front_ (munningsbanke)"
4227.3 "6406_6-1" 26.46000 "Sandstone" -999.25 -999.25 100.0000 0.0 0.0 "m/c" "m/c" "Verikal_ og_ lateral_ utbygging_ av_ proksimal_ 'braid'-delta_ front/munnings-banke" "Braid_ -_ delta_ front_ (munningsbanke)"
4227.4 "6406_6-1" 25.79000 "Sandstone" -999.25 -999.25 100.0000 0.0 0.0 "m/c" "m/c" "Verikal_ og_ lateral_ utbygging_ av_ proksimal_ 'braid'-delta_ front/munnings-banke" "Braid_ -_ delta_ front_ (munningsbanke)"
4227.5 "6406_6-1" 25.20000 "Sandstone" -999.25 -999.25 100.0000 0.0 0.0 "m/c" "m/c" "Verikal_ og_ lateral_ utbygging_ av_ proksimal_ 'braid'-delta_ front/munnings-banke" "Braid_ -_ delta_ front_ (munningsbanke)"
4227.6 "6406_6-1" 25.12000 "Sandstone" -999.25 -999.25 100.0000 0.0 0.0 "m/c" "m/c" "Verikal_ og_ lateral_ utbygging_ av_ proksimal_ 'braid'-delta_ front/munnings-banke" "Braid_ -_ delta_ front_ (munningsbanke)"
4227.7 "6406_6-1" 25.28000 "Sandstone" -999.25 -999.25 100.0000 0.0 0.0 "m/c" "m/c" "Verikal_ og_ lateral_ utbygging_ av_ proksimal_ 'braid'-delta_ front/munnings-banke" "Braid_ -_ delta_ front_ (munningsbanke)"
4227.8 "6406_6-1" 25.62000 "Sandstone" -999.25 -999.25 100.0000 0.0 0.0 "m/c" "m/c" "Verikal_ og_ lateral_ utbygging_ av_ proksimal_ 'braid'-delta_ front/munnings-banke" "Braid_ -_ delta_ front_ (munningsbanke)"
4227.9 "6406_6-1" 26.27000 "Sandstone" -999.25 -999.25 100.0000 0.0 0.0 "m/c" "m/c" "Verikal_ og_ lateral_ utbygging_ av_ proksimal_ 'braid'-delta_ front/munnings-banke" "Braid_ -_ delta_ front_ (munningsbanke)"
4228.0 "6406_6-1" 27.18000 "Sandstone" -999.25 -999.25 100.0000 0.0 0.0 "m/c" "m/c" "Verikal_ og_ lateral_ utbygging_ av_ proksimal_ 'braid'-delta_ front/munnings-banke" "Braid_ -_ delta_ front_ (munningsbanke)"
4228.1 "6406_6-1" 28.34000 "Sandstone" -999.25 -999.25 100.0000 0.0 0.0 "m/c" "m/c" "Verikal_ og_ lateral_ utbygging_ av_ proksimal_ 'braid'-delta_ front/munnings-banke" "Braid_ -_ delta_ front_ (munningsbanke)"
4228.2 "6406_6-1" 30.09000 "Sandstone" -999.25 -999.25 100.0000 0.0 0.0 "m/c" "m/c" "Verikal_ og_ lateral_ utbygging_ av_ proksimal_ 'braid'-delta_ front/munnings-banke" "Braid_ -_ delta_ front_ (munningsbanke)"
4228.3 "6406_6-1" 31.18000 "Sandstone" -999.25 -999.25 100.0000 0.0 0.0 "m/c" "m/c" "Verikal_ og_ lateral_ utbygging_ av_ proksimal_ 'braid'-delta_ front/munnings-banke" "Braid_ -_ delta_ front_ (munningsbanke)"
4228.4 "6406_6-1" 32.27000 "Sandstone" -999.25 -999.25 100.0000 0.0 0.0 "m/c" "m/c" "Verikal_ og_ lateral_ utbygging_ av_ proksimal_ 'braid'-delta_ front/munnings-banke" "Braid_ -_ delta_ front_ (munningsbanke)"
4228.5 "6406_6-1" 33.19000 "Sandstone" -999.25 -999.25 100.0000 0.0 0.0 "m/c" "m/c" "Verikal_ og_ lateral_ utbygging_ av_ proksimal_ 'braid'-delta_ front/munnings-banke" "Braid_ -_ delta_ front_ (munningsbanke)"
4228.6 "6406_6-1" 33.48000 "Sandstone" -999.25 -999.25 100.0000 0.0 0.0 "m/c" "m/c" "Verikal_ og_ lateral_ utbygging_ av_ proksimal_ 'braid'-delta_ front/munnings-banke" "Braid_ -_ delta_ front_ (munningsbanke)"
4228.7 "6406_6-1" 32.50000 "Sandstone" -999.25 -999.25 100.0000 0.0 0.0 "m/c" "m/c" "Verikal_ og_ lateral_ utbygging_ av_ proksimal_ 'braid'-delta_ front/munnings-banke" "Braid_ -_ delta_ front_ (munningsbanke)"
4228.8 "6406_6-1" 31.81000 "Sandstone" -999.25 -999.25 100.0000 0.0 0.0 "m/c" "m/c" "Verikal_ og_ lateral_ utbygging_ av_ proksimal_ 'braid'-delta_ front/munnings-banke" "Braid_ -_ delta_ front_ (munningsbanke)"
4228.9 "6406_6-1" 31.48000 "Sandstone" -999.25 -999.25 100.0000 0.0 0.0 "m/c" "m/c" "Verikal_ og_ lateral_ utbygging_ av_ proksimal_ 'braid'-delta_ front/munnings-banke" "Braid_ -_ delta_ front_ (munningsbanke)"
4229.0 "6406_6-1" 31.48000 "Sandstone" -999.25 -999.25 100.0000 0.0 0.0 "m/c" "m/c" "Verikal_ og_ lateral_ utbygging_ av_ proksimal_ 'braid'-delta_ front/munnings-banke" "Braid_ -_ delta_ front_ (munningsbanke)"
4229.1 "6406_6-1" 31.49000 "Sandstone" -999.25 -999.25 100.0000 0.0 0.0 "m/c" "m/c" "Verikal_ og_ lateral_ utbygging_ av_ proksimal_ 'braid'-delta_ front/munnings-banke" "Braid_ -_ delta_ front_ (munningsbanke)"
4229.2 "6406_6-1" 32.43000 "Sandstone" -999.25 -999.25 100.0000 0.0 0.0 "m/c" "m/c" "Verikal_ og_ lateral_ utbygging_ av_ proksimal_ 'braid'-delta_ front/munnings-banke" "Braid_ -_ delta_ front_ (munningsbanke)"
4229.3 "6406_6-1" 33.11000 "Sandstone" -999.25 -999.25 100.0000 0.0 0.0 "m/c" "m/c" "Verikal_ og_ lateral_ utbygging_ av_ proksimal_ 'braid'-delta_ front/munnings-banke" "Braid_ -_ delta_ front_ (munningsbanke)"
4229.4 "6406_6-1" 32.87000 "Sandstone" -999.25 -999.25 100.0000 0.0 0.0 "m/c" "m/c" "Verikal_ og_ lateral_ utbygging_ av_ proksimal_ 'braid'-delta_ front/munnings-banke" "Braid_ -_ delta_ front_ (munningsbanke)"
4229.5 "6406_6-1" 32.13000 "Sandstone" -999.25 -999.25 100.0000 0.0 0.0 "m/c" "m/c" "Verikal_ og_ lateral_ utbygging_ av_ proksimal_ 'braid'-delta_ front/munnings-banke" "Braid_ -_ delta_ front_ (munningsbanke)"
4229.6 "6406_6-1" 31.40000 "Sandstone" -999.25 -999.25 100.0000 0.0 0.0 "m/c" "m/c" "Verikal_ og_ lateral_ utbygging_ av_ proksimal_ 'braid'-delta_ front/munnings-banke" "Braid_ -_ delta_ front_ (munningsbanke)"
4229.7 "6406_6-1" 30.66000 "Sandstone" -999.25 -999.25 100.0000 0.0 0.0 "m/c" "m/c" "Verikal_ og_ lateral_ utbygging_ av_ proksimal_ 'braid'-delta_ front/munnings-banke" "Braid_ -_ delta_ front_ (munningsbanke)"
4229.8 "6406_6-1" 30.25000 "Sandstone" -999.25 -999.25 100.0000 0.0 0.0 "m/c" "m/c" "Verikal_ og_ lateral_ utbygging_ av_ proksimal_ 'braid'-delta_ front/munnings-banke" "Braid_ -_ delta_ front_ (munningsbanke)"
4229.9 "6406_6-1" 30.07000 "Sandstone" -999.25 -999.25 100.0000 0.0 0.0 "m/c" "m/c" "Verikal_ og_ lateral_ utbygging_ av_ proksimal_ 'braid'-delta_ front/munnings-banke" "Braid_ -_ delta_ front_ (munningsbanke)"
4230.0 "6406_6-1" 30.41000 "Sandstone" -999.25 -999.25 100.0000 0.0 0.0 "m/c" "m/c" "Verikal_ og_ lateral_ utbygging_ av_ proksimal_ 'braid'-delta_ front/munnings-banke" "Braid_ -_ delta_ front_ (munningsbanke)"
4230.1 "6406_6-1" 30.75000 "Sandstone" -999.25 -999.25 100.0000 0.0 0.0 "m/c" "m/c" "Verikal_ og_ lateral_ utbygging_ av_ proksimal_ 'braid'-delta_ front/munnings-banke" "Braid_ -_ delta_ front_ (munningsbanke)"
4230.2 "6406_6-1" 31.24000 "Sandstone" -999.25 -999.25 100.0000 0.0 0.0 "m/c" "m/c" "Verikal_ og_ lateral_ utbygging_ av_ proksimal_ 'braid'-delta_ front/munnings-banke" "Braid_ -_ delta_ front_ (munningsbanke)"
