~Version
VERS  .                                 3.0 : CWLS LAS ASCII Standard - Version 3.0
WRAP  . NO                                  : One line per depth step
DLM   . SPACE                               : Column data section delimiter
SOURCE. Converted to LAS by Log Studio 4.76 : GeoProvider

~Well
STRT.         4184.0 : Start depth
STOP.         4634.6 : Stop depth
STEP.              1 : Step
NULL.        -999.25 : No-value
COMP.                : Company
WELL. 6506/12-6      : Well
FLD .                : Field
LOC .                : Location
LATI.                : Latitude
LONG.                : Longitude
GDAT.                : Geodetic datum
CNTY.                : County
STAT.                : State
CTRY.                : Country
SRVC. GeoProvider AS : Service company
DATE.                : Date
API .                : API number
RUN .                : Run number

~Parameters
WellboreName.  : Wellbore name
RigName     .  : Rig name
StartDate   .  : Start date

~Curves
DEPTH.m            .  : null {F}Depth mMD
Hole_ID.-          .  : null {S}Hole ID
GR.API             .  : null {F}Gamma Ray
Lithology1.-       .  : null {S}Lithology 1
Lithology2.-       .  : null {S}Lithology 2
Lithology3.-       .  : null {S}Lithology 3
Lithology1.%       .  : null {F}Lithology 1 percentage
Lithology2.%       .  : null {F}Lithology 2 percentage
Lithology3.%       .  : null {F}Lithology 3 percentage
Grain_size_Top.-   .  : null {S}Grain size at the top 
Grain_size_Base.-  .  : null {S}Grain size at the bottom
Sub_Environment.-  .  : null {S}Sub Environment
Gross_Environment.-.  : null {S}Gross Environment

~Ascii
# ...
4312.6 "6506_12-6"  81.3700 "Sandstone" -999.25 -999.25 100.0000      0.0     0.0 "c/vc"     "c"        "Aggraderende_proksimal_delta_front_Dominert_av_fluviale_prosesser" "Aggraderende_og_progradernede_delta_front"         
4312.7 "6506_12-6"  80.8900 "Sandstone" -999.25 -999.25 100.0000      0.0     0.0 "c/vc"     "c"        "Aggraderende_proksimal_delta_front_Dominert_av_fluviale_prosesser" "Aggraderende_og_progradernede_delta_front"         
4312.8 "6506_12-6"  80.1100 "Sandstone" -999.25 -999.25 100.0000      0.0     0.0 "c/vc"     "c"        "Aggraderende_proksimal_delta_front_Dominert_av_fluviale_prosesser" "Aggraderende_og_progradernede_delta_front"         
4312.9 "6506_12-6"  78.8300 "Sandstone" -999.25 -999.25 100.0000      0.0     0.0 "c/vc"     "c"        "Aggraderende_proksimal_delta_front_Dominert_av_fluviale_prosesser" "Aggraderende_og_progradernede_delta_front"         
4313.0 "6506_12-6"  77.5400 "Sandstone" -999.25 -999.25 100.0000      0.0     0.0 "c/vc"     "c"        "Aggraderende_proksimal_delta_front_Dominert_av_fluviale_prosesser" "Aggraderende_og_progradernede_delta_front"         
4313.1 "6506_12-6"  76.2600 "Sandstone" -999.25 -999.25 100.0000      0.0     0.0 "c/vc"     "c"        "Aggraderende_proksimal_delta_front_Dominert_av_fluviale_prosesser" "Aggraderende_og_progradernede_delta_front"         
4313.2 "6506_12-6"  74.9700 "Sandstone" -999.25 -999.25 100.0000      0.0     0.0 "c/vc"     "c"        "Aggraderende_proksimal_delta_front_Dominert_av_fluviale_prosesser" "Aggraderende_og_progradernede_delta_front"         
4313.3 "6506_12-6"  73.6800 "Sandstone" -999.25 -999.25 100.0000      0.0     0.0 "c/vc"     "c"        "Aggraderende_proksimal_delta_front_Dominert_av_fluviale_prosesser" "Aggraderende_og_progradernede_delta_front"         
4313.4 "6506_12-6"  72.4000 "Sandstone" -999.25 -999.25 100.0000      0.0     0.0 "c/vc"     "c"        "Aggraderende_proksimal_delta_front_Dominert_av_fluviale_prosesser" "Aggraderende_og_progradernede_delta_front"         
4313.5 "6506_12-6"  71.1100 "Sandstone" -999.25 -999.25 100.0000      0.0     0.0 "c/vc"     "c"        "Aggraderende_proksimal_delta_front_Dominert_av_fluviale_prosesser" "Aggraderende_og_progradernede_delta_front"         
4313.6 "6506_12-6"  69.8700 "Sandstone" -999.25 -999.25 100.0000      0.0     0.0 "c/vc"     "c"        "Aggraderende_proksimal_delta_front_Dominert_av_fluviale_prosesser" "Aggraderende_og_progradernede_delta_front"         
4313.7 "6506_12-6"  70.9400 "Sandstone" -999.25 -999.25 100.0000      0.0     0.0 "c/vc"     "c"        "Aggraderende_proksimal_delta_front_Dominert_av_fluviale_prosesser" "Aggraderende_og_progradernede_delta_front"         
4313.8 "6506_12-6"  72.0100 "Sandstone" -999.25 -999.25 100.0000      0.0     0.0 "c/vc"     "c"        "Aggraderende_proksimal_delta_front_Dominert_av_fluviale_prosesser" "Aggraderende_og_progradernede_delta_front"         
4313.9 "6506_12-6"  73.3300 "Sandstone" -999.25 -999.25 100.0000      0.0     0.0 -999.25    -999.25    "Aggraderende_proksimal_delta_front_Dominert_av_fluviale_prosesser" "Aggraderende_og_progradernede_delta_front"         
4314.0 "6506_12-6"  75.1000 "Sandstone" -999.25 -999.25 100.0000      0.0     0.0 -999.25    -999.25    "Aggraderende_proksimal_delta_front_Dominert_av_fluviale_prosesser" "Aggraderende_og_progradernede_delta_front"         
4314.1 "6506_12-6"  74.2500 "Sandstone" -999.25 -999.25 100.0000      0.0     0.0 "vc"       "vc"       "Aggraderende_proksimal_delta_front_Dominert_av_fluviale_prosesser" "Aggraderende_og_progradernede_delta_front"         
4314.2 "6506_12-6"  73.4000 "Sandstone" -999.25 -999.25 100.0000      0.0     0.0 "vc"       "vc"       "Aggraderende_proksimal_delta_front_Dominert_av_fluviale_prosesser" "Aggraderende_og_progradernede_delta_front"         
4314.3 "6506_12-6"  72.5500 "Sandstone" -999.25 -999.25 100.0000      0.0     0.0 "vc"       "vc"       "Aggraderende_proksimal_delta_front_Dominert_av_fluviale_prosesser" "Aggraderende_og_progradernede_delta_front"         
4314.4 "6506_12-6"  71.7000 "Sandstone" -999.25 -999.25 100.0000      0.0     0.0 "vc"       "vc"       "Aggraderende_proksimal_delta_front_Dominert_av_fluviale_prosesser" "Aggraderende_og_progradernede_delta_front"         
4314.5 "6506_12-6"  70.8600 "Sandstone" -999.25 -999.25 100.0000      0.0     0.0 "vc"       "vc"       "Aggraderende_proksimal_delta_front_Dominert_av_fluviale_prosesser" "Aggraderende_og_progradernede_delta_front"         
4314.6 "6506_12-6"  71.5100 "Sandstone" -999.25 -999.25 100.0000      0.0     0.0 "vf"       "vf"       "Aggraderende_proksimal_delta_front_Dominert_av_fluviale_prosesser" "Aggraderende_og_progradernede_delta_front"         
4314.7 "6506_12-6"  73.0400 "Sandstone" -999.25 -999.25 100.0000      0.0     0.0 "vf"       "vf"       "Aggraderende_proksimal_delta_front_Dominert_av_fluviale_prosesser" "Aggraderende_og_progradernede_delta_front"         
4314.8 "6506_12-6"  74.6300 "Sandstone" -999.25 -999.25 100.0000      0.0     0.0 "m"        "vf"       "Aggraderende_proksimal_delta_front_Dominert_av_fluviale_prosesser" "Aggraderende_og_progradernede_delta_front"         
4314.9 "6506_12-6"  76.2300 "Sandstone" -999.25 -999.25 100.0000      0.0     0.0 "m"        "vf"       "Aggraderende_proksimal_delta_front_Dominert_av_fluviale_prosesser" "Aggraderende_og_progradernede_delta_front"         
4315.0 "6506_12-6"  77.8200 "Sandstone" -999.25 -999.25 100.0000      0.0     0.0 "vc"       "c"        "Aggraderende_proksimal_delta_front_Dominert_av_fluviale_prosesser" "Aggraderende_og_progradernede_delta_front"         
4315.1 "6506_12-6"  79.1100 "Sandstone" -999.25 -999.25 100.0000      0.0     0.0 "vc"       "c"        "Aggraderende_proksimal_delta_front_Dominert_av_fluviale_prosesser" "Aggraderende_og_progradernede_delta_front"         
4315.2 "6506_12-6"  79.7000 "Sandstone" -999.25 -999.25 100.0000      0.0     0.0 "vc"       "c"        "Aggraderende_proksimal_delta_front_Dominert_av_fluviale_prosesser" "Aggraderende_og_progradernede_delta_front"         
4315.3 "6506_12-6"  79.7400 "Sandstone" -999.25 -999.25 100.0000      0.0     0.0 "vc"       "c"        "Aggraderende_proksimal_delta_front_Dominert_av_fluviale_prosesser" "Aggraderende_og_progradernede_delta_front"         
4315.4 "6506_12-6"  78.4900 "Sandstone" -999.25 -999.25 100.0000      0.0     0.0 "vc"       "c"        "Aggraderende_proksimal_delta_front_Dominert_av_fluviale_prosesser" "Aggraderende_og_progradernede_delta_front"         
4315.5 "6506_12-6"  77.2400 "Sandstone" -999.25 -999.25 100.0000      0.0     0.0 "vc"       "c"        "Aggraderende_proksimal_delta_front_Dominert_av_fluviale_prosesser" "Aggraderende_og_progradernede_delta_front"         
4315.6 "6506_12-6"  75.9900 "Sandstone" -999.25 -999.25 100.0000      0.0     0.0 "vc"       "c"        "Aggraderende_proksimal_delta_front_Dominert_av_fluviale_prosesser" "Aggraderende_og_progradernede_delta_front"         
4315.7 "6506_12-6"  74.9200 "Sandstone" -999.25 -999.25 100.0000      0.0     0.0 "vc"       "c"        "Aggraderende_proksimal_delta_front_Dominert_av_fluviale_prosesser" "Aggraderende_og_progradernede_delta_front"         
4315.8 "6506_12-6"  74.3000 "Sandstone" -999.25 -999.25 100.0000      0.0     0.0 "vc"       "c"        "Aggraderende_proksimal_delta_front_Dominert_av_fluviale_prosesser" "Aggraderende_og_progradernede_delta_front"         
4315.9 "6506_12-6"  73.6800 "Sandstone" -999.25 -999.25 100.0000      0.0     0.0 "vc"       "c"        "Aggraderende_proksimal_delta_front_Dominert_av_fluviale_prosesser" "Aggraderende_og_progradernede_delta_front"         
4316.0 "6506_12-6"  73.0600 "Sandstone" -999.25 -999.25 100.0000      0.0     0.0 "vc"       "c"        "Aggraderende_proksimal_delta_front_Dominert_av_fluviale_prosesser" "Aggraderende_og_progradernede_delta_front"         
4316.1 "6506_12-6"  72.4500 "Sandstone" -999.25 -999.25 100.0000      0.0     0.0 "vc"       "c"        "Aggraderende_proksimal_delta_front_Dominert_av_fluviale_prosesser" "Aggraderende_og_progradernede_delta_front"         
