~Version
VERS  .                                 3.0 : CWLS LAS ASCII Standard - Version 3.0
WRAP  . NO                                  : One line per depth step
DLM   . SPACE                               : Column data section delimiter
SOURCE. Converted to LAS by Log Studio 4.76 : GeoProvider

~Well
STRT.         4184.0 : Start depth
STOP.         4634.6 : Stop depth
STEP.              1 : Step
NULL.        -999.25 : No-value
COMP.                : Company
WELL. 6506/12-6      : Well
FLD .                : Field
LOC .                : Location
LATI.                : Latitude
LONG.                : Longitude
GDAT.                : Geodetic datum
CNTY.                : County
STAT.                : State
CTRY.                : Country
SRVC. GeoProvider AS : Service company
DATE.                : Date
API .                : API number
RUN .                : Run number

~Parameters
WellboreName.  : Wellbore name
RigName     .  : Rig name
StartDate   .  : Start date

~Curves
DEPTH.m            .  : null {F}Depth mMD
Hole_ID.-          .  : null {S}Hole ID
GR.API             .  : null {F}Gamma Ray
Lithology1.-       .  : null {S}Lithology 1
Lithology2.-       .  : null {S}Lithology 2
Lithology3.-       .  : null {S}Lithology 3
Lithology1.%       .  : null {F}Lithology 1 percentage
Lithology2.%       .  : null {F}Lithology 2 percentage
Lithology3.%       .  : null {F}Lithology 3 percentage
Grain_size_Top.-   .  : null {S}Grain size at the top 
Grain_size_Base.-  .  : null {S}Grain size at the bottom
Sub_Environment.-  .  : null {S}Sub Environment
Gross_Environment.-.  : null {S}Gross Environment

~Ascii
# ...
4334.2 "6506_12-6"  98.6400 "Sandstone" "Shale" -999.25  40.0000 60.00000     0.0 "vf/f"     "vf/f"     "Aggraderende_proksimal_delta_front_Dominert_av_fluviale_prosesser" "Aggraderende_og_progradernede_delta_front"         
4334.3 "6506_12-6" 119.3500 "Sandstone" "Shale" -999.25  40.0000 60.00000     0.0 "vf/f"     "vf/f"     "Aggraderende_proksimal_delta_front_Dominert_av_fluviale_prosesser" "Aggraderende_og_progradernede_delta_front"         
4334.4 "6506_12-6" 124.4600 "Sandstone" -999.25 -999.25 100.0000      0.0     0.0 "vc"       "vc"       "Aggraderende_proksimal_delta_front_Dominert_av_fluviale_prosesser" "Aggraderende_og_progradernede_delta_front"         
4334.5 "6506_12-6" 127.4900 "Sandstone" -999.25 -999.25 100.0000      0.0     0.0 "vc"       "vc"       "Aggraderende_proksimal_delta_front_Dominert_av_fluviale_prosesser" "Aggraderende_og_progradernede_delta_front"         
4334.6 "6506_12-6" 130.2500 "Sandstone" -999.25 -999.25 100.0000      0.0     0.0 "vc"       "vc"       "Aggraderende_proksimal_delta_front_Dominert_av_fluviale_prosesser" "Aggraderende_og_progradernede_delta_front"         
4334.7 "6506_12-6" 130.2800 "Sandstone" -999.25 -999.25 100.0000      0.0     0.0 "vc"       "c"        "Aggraderende_proksimal_delta_front_Dominert_av_fluviale_prosesser" "Aggraderende_og_progradernede_delta_front"         
4334.8 "6506_12-6" 130.3100 "Sandstone" -999.25 -999.25 100.0000      0.0     0.0 "vc"       "c"        "Aggraderende_proksimal_delta_front_Dominert_av_fluviale_prosesser" "Aggraderende_og_progradernede_delta_front"         
4334.9 "6506_12-6" 130.3400 "Sandstone" -999.25 -999.25 100.0000      0.0     0.0 "vc"       "c"        "Aggraderende_proksimal_delta_front_Dominert_av_fluviale_prosesser" "Aggraderende_og_progradernede_delta_front"         
4335.0 "6506_12-6" 130.3700 "Sandstone" -999.25 -999.25 100.0000      0.0     0.0 "vc"       "c"        "Aggraderende_proksimal_delta_front_Dominert_av_fluviale_prosesser" "Aggraderende_og_progradernede_delta_front"         
4335.1 "6506_12-6" 130.4000 "Sandstone" -999.25 -999.25 100.0000      0.0     0.0 "vc"       "c"        "Aggraderende_proksimal_delta_front_Dominert_av_fluviale_prosesser" "Aggraderende_og_progradernede_delta_front"         
4335.2 "6506_12-6" 130.4300 "Sandstone" -999.25 -999.25 100.0000      0.0     0.0 "vc"       "c"        "Aggraderende_proksimal_delta_front_Dominert_av_fluviale_prosesser" "Aggraderende_og_progradernede_delta_front"         
4335.3 "6506_12-6" 130.4600 "Sandstone" -999.25 -999.25 100.0000      0.0     0.0 "vc"       "vc"       "Aggraderende_proksimal_delta_front_Dominert_av_fluviale_prosesser" "Aggraderende_og_progradernede_delta_front"         
4335.4 "6506_12-6" 130.2100 "Sandstone" -999.25 -999.25 100.0000      0.0     0.0 "vc"       "vc"       "Aggraderende_proksimal_delta_front_Dominert_av_fluviale_prosesser" "Aggraderende_og_progradernede_delta_front"         
4335.5 "6506_12-6" 126.1400 "Sandstone" -999.25 -999.25 100.0000      0.0     0.0 "vc"       "vc"       "Aggraderende_proksimal_delta_front_Dominert_av_fluviale_prosesser" "Aggraderende_og_progradernede_delta_front"         
4335.6 "6506_12-6" 122.0700 "Sandstone" -999.25 -999.25 100.0000      0.0     0.0 "vc"       "vc"       "Aggraderende_proksimal_delta_front_Dominert_av_fluviale_prosesser" "Aggraderende_og_progradernede_delta_front"         
4335.7 "6506_12-6" 118.0000 "Sandstone" -999.25 -999.25 100.0000      0.0     0.0 "vc"       "vc"       "Aggraderende_proksimal_delta_front_Dominert_av_fluviale_prosesser" "Aggraderende_og_progradernede_delta_front"         
4335.8 "6506_12-6" 109.2200 "Sandstone" -999.25 -999.25 100.0000      0.0     0.0 "vc"       "vc"       "Aggraderende_proksimal_delta_front_Dominert_av_fluviale_prosesser" "Aggraderende_og_progradernede_delta_front"         
4335.9 "6506_12-6"  98.6600 "Sandstone" -999.25 -999.25 100.0000      0.0     0.0 "vc"       "vc"       "Aggraderende_proksimal_delta_front_Dominert_av_fluviale_prosesser" "Aggraderende_og_progradernede_delta_front"         
4336.0 "6506_12-6"  88.1100 "Sandstone" -999.25 -999.25 100.0000      0.0     0.0 "vc"       "vc"       "Aggraderende_proksimal_delta_front_Dominert_av_fluviale_prosesser" "Aggraderende_og_progradernede_delta_front"         
4336.1 "6506_12-6"  75.3200 "Sandstone" -999.25 -999.25 100.0000      0.0     0.0 "vc"       "vc"       "Aggraderende_proksimal_delta_front_Dominert_av_fluviale_prosesser" "Aggraderende_og_progradernede_delta_front"         
4336.2 "6506_12-6"  72.5600 "Sandstone" -999.25 -999.25 100.0000      0.0     0.0 "vc"       "vc"       "Aggraderende_proksimal_delta_front_Dominert_av_fluviale_prosesser" "Aggraderende_og_progradernede_delta_front"         
4336.3 "6506_12-6"  72.7800 "Sandstone" -999.25 -999.25 100.0000      0.0     0.0 "vc"       "vc"       "Aggraderende_proksimal_delta_front_Dominert_av_fluviale_prosesser" "Aggraderende_og_progradernede_delta_front"         
4336.4 "6506_12-6"  74.2000 -999.25   -999.25 -999.25 100.0000      0.0     0.0 -999.25    -999.25    -999.25                                                           "Aggraderende_og_progradernede_delta_front"         
4336.5 "6506_12-6"  75.6300 -999.25   -999.25 -999.25 100.0000      0.0     0.0 -999.25    -999.25    -999.25                                                           "Aggraderende_og_progradernede_delta_front"         
4336.6 "6506_12-6"  78.6500 -999.25   -999.25 -999.25 100.0000      0.0     0.0 -999.25    -999.25    -999.25                                                           "Aggraderende_og_progradernede_delta_front"         
4336.7 "6506_12-6"  82.3400 -999.25   -999.25 -999.25 100.0000      0.0     0.0 -999.25    -999.25    -999.25                                                           "Aggraderende_og_progradernede_delta_front"         
4336.8 "6506_12-6"  86.0300 -999.25   -999.25 -999.25 100.0000      0.0     0.0 -999.25    -999.25    -999.25                                                           "Aggraderende_og_progradernede_delta_front"         
4336.9 "6506_12-6"  89.7200 -999.25   -999.25 -999.25 100.0000      0.0     0.0 -999.25    -999.25    -999.25                                                           "Aggraderende_og_progradernede_delta_front"         
4337.0 "6506_12-6"  96.8900 -999.25   -999.25 -999.25 100.0000      0.0     0.0 -999.25    -999.25    -999.25                                                           "Aggraderende_og_progradernede_delta_front"         
4337.1 "6506_12-6"  99.3900 -999.25   -999.25 -999.25 100.0000      0.0     0.0 -999.25    -999.25    -999.25                                                           "Aggraderende_og_progradernede_delta_front"         
4337.2 "6506_12-6"  99.0500 -999.25   -999.25 -999.25 100.0000      0.0     0.0 -999.25    -999.25    -999.25                                                           "Aggraderende_og_progradernede_delta_front"         
4337.3 "6506_12-6"  97.4200 -999.25   -999.25 -999.25 100.0000      0.0     0.0 -999.25    -999.25    -999.25                                                           "Aggraderende_og_progradernede_delta_front"         
4337.4 "6506_12-6"  91.5200 -999.25   -999.25 -999.25 100.0000      0.0     0.0 -999.25    -999.25    -999.25                                                           "Aggraderende_og_progradernede_delta_front"         
4337.5 "6506_12-6"  83.3300 -999.25   -999.25 -999.25 100.0000      0.0     0.0 -999.25    -999.25    -999.25                                                           "Aggraderende_og_progradernede_delta_front"         
4337.6 "6506_12-6"  77.8500 -999.25   -999.25 -999.25 100.0000      0.0     0.0 -999.25    -999.25    -999.25                                                           "Aggraderende_og_progradernede_delta_front"         
4337.7 "6506_12-6"  75.3200 -999.25   -999.25 -999.25 100.0000      0.0     0.0 -999.25    -999.25    -999.25                                                           "Aggraderende_og_progradernede_delta_front"         
