~Version
VERS  .                                 3.0 : CWLS LAS ASCII Standard - Version 3.0
WRAP  . NO                                  : One line per depth step
DLM   . SPACE                               : Column data section delimiter
SOURCE. Converted to LAS by Log Studio 4.76 : GeoProvider

~Well
STRT.         4184.0 : Start depth
STOP.         4634.6 : Stop depth
STEP.              1 : Step
NULL.        -999.25 : No-value
COMP.                : Company
WELL. 6506/12-6      : Well
FLD .                : Field
LOC .                : Location
LATI.                : Latitude
LONG.                : Longitude
GDAT.                : Geodetic datum
CNTY.                : County
STAT.                : State
CTRY.                : Country
SRVC. GeoProvider AS : Service company
DATE.                : Date
API .                : API number
RUN .                : Run number

~Parameters
WellboreName.  : Wellbore name
RigName     .  : Rig name
StartDate   .  : Start date

~Curves
DEPTH.m            .  : null {F}Depth mMD
Hole_ID.-          .  : null {S}Hole ID
GR.API             .  : null {F}Gamma Ray
Lithology1.-       .  : null {S}Lithology 1
Lithology2.-       .  : null {S}Lithology 2
Lithology3.-       .  : null {S}Lithology 3
Lithology1.%       .  : null {F}Lithology 1 percentage
Lithology2.%       .  : null {F}Lithology 2 percentage
Lithology3.%       .  : null {F}Lithology 3 percentage
Grain_size_Top.-   .  : null {S}Grain size at the top 
Grain_size_Base.-  .  : null {S}Grain size at the bottom
Sub_Environment.-  .  : null {S}Sub Environment
Gross_Environment.-.  : null {S}Gross Environment

~Ascii
# ...
4206.2 "6506_12-6"  -999.25 "Shale"   -999.25 -999.25 100.0000      0.0     0.0 "silt/vf"  "silt/vf"  "Apne_marine_forhold_Distale_facies,_lavenergiforhold"            "Distal_marin"                                      
4206.3 "6506_12-6"  -999.25 "Shale"   -999.25 -999.25 100.0000      0.0     0.0 "silt/vf"  "silt/vf"  "Apne_marine_forhold_Distale_facies,_lavenergiforhold"            "Distal_marin"                                      
4206.4 "6506_12-6"  -999.25 "Shale"   -999.25 -999.25 100.0000      0.0     0.0 "silt/vf"  "silt/vf"  "Apne_marine_forhold_Distale_facies,_lavenergiforhold"            "Distal_marin"                                      
4206.5 "6506_12-6"  -999.25 "Shale"   -999.25 -999.25 100.0000      0.0     0.0 "silt/vf"  "silt/vf"  "Apne_marine_forhold_Distale_facies,_lavenergiforhold"            "Distal_marin"                                      
4206.6 "6506_12-6"  -999.25 "Shale"   -999.25 -999.25 100.0000      0.0     0.0 "silt/vf"  "silt/vf"  "Apne_marine_forhold_Distale_facies,_lavenergiforhold"            "Distal_marin"                                      
4206.7 "6506_12-6"  -999.25 "Shale"   -999.25 -999.25 100.0000      0.0     0.0 "silt/vf"  "silt/vf"  "Apne_marine_forhold_Distale_facies,_lavenergiforhold"            "Distal_marin"                                      
4206.8 "6506_12-6"  -999.25 "Shale"   -999.25 -999.25 100.0000      0.0     0.0 "silt/vf"  "silt/vf"  "Apne_marine_forhold_Distale_facies,_lavenergiforhold"            "Distal_marin"                                      
4206.9 "6506_12-6"  -999.25 "Shale"   -999.25 -999.25 100.0000      0.0     0.0 "silt/vf"  "silt/vf"  "Apne_marine_forhold_Distale_facies,_lavenergiforhold"            "Distal_marin"                                      
4207.0 "6506_12-6"  -999.25 "Shale"   -999.25 -999.25 100.0000      0.0     0.0 "silt/vf"  "silt/vf"  "Apne_marine_forhold_Distale_facies,_lavenergiforhold"            "Distal_marin"                                      
4207.1 "6506_12-6"  -999.25 "Shale"   -999.25 -999.25 100.0000      0.0     0.0 "silt/vf"  "silt/vf"  "Apne_marine_forhold_Distale_facies,_lavenergiforhold"            "Distal_marin"                                      
4207.2 "6506_12-6"  -999.25 "Shale"   -999.25 -999.25 100.0000      0.0     0.0 "silt/vf"  "silt/vf"  "Apne_marine_forhold_Distale_facies,_lavenergiforhold"            "Distal_marin"                                      
4207.3 "6506_12-6"  -999.25 "Shale"   -999.25 -999.25 100.0000      0.0     0.0 "silt/vf"  "silt/vf"  "Apne_marine_forhold_Distale_facies,_lavenergiforhold"            "Distal_marin"                                      
4207.4 "6506_12-6"  -999.25 "Shale"   -999.25 -999.25 100.0000      0.0     0.0 "silt/vf"  "silt/vf"  "Apne_marine_forhold_Distale_facies,_lavenergiforhold"            "Distal_marin"                                      
4207.5 "6506_12-6"  -999.25 "Shale"   -999.25 -999.25 100.0000      0.0     0.0 "silt/vf"  "silt/vf"  "Apne_marine_forhold_Distale_facies,_lavenergiforhold"            "Distal_marin"                                      
4207.6 "6506_12-6"  -999.25 "Shale"   -999.25 -999.25 100.0000      0.0     0.0 "silt/vf"  "silt/vf"  "Apne_marine_forhold_Distale_facies,_lavenergiforhold"            "Distal_marin"                                      
4207.7 "6506_12-6"  -999.25 "Shale"   -999.25 -999.25 100.0000      0.0     0.0 "silt/vf"  "silt/vf"  "Apne_marine_forhold_Distale_facies,_lavenergiforhold"            "Distal_marin"                                      
4207.8 "6506_12-6"  -999.25 "Shale"   -999.25 -999.25 100.0000      0.0     0.0 "silt/vf"  "silt/vf"  "Apne_marine_forhold_Distale_facies,_lavenergiforhold"            "Distal_marin"                                      
4207.9 "6506_12-6"  -999.25 "Shale"   -999.25 -999.25 100.0000      0.0     0.0 "silt/vf"  "silt/vf"  "Apne_marine_forhold_Distale_facies,_lavenergiforhold"            "Distal_marin"                                      
4208.0 "6506_12-6"  -999.25 "Shale"   -999.25 -999.25 100.0000      0.0     0.0 "silt/vf"  "silt/vf"  "Apne_marine_forhold_Distale_facies,_lavenergiforhold"            "Distal_marin"                                      
4208.1 "6506_12-6"  -999.25 "Shale"   -999.25 -999.25 100.0000      0.0     0.0 "silt/vf"  "silt/vf"  "Apne_marine_forhold_Distale_facies,_lavenergiforhold"            "Distal_marin"                                      
4208.2 "6506_12-6"  -999.25 "Shale"   -999.25 -999.25 100.0000      0.0     0.0 "silt/vf"  "silt/vf"  "Apne_marine_forhold_Distale_facies,_lavenergiforhold"            "Distal_marin"                                      
4208.3 "6506_12-6"  -999.25 "Shale"   -999.25 -999.25 100.0000      0.0     0.0 "silt/vf"  "silt/vf"  "Apne_marine_forhold_Distale_facies,_lavenergiforhold"            "Distal_marin"                                      
4208.4 "6506_12-6"  -999.25 "Shale"   -999.25 -999.25 100.0000      0.0     0.0 "silt/vf"  "silt/vf"  "Apne_marine_forhold_Distale_facies,_lavenergiforhold"            "Distal_marin"                                      
4208.5 "6506_12-6"  -999.25 "Shale"   -999.25 -999.25 100.0000      0.0     0.0 "silt/vf"  "silt/vf"  "Apne_marine_forhold_Distale_facies,_lavenergiforhold"            "Distal_marin"                                      
4208.6 "6506_12-6"  -999.25 "Shale"   -999.25 -999.25 100.0000      0.0     0.0 "silt/vf"  "silt/vf"  "Apne_marine_forhold_Distale_facies,_lavenergiforhold"            "Distal_marin"                                      
4208.7 "6506_12-6"  -999.25 "Shale"   -999.25 -999.25 100.0000      0.0     0.0 "silt/vf"  "silt/vf"  "Apne_marine_forhold_Distale_facies,_lavenergiforhold"            "Distal_marin"                                      
4208.8 "6506_12-6"  -999.25 "Shale"   -999.25 -999.25 100.0000      0.0     0.0 "silt/vf"  "silt/vf"  "Apne_marine_forhold_Distale_facies,_lavenergiforhold"            "Distal_marin"                                      
4208.9 "6506_12-6"  -999.25 "Shale"   -999.25 -999.25 100.0000      0.0     0.0 "silt/vf"  "silt/vf"  "Apne_marine_forhold_Distale_facies,_lavenergiforhold"            "Distal_marin"                                      
4209.0 "6506_12-6"  -999.25 "Shale"   -999.25 -999.25 100.0000      0.0     0.0 "silt/vf"  "silt/vf"  "Apne_marine_forhold_Distale_facies,_lavenergiforhold"            "Distal_marin"                                      
4209.1 "6506_12-6"  -999.25 "Shale"   -999.25 -999.25 100.0000      0.0     0.0 "silt/vf"  "silt/vf"  "Apne_marine_forhold_Distale_facies,_lavenergiforhold"            "Distal_marin"                                      
4209.2 "6506_12-6"  -999.25 "Shale"   -999.25 -999.25 100.0000      0.0     0.0 "silt/vf"  "silt/vf"  "Apne_marine_forhold_Distale_facies,_lavenergiforhold"            "Distal_marin"                                      
4209.3 "6506_12-6"  -999.25 "Shale"   -999.25 -999.25 100.0000      0.0     0.0 "silt/vf"  "silt/vf"  "Apne_marine_forhold_Distale_facies,_lavenergiforhold"            "Distal_marin"                                      
4209.4 "6506_12-6"  -999.25 "Shale"   -999.25 -999.25 100.0000      0.0     0.0 "silt/vf"  "silt/vf"  "Apne_marine_forhold_Distale_facies,_lavenergiforhold"            "Distal_marin"                                      
4209.5 "6506_12-6"  -999.25 "Shale"   -999.25 -999.25 100.0000      0.0     0.0 "silt/vf"  "silt/vf"  "Apne_marine_forhold_Distale_facies,_lavenergiforhold"            "Distal_marin"                                      
4209.6 "6506_12-6"  -999.25 "Shale"   -999.25 -999.25 100.0000      0.0     0.0 "silt/vf"  "silt/vf"  "Apne_marine_forhold_Distale_facies,_lavenergiforhold"            "Distal_marin"                                      
4209.7 "6506_12-6"  -999.25 "Shale"   -999.25 -999.25 100.0000      0.0     0.0 "silt/vf"  "silt/vf"  "Apne_marine_forhold_Distale_facies,_lavenergiforhold"            "Distal_marin"                                      
4209.8 "6506_12-6"  -999.25 "Shale"   -999.25 -999.25 100.0000      0.0     0.0 "silt/vf"  "silt/vf"  "Apne_marine_forhold_Distale_facies,_lavenergiforhold"            "Distal_marin"                                      
