~Version
VERS  .                                 3.0 : CWLS LAS ASCII Standard - Version 3.0
WRAP  . NO                                  : One line per depth step
DLM   . SPACE                               : Column data section delimiter
SOURCE. Converted to LAS by Log Studio 4.76 : GeoProvider

~Well
STRT.         4184.0 : Start depth
STOP.         4634.6 : Stop depth
STEP.              1 : Step
NULL.        -999.25 : No-value
COMP.                : Company
WELL. 6506/12-6      : Well
FLD .                : Field
LOC .                : Location
LATI.                : Latitude
LONG.                : Longitude
GDAT.                : Geodetic datum
CNTY.                : County
STAT.                : State
CTRY.                : Country
SRVC. GeoProvider AS : Service company
DATE.                : Date
API .                : API number
RUN .                : Run number

~Parameters
WellboreName.  : Wellbore name
RigName     .  : Rig name
StartDate   .  : Start date

~Curves
DEPTH.m            .  : null {F}Depth mMD
Hole_ID.-          .  : null {S}Hole ID
GR.API             .  : null {F}Gamma Ray
Lithology1.-       .  : null {S}Lithology 1
Lithology2.-       .  : null {S}Lithology 2
Lithology3.-       .  : null {S}Lithology 3
Lithology1.%       .  : null {F}Lithology 1 percentage
Lithology2.%       .  : null {F}Lithology 2 percentage
Lithology3.%       .  : null {F}Lithology 3 percentage
Grain_size_Top.-   .  : null {S}Grain size at the top 
Grain_size_Base.-  .  : null {S}Grain size at the bottom
Sub_Environment.-  .  : null {S}Sub Environment
Gross_Environment.-.  : null {S}Gross Environment

~Ascii
# ...
4588.6 "6506_12-6"  74.1100 "Sandstone" -999.25 -999.25 100.0000      0.0     0.0 "m/c"      "m/c"      "Tidevannskanal"                                                  "Verikal_oppbygging_av_tidevannsdominert_delta_front"
4588.7 "6506_12-6"  76.2500 "Sandstone" "Shale" -999.25  90.0000 10.00000     0.0 "vc"       "granule"  "Tidevannskanal"                                                  "Verikal_oppbygging_av_tidevannsdominert_delta_front"
4588.8 "6506_12-6"  77.8500 "Sandstone" "Shale" -999.25  90.0000 10.00000     0.0 "vc"       "granule"  "Tidevannskanal"                                                  "Verikal_oppbygging_av_tidevannsdominert_delta_front"
4588.9 "6506_12-6"  78.8000 "Sandstone" "Shale" -999.25  90.0000 10.00000     0.0 "vc"       "granule"  "Tidevannskanal"                                                  "Verikal_oppbygging_av_tidevannsdominert_delta_front"
4589.0 "6506_12-6"  77.6000 "Sandstone" -999.25 -999.25 100.0000      0.0     0.0 "c/vc"     "c/vc"     "Tidevannskanal"                                                  "Verikal_oppbygging_av_tidevannsdominert_delta_front"
4589.1 "6506_12-6"  75.3600 "Sandstone" -999.25 -999.25 100.0000      0.0     0.0 "c/vc"     "c/vc"     "Tidevannskanal"                                                  "Verikal_oppbygging_av_tidevannsdominert_delta_front"
4589.2 "6506_12-6"  73.1300 "Sandstone" -999.25 -999.25 100.0000      0.0     0.0 -999.25    -999.25    "Tidevannskanal"                                                  "Verikal_oppbygging_av_tidevannsdominert_delta_front"
4589.3 "6506_12-6"  70.9000 "Sandstone" "Shale" -999.25  95.0000  5.00000     0.0 "m"        "c/vc"     "Subtidal_sandbanker"                                             "Verikal_oppbygging_av_tidevannsdominert_delta_front"
4589.4 "6506_12-6"  69.6100 "Sandstone" "Shale" -999.25  95.0000  5.00000     0.0 "m"        "c/vc"     "Subtidal_sandbanker"                                             "Verikal_oppbygging_av_tidevannsdominert_delta_front"
4589.5 "6506_12-6"  69.6100 "Sandstone" "Shale" -999.25  95.0000  5.00000     0.0 "m"        "c/vc"     "Subtidal_sandbanker"                                             "Verikal_oppbygging_av_tidevannsdominert_delta_front"
4589.6 "6506_12-6"  69.6100 "Sandstone" "Shale" -999.25  95.0000  5.00000     0.0 "m"        "c/vc"     "Subtidal_sandbanker"                                             "Verikal_oppbygging_av_tidevannsdominert_delta_front"
4589.7 "6506_12-6"  69.6100 "Sandstone" "Shale" -999.25  95.0000  5.00000     0.0 "m"        "c/vc"     "Subtidal_sandbanker"                                             "Verikal_oppbygging_av_tidevannsdominert_delta_front"
4589.8 "6506_12-6"  68.5200 "Sandstone" "Shale" -999.25  95.0000  5.00000     0.0 "m"        "c/vc"     "Subtidal_sandbanker"                                             "Verikal_oppbygging_av_tidevannsdominert_delta_front"
4589.9 "6506_12-6"  67.2800 "Sandstone" "Shale" -999.25  95.0000  5.00000     0.0 "m"        "c/vc"     "Subtidal_sandbanker"                                             "Verikal_oppbygging_av_tidevannsdominert_delta_front"
4590.0 "6506_12-6"  66.0400 "Sandstone" "Shale" -999.25  95.0000  5.00000     0.0 "m"        "c/vc"     "Subtidal_sandbanker"                                             "Verikal_oppbygging_av_tidevannsdominert_delta_front"
4590.1 "6506_12-6"  64.8100 "Sandstone" "Shale" -999.25  95.0000  5.00000     0.0 "m"        "c/vc"     "Subtidal_sandbanker"                                             "Verikal_oppbygging_av_tidevannsdominert_delta_front"
4590.2 "6506_12-6"  63.5700 "Sandstone" "Shale" -999.25  95.0000  5.00000     0.0 "m"        "c/vc"     "Subtidal_sandbanker"                                             "Verikal_oppbygging_av_tidevannsdominert_delta_front"
4590.3 "6506_12-6"  63.8800 "Sandstone" "Shale" -999.25  95.0000  5.00000     0.0 "m"        "c/vc"     "Subtidal_sandbanker"                                             "Verikal_oppbygging_av_tidevannsdominert_delta_front"
4590.4 "6506_12-6"  64.3300 "Sandstone" "Shale" -999.25  95.0000  5.00000     0.0 "m"        "c/vc"     "Subtidal_sandbanker"                                             "Verikal_oppbygging_av_tidevannsdominert_delta_front"
4590.5 "6506_12-6"  65.9100 "Sandstone" "Shale" -999.25  95.0000  5.00000     0.0 "m"        "c/vc"     "Subtidal_sandbanker"                                             "Verikal_oppbygging_av_tidevannsdominert_delta_front"
4590.6 "6506_12-6"  68.9400 "Sandstone" "Shale" -999.25  95.0000  5.00000     0.0 "m"        "c/vc"     "Subtidal_sandbanker"                                             "Verikal_oppbygging_av_tidevannsdominert_delta_front"
4590.7 "6506_12-6"  71.9700 "Sandstone" "Shale" -999.25  95.0000  5.00000     0.0 "m"        "c/vc"     "Subtidal_sandbanker"                                             "Verikal_oppbygging_av_tidevannsdominert_delta_front"
4590.8 "6506_12-6"  75.0000 "Sandstone" "Shale" -999.25  95.0000  5.00000     0.0 "m"        "c/vc"     "Subtidal_sandbanker"                                             "Verikal_oppbygging_av_tidevannsdominert_delta_front"
4590.9 "6506_12-6"  78.0300 "Sandstone" "Shale" -999.25  95.0000  5.00000     0.0 "m"        "c/vc"     "Subtidal_sandbanker"                                             "Verikal_oppbygging_av_tidevannsdominert_delta_front"
4591.0 "6506_12-6"  78.9600 "Sandstone" "Shale" -999.25  95.0000  5.00000     0.0 "m"        "c/vc"     "Subtidal_sandbanker"                                             "Verikal_oppbygging_av_tidevannsdominert_delta_front"
4591.1 "6506_12-6"  79.4600 "Sandstone" "Shale" -999.25  97.0000  3.00000     0.0 "f/m"      "f"        "Subtidal_sandbanker"                                             "Verikal_oppbygging_av_tidevannsdominert_delta_front"
4591.2 "6506_12-6"  79.9600 "Sandstone" "Shale" -999.25  97.0000  3.00000     0.0 "f/m"      "f"        "Subtidal_sandbanker"                                             "Verikal_oppbygging_av_tidevannsdominert_delta_front"
4591.3 "6506_12-6"  80.4700 "Sandstone" "Shale" -999.25  97.0000  3.00000     0.0 "f/m"      "f"        "Subtidal_sandbanker"                                             "Verikal_oppbygging_av_tidevannsdominert_delta_front"
4591.4 "6506_12-6"  82.0900 "Sandstone" "Shale" -999.25  97.0000  3.00000     0.0 "f/m"      "f"        "Subtidal_sandbanker"                                             "Verikal_oppbygging_av_tidevannsdominert_delta_front"
4591.5 "6506_12-6"  83.8000 "Sandstone" "Shale" -999.25  97.0000  3.00000     0.0 "f/m"      "f"        "Subtidal_sandbanker"                                             "Verikal_oppbygging_av_tidevannsdominert_delta_front"
4591.6 "6506_12-6"  85.5100 "Sandstone" "Shale" -999.25  97.0000  3.00000     0.0 "f/m"      "f"        "Subtidal_sandbanker"                                             "Verikal_oppbygging_av_tidevannsdominert_delta_front"
4591.7 "6506_12-6"  87.2100 "Sandstone" "Shale" -999.25  97.0000  3.00000     0.0 "f/m"      "f"        "Subtidal_sandbanker"                                             "Verikal_oppbygging_av_tidevannsdominert_delta_front"
4591.8 "6506_12-6"  91.9400 "Sandstone" "Shale" -999.25  97.0000  3.00000     0.0 "f/m"      "f"        "Subtidal_sandbanker"                                             "Verikal_oppbygging_av_tidevannsdominert_delta_front"
4591.9 "6506_12-6"  98.0800 "Sandstone" "Shale" -999.25  97.0000  3.00000     0.0 "f/m"      "f"        "Subtidal_sandbanker"                                             "Verikal_oppbygging_av_tidevannsdominert_delta_front"
4592.0 "6506_12-6" 100.1500 "Sandstone" "Shale" -999.25  97.0000  3.00000     0.0 "f/m"      "f"        "Subtidal_sandbanker"                                             "Verikal_oppbygging_av_tidevannsdominert_delta_front"
4592.1 "6506_12-6" 101.8100 "Sandstone" "Shale" -999.25  97.0000  3.00000     0.0 "f/m"      "f"        "Subtidal_sandbanker"                                             "Verikal_oppbygging_av_tidevannsdominert_delta_front"
