~Version
VERS  .                                 3.0 : CWLS LAS ASCII Standard - Version 3.0
WRAP  . NO                                  : One line per depth step
DLM   . SPACE                               : Column data section delimiter
SOURCE. Converted to LAS by Log Studio 4.76 : GeoProvider

~Well
STRT.         4184.0 : Start depth
STOP.         4634.6 : Stop depth
STEP.              1 : Step
NULL.        -999.25 : No-value
COMP.                : Company
WELL. 6506/12-6      : Well
FLD .                : Field
LOC .                : Location
LATI.                : Latitude
LONG.                : Longitude
GDAT.                : Geodetic datum
CNTY.                : County
STAT.                : State
CTRY.                : Country
SRVC. GeoProvider AS : Service company
DATE.                : Date
API .                : API number
RUN .                : Run number

~Parameters
WellboreName.  : Wellbore name
RigName     .  : Rig name
StartDate   .  : Start date

~Curves
DEPTH.m            .  : null {F}Depth mMD
Hole_ID.-          .  : null {S}Hole ID
GR.API             .  : null {F}Gamma Ray
Lithology1.-       .  : null {S}Lithology 1
Lithology2.-       .  : null {S}Lithology 2
Lithology3.-       .  : null {S}Lithology 3
Lithology1.%       .  : null {F}Lithology 1 percentage
Lithology2.%       .  : null {F}Lithology 2 percentage
Lithology3.%       .  : null {F}Lithology 3 percentage
Grain_size_Top.-   .  : null {S}Grain size at the top 
Grain_size_Base.-  .  : null {S}Grain size at the bottom
Sub_Environment.-  .  : null {S}Sub Environment
Gross_Environment.-.  : null {S}Gross Environment

~Ascii
# ...
4541.6 "6506_12-6"  82.4600 "Sandstone" "Shale" -999.25  98.0000  2.00000     0.0 "f/m"      "f/m"      "Subtidale_sand-baker_og_kanaler"                                 "Vertikal_oppbygging_av_tidevannedominert_delta_front"
4541.7 "6506_12-6"  82.4600 "Sandstone" "Shale" -999.25  98.0000  2.00000     0.0 "f/m"      "f/m"      "Subtidale_sand-baker_og_kanaler"                                 "Vertikal_oppbygging_av_tidevannedominert_delta_front"
4541.8 "6506_12-6"  82.4600 "Sandstone" "Shale" -999.25  98.0000  2.00000     0.0 "f/m"      "f/m"      "Subtidale_sand-baker_og_kanaler"                                 "Vertikal_oppbygging_av_tidevannedominert_delta_front"
4541.9 "6506_12-6"  82.0400 "Sandstone" "Shale" -999.25  98.0000  2.00000     0.0 "f/m"      "f/m"      "Subtidale_sand-baker_og_kanaler"                                 "Vertikal_oppbygging_av_tidevannedominert_delta_front"
4542.0 "6506_12-6"  80.6600 "Sandstone" "Shale" -999.25  98.0000  2.00000     0.0 "f/m"      "f/m"      "Subtidale_sand-baker_og_kanaler"                                 "Vertikal_oppbygging_av_tidevannedominert_delta_front"
4542.1 "6506_12-6"  79.2800 "Sandstone" "Shale" -999.25  98.0000  2.00000     0.0 "f/m"      "f/m"      "Subtidale_sand-baker_og_kanaler"                                 "Vertikal_oppbygging_av_tidevannedominert_delta_front"
4542.2 "6506_12-6"  76.9800 "Sandstone" "Shale" -999.25  98.0000  2.00000     0.0 "f/m"      "f/m"      "Subtidale_sand-baker_og_kanaler"                                 "Vertikal_oppbygging_av_tidevannedominert_delta_front"
4542.3 "6506_12-6"  73.6000 "Sandstone" "Shale" -999.25  98.0000  2.00000     0.0 "f/m"      "f/m"      "Subtidale_sand-baker_og_kanaler"                                 "Vertikal_oppbygging_av_tidevannedominert_delta_front"
4542.4 "6506_12-6"  70.2200 "Sandstone" "Shale" -999.25  98.0000  2.00000     0.0 "f/m"      "f/m"      "Subtidale_sand-baker_og_kanaler"                                 "Vertikal_oppbygging_av_tidevannedominert_delta_front"
4542.5 "6506_12-6"  66.8400 "Sandstone" "Shale" -999.25  80.0000 20.00000     0.0 "f/m"      "f/m"      "Subtidale_sand-baker_og_kanaler"                                 "Vertikal_oppbygging_av_tidevannedominert_delta_front"
4542.6 "6506_12-6"  63.4700 "Sandstone" "Shale" -999.25  80.0000 20.00000     0.0 "f/m"      "f/m"      "Subtidale_sand-baker_og_kanaler"                                 "Vertikal_oppbygging_av_tidevannedominert_delta_front"
4542.7 "6506_12-6"  62.0300 "Sandstone" "Shale" -999.25  80.0000 20.00000     0.0 "f/m"      "f/m"      "Subtidale_sand-baker_og_kanaler"                                 "Vertikal_oppbygging_av_tidevannedominert_delta_front"
4542.8 "6506_12-6"  62.5000 "Sandstone" "Shale" -999.25  80.0000 20.00000     0.0 "f/m"      "f/m"      "Subtidale_sand-baker_og_kanaler"                                 "Vertikal_oppbygging_av_tidevannedominert_delta_front"
4542.9 "6506_12-6"  66.9700 "Sandstone" "Shale" -999.25  80.0000 20.00000     0.0 "f/m"      "f/m"      "Subtidale_sand-baker_og_kanaler"                                 "Vertikal_oppbygging_av_tidevannedominert_delta_front"
4543.0 "6506_12-6"  72.8900 "Sandstone" "Shale" -999.25  90.0000 10.00000     0.0 "f/m"      "f/m"      "Subtidale_sand-baker_og_kanaler"                                 "Vertikal_oppbygging_av_tidevannedominert_delta_front"
4543.1 "6506_12-6"  78.8200 "Sandstone" "Shale" -999.25  90.0000 10.00000     0.0 "f/m"      "f/m"      "Subtidale_sand-baker_og_kanaler"                                 "Vertikal_oppbygging_av_tidevannedominert_delta_front"
4543.2 "6506_12-6"  84.7500 "Sandstone" "Shale" -999.25  90.0000 10.00000     0.0 "f/m"      "f/m"      "Subtidale_sand-baker_og_kanaler"                                 "Vertikal_oppbygging_av_tidevannedominert_delta_front"
4543.3 "6506_12-6"  90.6800 "Sandstone" "Shale" -999.25  80.0000 20.00000     0.0 "f/m"      "f/m"      "Subtidale_sand-baker_og_kanaler"                                 "Vertikal_oppbygging_av_tidevannedominert_delta_front"
4543.4 "6506_12-6"  96.6100 "Sandstone" "Shale" -999.25  80.0000 20.00000     0.0 "f/m"      "f/m"      "Subtidale_sand-baker_og_kanaler"                                 "Vertikal_oppbygging_av_tidevannedominert_delta_front"
4543.5 "6506_12-6" 102.5400 "Sandstone" "Shale" -999.25  80.0000 20.00000     0.0 "f/m"      "f/m"      "Subtidale_sand-baker_og_kanaler"                                 "Vertikal_oppbygging_av_tidevannedominert_delta_front"
4543.6 "6506_12-6" 107.8300 "Sandstone" "Shale" -999.25  80.0000 20.00000     0.0 "f/m"      "f/m"      "Subtidale_sand-baker_og_kanaler"                                 "Vertikal_oppbygging_av_tidevannedominert_delta_front"
4543.7 "6506_12-6" 111.5400 -999.25   -999.25 -999.25 100.0000      0.0     0.0 -999.25    -999.25    -999.25                                                           -999.25                                             
4543.8 "6506_12-6" 115.2500 -999.25   -999.25 -999.25 100.0000      0.0     0.0 -999.25    -999.25    -999.25                                                           -999.25                                             
4543.9 "6506_12-6" 114.8200 -999.25   -999.25 -999.25 100.0000      0.0     0.0 -999.25    -999.25    -999.25                                                           -999.25                                             
4544.0 "6506_12-6" 113.4000 -999.25   -999.25 -999.25 100.0000      0.0     0.0 -999.25    -999.25    -999.25                                                           -999.25                                             
4544.1 "6506_12-6" 111.9800 -999.25   -999.25 -999.25 100.0000      0.0     0.0 -999.25    -999.25    -999.25                                                           -999.25                                             
4544.2 "6506_12-6" 110.0200 -999.25   -999.25 -999.25 100.0000      0.0     0.0 -999.25    -999.25    -999.25                                                           -999.25                                             
4544.3 "6506_12-6" 106.5600 -999.25   -999.25 -999.25 100.0000      0.0     0.0 -999.25    -999.25    -999.25                                                           -999.25                                             
4544.4 "6506_12-6" 103.1000 -999.25   -999.25 -999.25 100.0000      0.0     0.0 -999.25    -999.25    -999.25                                                           -999.25                                             
4544.5 "6506_12-6"  99.6500 -999.25   -999.25 -999.25 100.0000      0.0     0.0 -999.25    -999.25    -999.25                                                           -999.25                                             
4544.6 "6506_12-6"  96.1900 -999.25   -999.25 -999.25 100.0000      0.0     0.0 -999.25    -999.25    -999.25                                                           -999.25                                             
4544.7 "6506_12-6"  92.7300 -999.25   -999.25 -999.25 100.0000      0.0     0.0 -999.25    -999.25    -999.25                                                           -999.25                                             
4544.8 "6506_12-6"  89.2700 -999.25   -999.25 -999.25 100.0000      0.0     0.0 -999.25    -999.25    -999.25                                                           -999.25                                             
4544.9 "6506_12-6"  89.0500 -999.25   -999.25 -999.25 100.0000      0.0     0.0 -999.25    -999.25    -999.25                                                           -999.25                                             
4545.0 "6506_12-6"  90.1200 -999.25   -999.25 -999.25 100.0000      0.0     0.0 -999.25    -999.25    -999.25                                                           -999.25                                             
4545.1 "6506_12-6"  92.1700 -999.25   -999.25 -999.25 100.0000      0.0     0.0 -999.25    -999.25    -999.25                                                           -999.25                                             
