~Version
VERS  .                                 3.0 : CWLS LAS ASCII Standard - Version 3.0
WRAP  . NO                                  : One line per depth step
DLM   . SPACE                               : Column data section delimiter
SOURCE. Converted to LAS by Log Studio 4.76 : GeoProvider

~Well
STRT.         4184.0 : Start depth
STOP.         4634.6 : Stop depth
STEP.              1 : Step
NULL.        -999.25 : No-value
COMP.                : Company
WELL. 6506/12-6      : Well
FLD .                : Field
LOC .                : Location
LATI.                : Latitude
LONG.                : Longitude
GDAT.                : Geodetic datum
CNTY.                : County
STAT.                : State
CTRY.                : Country
SRVC. GeoProvider AS : Service company
DATE.                : Date
API .                : API number
RUN .                : Run number

~Parameters
WellboreName.  : Wellbore name
RigName     .  : Rig name
StartDate   .  : Start date

~Curves
DEPTH.m            .  : null {F}Depth mMD
Hole_ID.-          .  : null {S}Hole ID
GR.API             .  : null {F}Gamma Ray
Lithology1.-       .  : null {S}Lithology 1
Lithology2.-       .  : null {S}Lithology 2
Lithology3.-       .  : null {S}Lithology 3
Lithology1.%       .  : null {F}Lithology 1 percentage
Lithology2.%       .  : null {F}Lithology 2 percentage
Lithology3.%       .  : null {F}Lithology 3 percentage
Grain_size_Top.-   .  : null {S}Grain size at the top 
Grain_size_Base.-  .  : null {S}Grain size at the bottom
Sub_Environment.-  .  : null {S}Sub Environment
Gross_Environment.-.  : null {S}Gross Environment

~Ascii
# ...
4570.6 "6506_12-6"  91.5000 "Sandstone" -999.25 -999.25 100.0000      0.0     0.0 "m"        "m"        "Tidal_sandbanke/kanal_kompleks"                                  "Verikal_oppbygging_av_tidevannsdominert_delta_front"
4570.7 "6506_12-6"  84.5700 "Shale"   -999.25 -999.25 100.0000      0.0     0.0 -999.25    -999.25    "Tidal_sandbanke/kanal_kompleks"                                  "Verikal_oppbygging_av_tidevannsdominert_delta_front"
4570.8 "6506_12-6"  80.8900 "Shale"   -999.25 -999.25 100.0000      0.0     0.0 -999.25    -999.25    "Tidal_sandbanke/kanal_kompleks"                                  "Verikal_oppbygging_av_tidevannsdominert_delta_front"
4570.9 "6506_12-6"  80.5200 "Sandstone" -999.25 -999.25 100.0000      0.0     0.0 "c/vc"     "c/vc"     "Tidal_sandbanke/kanal_kompleks"                                  "Verikal_oppbygging_av_tidevannsdominert_delta_front"
4571.0 "6506_12-6"  80.1600 "Sandstone" -999.25 -999.25 100.0000      0.0     0.0 "c/vc"     "c/vc"     "Tidal_sandbanke/kanal_kompleks"                                  "Verikal_oppbygging_av_tidevannsdominert_delta_front"
4571.1 "6506_12-6"  79.7900 "Sandstone" -999.25 -999.25 100.0000      0.0     0.0 "c/vc"     "c/vc"     "Tidal_sandbanke/kanal_kompleks"                                  "Verikal_oppbygging_av_tidevannsdominert_delta_front"
4571.2 "6506_12-6"  79.4300 "Sandstone" -999.25 -999.25 100.0000      0.0     0.0 "c/vc"     "c/vc"     "Tidal_sandbanke/kanal_kompleks"                                  "Verikal_oppbygging_av_tidevannsdominert_delta_front"
4571.3 "6506_12-6"  77.2700 "Sandstone" -999.25 -999.25 100.0000      0.0     0.0 "c/vc"     "c/vc"     "Tidal_sandbanke/kanal_kompleks"                                  "Verikal_oppbygging_av_tidevannsdominert_delta_front"
4571.4 "6506_12-6"  74.8300 "Sandstone" -999.25 -999.25 100.0000      0.0     0.0 "c/vc"     "c/vc"     "Tidal_sandbanke/kanal_kompleks"                                  "Verikal_oppbygging_av_tidevannsdominert_delta_front"
4571.5 "6506_12-6"  72.4000 "Sandstone" -999.25 -999.25 100.0000      0.0     0.0 "m/c"      "m/c"      "Tidal_sandbanke/kanal_kompleks"                                  "Verikal_oppbygging_av_tidevannsdominert_delta_front"
4571.6 "6506_12-6"  69.9600 "Sandstone" -999.25 -999.25 100.0000      0.0     0.0 "m/c"      "m/c"      "Tidal_sandbanke/kanal_kompleks"                                  "Verikal_oppbygging_av_tidevannsdominert_delta_front"
4571.7 "6506_12-6"  67.5300 "Sandstone" -999.25 -999.25 100.0000      0.0     0.0 "m/c"      "m/c"      "Tidal_sandbanke/kanal_kompleks"                                  "Verikal_oppbygging_av_tidevannsdominert_delta_front"
4571.8 "6506_12-6"  65.0900 "Sandstone" -999.25 -999.25 100.0000      0.0     0.0 "m/c"      "m/c"      "Tidal_sandbanke/kanal_kompleks"                                  "Verikal_oppbygging_av_tidevannsdominert_delta_front"
4571.9 "6506_12-6"  62.6600 "Sandstone" -999.25 -999.25 100.0000      0.0     0.0 "m/c"      "m/c"      "Tidal_sandbanke/kanal_kompleks"                                  "Verikal_oppbygging_av_tidevannsdominert_delta_front"
4572.0 "6506_12-6"  60.4500 "Sandstone" -999.25 -999.25 100.0000      0.0     0.0 "m/c"      "m/c"      "Tidal_sandbanke/kanal_kompleks"                                  "Verikal_oppbygging_av_tidevannsdominert_delta_front"
4572.1 "6506_12-6"  61.1600 "Sandstone" -999.25 -999.25 100.0000      0.0     0.0 "m/c"      "m/c"      "Tidal_sandbanke/kanal_kompleks"                                  "Verikal_oppbygging_av_tidevannsdominert_delta_front"
4572.2 "6506_12-6"  61.8600 "Sandstone" -999.25 -999.25 100.0000      0.0     0.0 "m/c"      "m/c"      "Tidal_sandbanke/kanal_kompleks"                                  "Verikal_oppbygging_av_tidevannsdominert_delta_front"
4572.3 "6506_12-6"  62.5700 "Sandstone" -999.25 -999.25 100.0000      0.0     0.0 "m/c"      "m/c"      "Tidal_sandbanke/kanal_kompleks"                                  "Verikal_oppbygging_av_tidevannsdominert_delta_front"
4572.4 "6506_12-6"  62.5700 "Sandstone" -999.25 -999.25 100.0000      0.0     0.0 "m/c"      "m/c"      "Tidal_sandbanke/kanal_kompleks"                                  "Verikal_oppbygging_av_tidevannsdominert_delta_front"
4572.5 "6506_12-6"  61.9200 "Sandstone" -999.25 -999.25 100.0000      0.0     0.0 "m/c"      "m/c"      "Tidal_sandbanke/kanal_kompleks"                                  "Verikal_oppbygging_av_tidevannsdominert_delta_front"
4572.6 "6506_12-6"  61.2800 "Sandstone" -999.25 -999.25 100.0000      0.0     0.0 "c"        "c"        "Tidal_sandbanke/kanal_kompleks"                                  "Verikal_oppbygging_av_tidevannsdominert_delta_front"
4572.7 "6506_12-6"  60.6300 "Sandstone" -999.25 -999.25 100.0000      0.0     0.0 "c"        "c"        "Tidal_sandbanke/kanal_kompleks"                                  "Verikal_oppbygging_av_tidevannsdominert_delta_front"
4572.8 "6506_12-6"  59.9900 "Sandstone" -999.25 -999.25 100.0000      0.0     0.0 "c"        "c"        "Tidal_sandbanke/kanal_kompleks"                                  "Verikal_oppbygging_av_tidevannsdominert_delta_front"
4572.9 "6506_12-6"  59.3400 "Sandstone" -999.25 -999.25 100.0000      0.0     0.0 "vc"       "m/c"      "Tidal_sandbanke/kanal_kompleks"                                  "Verikal_oppbygging_av_tidevannsdominert_delta_front"
4573.0 "6506_12-6"  58.7000 "Sandstone" -999.25 -999.25 100.0000      0.0     0.0 "vc"       "m/c"      "Tidal_sandbanke/kanal_kompleks"                                  "Verikal_oppbygging_av_tidevannsdominert_delta_front"
4573.1 "6506_12-6"  58.0500 "Sandstone" -999.25 -999.25 100.0000      0.0     0.0 "vc"       "m/c"      "Tidal_sandbanke/kanal_kompleks"                                  "Verikal_oppbygging_av_tidevannsdominert_delta_front"
4573.2 "6506_12-6"  59.0800 "Sandstone" -999.25 -999.25 100.0000      0.0     0.0 "vc"       "m/c"      "Tidal_sandbanke/kanal_kompleks"                                  "Verikal_oppbygging_av_tidevannsdominert_delta_front"
4573.3 "6506_12-6"  60.7200 "Sandstone" -999.25 -999.25 100.0000      0.0     0.0 "vc"       "m/c"      "Tidal_sandbanke/kanal_kompleks"                                  "Verikal_oppbygging_av_tidevannsdominert_delta_front"
4573.4 "6506_12-6"  62.3700 "Sandstone" -999.25 -999.25 100.0000      0.0     0.0 "c/vc"     "c/vc"     "Tidal_sandbanke/kanal_kompleks"                                  "Verikal_oppbygging_av_tidevannsdominert_delta_front"
4573.5 "6506_12-6"  64.0100 "Sandstone" -999.25 -999.25 100.0000      0.0     0.0 "c/vc"     "c/vc"     "Tidal_sandbanke/kanal_kompleks"                                  "Verikal_oppbygging_av_tidevannsdominert_delta_front"
4573.6 "6506_12-6"  65.8800 "Sandstone" -999.25 -999.25 100.0000      0.0     0.0 "c/vc"     "c/vc"     "Tidal_sandbanke/kanal_kompleks"                                  "Verikal_oppbygging_av_tidevannsdominert_delta_front"
4573.7 "6506_12-6"  68.0200 "Sandstone" -999.25 -999.25 100.0000      0.0     0.0 "c/vc"     "c/vc"     "Tidal_sandbanke/kanal_kompleks"                                  "Verikal_oppbygging_av_tidevannsdominert_delta_front"
4573.8 "6506_12-6"  70.1500 "Sandstone" -999.25 -999.25 100.0000      0.0     0.0 "vc"       "vc"       "Tidal_sandbanke/kanal_kompleks"                                  "Verikal_oppbygging_av_tidevannsdominert_delta_front"
4573.9 "6506_12-6"  72.2800 "Sandstone" -999.25 -999.25 100.0000      0.0     0.0 "vc"       "vc"       "Tidal_sandbanke/kanal_kompleks"                                  "Verikal_oppbygging_av_tidevannsdominert_delta_front"
4574.0 "6506_12-6"  74.4100 "Sandstone" -999.25 -999.25 100.0000      0.0     0.0 "vc"       "vc"       "Tidal_sandbanke/kanal_kompleks"                                  "Verikal_oppbygging_av_tidevannsdominert_delta_front"
4574.1 "6506_12-6"  76.5500 "Sandstone" "Shale" -999.25  94.0000  6.00000     0.0 "vc"       "c"        "Tidal_sandbanke/kanal_kompleks"                                  "Verikal_oppbygging_av_tidevannsdominert_delta_front"
