~Version
VERS  .                                 3.0 : CWLS LAS ASCII Standard - Version 3.0
WRAP  . NO                                  : One line per depth step
DLM   . SPACE                               : Column data section delimiter
SOURCE. Converted to LAS by Log Studio 4.76 : GeoProvider

~Well
STRT.         4184.0 : Start depth
STOP.         4634.6 : Stop depth
STEP.              1 : Step
NULL.        -999.25 : No-value
COMP.                : Company
WELL. 6506/12-6      : Well
FLD .                : Field
LOC .                : Location
LATI.                : Latitude
LONG.                : Longitude
GDAT.                : Geodetic datum
CNTY.                : County
STAT.                : State
CTRY.                : Country
SRVC. GeoProvider AS : Service company
DATE.                : Date
API .                : API number
RUN .                : Run number

~Parameters
WellboreName.  : Wellbore name
RigName     .  : Rig name
StartDate   .  : Start date

~Curves
DEPTH.m            .  : null {F}Depth mMD
Hole_ID.-          .  : null {S}Hole ID
GR.API             .  : null {F}Gamma Ray
Lithology1.-       .  : null {S}Lithology 1
Lithology2.-       .  : null {S}Lithology 2
Lithology3.-       .  : null {S}Lithology 3
Lithology1.%       .  : null {F}Lithology 1 percentage
Lithology2.%       .  : null {F}Lithology 2 percentage
Lithology3.%       .  : null {F}Lithology 3 percentage
Grain_size_Top.-   .  : null {S}Grain size at the top 
Grain_size_Base.-  .  : null {S}Grain size at the bottom
Sub_Environment.-  .  : null {S}Sub Environment
Gross_Environment.-.  : null {S}Gross Environment

~Ascii
# ...
4520.0 "6506_12-6"  58.7500 "Sandstone" "Shale" -999.25  65.0000 35.00000     0.0 "f"        "vc/granule" "Verikal_oppbygging_av_subakvafliske_tidevanns-avsetninger"       "Vertikal_oppbygging_av_tidevannedominert_delta_front"
4520.1 "6506_12-6"  58.0900 "Sandstone" "Shale" -999.25  65.0000 35.00000     0.0 "f"        "vc/granule" "Verikal_oppbygging_av_subakvafliske_tidevanns-avsetninger"       "Vertikal_oppbygging_av_tidevannedominert_delta_front"
4520.2 "6506_12-6"  57.4400 "Sandstone" "Shale" -999.25  65.0000 35.00000     0.0 "f"        "vc/granule" "Verikal_oppbygging_av_subakvafliske_tidevanns-avsetninger"       "Vertikal_oppbygging_av_tidevannedominert_delta_front"
4520.3 "6506_12-6"  59.0900 "Sandstone" "Shale" -999.25  65.0000 35.00000     0.0 "f"        "vc/granule" "Verikal_oppbygging_av_subakvafliske_tidevanns-avsetninger"       "Vertikal_oppbygging_av_tidevannedominert_delta_front"
4520.4 "6506_12-6"  61.2200 "Sandstone" "Shale" -999.25  65.0000 35.00000     0.0 "f"        "vc/granule" "Verikal_oppbygging_av_subakvafliske_tidevanns-avsetninger"       "Vertikal_oppbygging_av_tidevannedominert_delta_front"
4520.5 "6506_12-6"  63.3400 "Sandstone" "Shale" -999.25  65.0000 35.00000     0.0 "f"        "vc/granule" "Verikal_oppbygging_av_subakvafliske_tidevanns-avsetninger"       "Vertikal_oppbygging_av_tidevannedominert_delta_front"
4520.6 "6506_12-6"  70.0500 "Sandstone" "Shale" -999.25  65.0000 35.00000     0.0 "f"        "vc/granule" "Verikal_oppbygging_av_subakvafliske_tidevanns-avsetninger"       "Vertikal_oppbygging_av_tidevannedominert_delta_front"
4520.7 "6506_12-6"  79.9500 "Sandstone" "Shale" -999.25  65.0000 35.00000     0.0 "f"        "vc/granule" "Verikal_oppbygging_av_subakvafliske_tidevanns-avsetninger"       "Vertikal_oppbygging_av_tidevannedominert_delta_front"
4520.8 "6506_12-6"  83.8300 "Sandstone" "Shale" -999.25  65.0000 35.00000     0.0 "f"        "vc/granule" "Verikal_oppbygging_av_subakvafliske_tidevanns-avsetninger"       "Vertikal_oppbygging_av_tidevannedominert_delta_front"
4520.9 "6506_12-6"  87.7100 "Sandstone" "Shale" -999.25  65.0000 35.00000     0.0 "f"        "vc/granule" "Verikal_oppbygging_av_subakvafliske_tidevanns-avsetninger"       "Vertikal_oppbygging_av_tidevannedominert_delta_front"
4521.0 "6506_12-6"  91.5800 "Sandstone" "Shale" -999.25  65.0000 35.00000     0.0 "f"        "vc/granule" "Verikal_oppbygging_av_subakvafliske_tidevanns-avsetninger"       "Vertikal_oppbygging_av_tidevannedominert_delta_front"
4521.1 "6506_12-6"  95.4600 "Sandstone" "Shale" -999.25  65.0000 35.00000     0.0 "f"        "vc/granule" "Verikal_oppbygging_av_subakvafliske_tidevanns-avsetninger"       "Vertikal_oppbygging_av_tidevannedominert_delta_front"
4521.2 "6506_12-6"  95.4500 "Sandstone" "Shale" -999.25  65.0000 35.00000     0.0 "f"        "vc/granule" "Verikal_oppbygging_av_subakvafliske_tidevanns-avsetninger"       "Vertikal_oppbygging_av_tidevannedominert_delta_front"
4521.3 "6506_12-6"  95.3200 "Sandstone" "Shale" -999.25  65.0000 35.00000     0.0 "f"        "vc/granule" "Verikal_oppbygging_av_subakvafliske_tidevanns-avsetninger"       "Vertikal_oppbygging_av_tidevannedominert_delta_front"
4521.4 "6506_12-6"  92.7700 "Sandstone" "Shale" -999.25  65.0000 35.00000     0.0 "f"        "vc/granule" "Verikal_oppbygging_av_subakvafliske_tidevanns-avsetninger"       "Vertikal_oppbygging_av_tidevannedominert_delta_front"
4521.5 "6506_12-6"  89.8700 "Sandstone" "Shale" -999.25  65.0000 35.00000     0.0 "f"        "vc/granule" "Verikal_oppbygging_av_subakvafliske_tidevanns-avsetninger"       "Vertikal_oppbygging_av_tidevannedominert_delta_front"
4521.6 "6506_12-6"  88.1400 "Sandstone" "Shale" -999.25  65.0000 35.00000     0.0 "f"        "vc/granule" "Verikal_oppbygging_av_subakvafliske_tidevanns-avsetninger"       "Vertikal_oppbygging_av_tidevannedominert_delta_front"
4521.7 "6506_12-6"  86.7800 "Sandstone" "Shale" -999.25  65.0000 35.00000     0.0 "f"        "vc/granule" "Verikal_oppbygging_av_subakvafliske_tidevanns-avsetninger"       "Vertikal_oppbygging_av_tidevannedominert_delta_front"
4521.8 "6506_12-6"  86.3100 "Sandstone" "Shale" -999.25  65.0000 35.00000     0.0 "f"        "vc/granule" "Verikal_oppbygging_av_subakvafliske_tidevanns-avsetninger"       "Vertikal_oppbygging_av_tidevannedominert_delta_front"
4521.9 "6506_12-6"  85.8400 "Sandstone" "Shale" -999.25  65.0000 35.00000     0.0 "f"        "vc/granule" "Verikal_oppbygging_av_subakvafliske_tidevanns-avsetninger"       "Vertikal_oppbygging_av_tidevannedominert_delta_front"
4522.0 "6506_12-6"  85.3600 "Sandstone" "Shale" -999.25  65.0000 35.00000     0.0 "f"        "vc/granule" "Verikal_oppbygging_av_subakvafliske_tidevanns-avsetninger"       "Vertikal_oppbygging_av_tidevannedominert_delta_front"
4522.1 "6506_12-6"  84.8900 "Sandstone" "Shale" -999.25  65.0000 35.00000     0.0 "f"        "vc/granule" "Verikal_oppbygging_av_subakvafliske_tidevanns-avsetninger"       "Vertikal_oppbygging_av_tidevannedominert_delta_front"
4522.2 "6506_12-6"  84.4200 "Sandstone" "Shale" -999.25  65.0000 35.00000     0.0 "f"        "vc/granule" "Verikal_oppbygging_av_subakvafliske_tidevanns-avsetninger"       "Vertikal_oppbygging_av_tidevannedominert_delta_front"
4522.3 "6506_12-6"  83.9400 "Sandstone" "Shale" -999.25  65.0000 35.00000     0.0 "f"        "vc/granule" "Verikal_oppbygging_av_subakvafliske_tidevanns-avsetninger"       "Vertikal_oppbygging_av_tidevannedominert_delta_front"
4522.4 "6506_12-6"  83.4700 "Sandstone" "Shale" -999.25  65.0000 35.00000     0.0 "f"        "vc/granule" "Verikal_oppbygging_av_subakvafliske_tidevanns-avsetninger"       "Vertikal_oppbygging_av_tidevannedominert_delta_front"
4522.5 "6506_12-6"  83.0000 "Sandstone" "Shale" -999.25  65.0000 35.00000     0.0 "f"        "vc/granule" "Verikal_oppbygging_av_subakvafliske_tidevanns-avsetninger"       "Vertikal_oppbygging_av_tidevannedominert_delta_front"
4522.6 "6506_12-6"  81.7300 "Sandstone" "Shale" -999.25  65.0000 35.00000     0.0 "f"        "vc/granule" "Verikal_oppbygging_av_subakvafliske_tidevanns-avsetninger"       "Vertikal_oppbygging_av_tidevannedominert_delta_front"
4522.7 "6506_12-6"  79.4600 "Sandstone" "Shale" -999.25  65.0000 35.00000     0.0 "f"        "vc/granule" "Verikal_oppbygging_av_subakvafliske_tidevanns-avsetninger"       "Vertikal_oppbygging_av_tidevannedominert_delta_front"
4522.8 "6506_12-6"  77.1900 "Sandstone" "Shale" -999.25  65.0000 35.00000     0.0 "f"        "vc/granule" "Verikal_oppbygging_av_subakvafliske_tidevanns-avsetninger"       "Vertikal_oppbygging_av_tidevannedominert_delta_front"
4522.9 "6506_12-6"  74.9200 "Sandstone" "Shale" -999.25  65.0000 35.00000     0.0 "f"        "vc/granule" "Verikal_oppbygging_av_subakvafliske_tidevanns-avsetninger"       "Vertikal_oppbygging_av_tidevannedominert_delta_front"
4523.0 "6506_12-6"  72.6500 "Sandstone" "Shale" -999.25  20.0000 80.00000     0.0 "vf"       "vf"       "Verikal_oppbygging_av_subakvafliske_tidevanns-avsetninger"       "Vertikal_oppbygging_av_tidevannedominert_delta_front"
4523.1 "6506_12-6"  70.3800 "Sandstone" "Shale" -999.25  20.0000 80.00000     0.0 "vf"       "vf"       "Verikal_oppbygging_av_subakvafliske_tidevanns-avsetninger"       "Vertikal_oppbygging_av_tidevannedominert_delta_front"
4523.2 "6506_12-6"  70.8400 "Sandstone" "Shale" -999.25  20.0000 80.00000     0.0 "vf"       "vf"       "Verikal_oppbygging_av_subakvafliske_tidevanns-avsetninger"       "Vertikal_oppbygging_av_tidevannedominert_delta_front"
4523.3 "6506_12-6"  75.1400 "Sandstone" "Shale" -999.25  20.0000 80.00000     0.0 "vf"       "vf"       "Verikal_oppbygging_av_subakvafliske_tidevanns-avsetninger"       "Vertikal_oppbygging_av_tidevannedominert_delta_front"
4523.4 "6506_12-6"  79.4300 "Sandstone" "Shale" -999.25  50.0000 50.00000     0.0 "c"        "c"        "Verikal_oppbygging_av_subakvafliske_tidevanns-avsetninger"       "Vertikal_oppbygging_av_tidevannedominert_delta_front"
4523.5 "6506_12-6"  83.7300 "Sandstone" "Shale" -999.25  50.0000 50.00000     0.0 "c"        "c"        "Verikal_oppbygging_av_subakvafliske_tidevanns-avsetninger"       "Vertikal_oppbygging_av_tidevannedominert_delta_front"
