~Version
VERS  .                                 3.0 : CWLS LAS ASCII Standard - Version 3.0
WRAP  . NO                                  : One line per depth step
DLM   . SPACE                               : Column data section delimiter
SOURCE. Converted to LAS by Log Studio 4.76 : GeoProvider

~Well
STRT.         4184.0 : Start depth
STOP.         4634.6 : Stop depth
STEP.              1 : Step
NULL.        -999.25 : No-value
COMP.                : Company
WELL. 6506/12-6      : Well
FLD .                : Field
LOC .                : Location
LATI.                : Latitude
LONG.                : Longitude
GDAT.                : Geodetic datum
CNTY.                : County
STAT.                : State
CTRY.                : Country
SRVC. GeoProvider AS : Service company
DATE.                : Date
API .                : API number
RUN .                : Run number

~Parameters
WellboreName.  : Wellbore name
RigName     .  : Rig name
StartDate   .  : Start date

~Curves
DEPTH.m            .  : null {F}Depth mMD
Hole_ID.-          .  : null {S}Hole ID
GR.API             .  : null {F}Gamma Ray
Lithology1.-       .  : null {S}Lithology 1
Lithology2.-       .  : null {S}Lithology 2
Lithology3.-       .  : null {S}Lithology 3
Lithology1.%       .  : null {F}Lithology 1 percentage
Lithology2.%       .  : null {F}Lithology 2 percentage
Lithology3.%       .  : null {F}Lithology 3 percentage
Grain_size_Top.-   .  : null {S}Grain size at the top 
Grain_size_Base.-  .  : null {S}Grain size at the bottom
Sub_Environment.-  .  : null {S}Sub Environment
Gross_Environment.-.  : null {S}Gross Environment

~Ascii
# ...
4228.4 "6506_12-6"  -999.25 "Shale"   -999.25 -999.25 100.0000      0.0     0.0 "silt/vf"  "silt/vf"  "Apne_marine_forhold_Distale_facies,_lavenergiforhold"            "Distal_marin"                                      
4228.5 "6506_12-6"  -999.25 "Shale"   -999.25 -999.25 100.0000      0.0     0.0 "silt/vf"  "silt/vf"  "Apne_marine_forhold_Distale_facies,_lavenergiforhold"            "Distal_marin"                                      
4228.6 "6506_12-6"  -999.25 "Shale"   -999.25 -999.25 100.0000      0.0     0.0 "silt/vf"  "silt/vf"  "Apne_marine_forhold_Distale_facies,_lavenergiforhold"            "Distal_marin"                                      
4228.7 "6506_12-6"  -999.25 "Shale"   -999.25 -999.25 100.0000      0.0     0.0 "silt/vf"  "silt/vf"  "Apne_marine_forhold_Distale_facies,_lavenergiforhold"            "Distal_marin"                                      
4228.8 "6506_12-6"  -999.25 "Shale"   -999.25 -999.25 100.0000      0.0     0.0 "silt/vf"  "silt/vf"  "Apne_marine_forhold_Distale_facies,_lavenergiforhold"            "Distal_marin"                                      
4228.9 "6506_12-6"  -999.25 "Shale"   -999.25 -999.25 100.0000      0.0     0.0 "silt/vf"  "silt/vf"  "Apne_marine_forhold_Distale_facies,_lavenergiforhold"            "Distal_marin"                                      
4229.0 "6506_12-6"  -999.25 "Shale"   -999.25 -999.25 100.0000      0.0     0.0 "silt/vf"  "silt/vf"  "Apne_marine_forhold_Distale_facies,_lavenergiforhold"            "Distal_marin"                                      
4229.1 "6506_12-6"  -999.25 "Shale"   -999.25 -999.25 100.0000      0.0     0.0 "silt/vf"  "silt/vf"  "Apne_marine_forhold_Distale_facies,_lavenergiforhold"            "Distal_marin"                                      
4229.2 "6506_12-6"  -999.25 "Shale"   -999.25 -999.25 100.0000      0.0     0.0 "silt/vf"  "silt/vf"  "Apne_marine_forhold_Distale_facies,_lavenergiforhold"            "Distal_marin"                                      
4229.3 "6506_12-6"  -999.25 "Shale"   -999.25 -999.25 100.0000      0.0     0.0 "silt/vf"  "silt/vf"  "Apne_marine_forhold_Distale_facies,_lavenergiforhold"            "Distal_marin"                                      
4229.4 "6506_12-6"  -999.25 "Shale"   -999.25 -999.25 100.0000      0.0     0.0 "silt/vf"  "silt/vf"  "Apne_marine_forhold_Distale_facies,_lavenergiforhold"            "Distal_marin"                                      
4229.5 "6506_12-6"  -999.25 "Shale"   -999.25 -999.25 100.0000      0.0     0.0 "silt/vf"  "silt/vf"  "Apne_marine_forhold_Distale_facies,_lavenergiforhold"            "Distal_marin"                                      
4229.6 "6506_12-6"  -999.25 "Shale"   -999.25 -999.25 100.0000      0.0     0.0 "silt/vf"  "silt/vf"  "Apne_marine_forhold_Distale_facies,_lavenergiforhold"            "Distal_marin"                                      
4229.7 "6506_12-6"  -999.25 "Shale"   -999.25 -999.25 100.0000      0.0     0.0 "silt/vf"  "silt/vf"  "Apne_marine_forhold_Distale_facies,_lavenergiforhold"            "Distal_marin"                                      
4229.8 "6506_12-6"  -999.25 "Shale"   -999.25 -999.25 100.0000      0.0     0.0 "silt/vf"  "silt/vf"  "Apne_marine_forhold_Distale_facies,_lavenergiforhold"            "Distal_marin"                                      
4229.9 "6506_12-6"  -999.25 "Shale"   -999.25 -999.25 100.0000      0.0     0.0 "silt/vf"  "silt/vf"  "Apne_marine_forhold_Distale_facies,_lavenergiforhold"            "Distal_marin"                                      
4230.0 "6506_12-6"  -999.25 "Shale"   -999.25 -999.25 100.0000      0.0     0.0 "silt/vf"  "silt/vf"  "Apne_marine_forhold_Distale_facies,_lavenergiforhold"            "Distal_marin"                                      
4230.1 "6506_12-6"  -999.25 "Shale"   -999.25 -999.25 100.0000      0.0     0.0 "silt/vf"  "silt/vf"  "Apne_marine_forhold_Distale_facies,_lavenergiforhold"            "Distal_marin"                                      
4230.2 "6506_12-6"  -999.25 "Shale"   -999.25 -999.25 100.0000      0.0     0.0 "silt/vf"  "silt/vf"  "Apne_marine_forhold_Distale_facies,_lavenergiforhold"            "Distal_marin"                                      
4230.3 "6506_12-6"  -999.25 "Sandstone" "Shale" -999.25   2.0000 98.00000     0.0 "silt/vf"  "silt/vf"  "Apne_marine_forhold_Distale_facies,_lavenergiforhold"            "Distal_marin"                                      
4230.4 "6506_12-6"  -999.25 "Sandstone" "Shale" -999.25   2.0000 98.00000     0.0 "silt/vf"  "silt/vf"  "Apne_marine_forhold_Distale_facies,_lavenergiforhold"            "Distal_marin"                                      
4230.5 "6506_12-6"  -999.25 "Sandstone" "Shale" -999.25   2.0000 98.00000     0.0 "silt/vf"  "silt/vf"  "Apne_marine_forhold_Distale_facies,_lavenergiforhold"            "Distal_marin"                                      
4230.6 "6506_12-6"  -999.25 "Sandstone" "Shale" -999.25   2.0000 98.00000     0.0 "silt/vf"  "silt/vf"  "Apne_marine_forhold_Distale_facies,_lavenergiforhold"            "Distal_marin"                                      
4230.7 "6506_12-6"  -999.25 "Sandstone" "Shale" -999.25   2.0000 98.00000     0.0 "silt/vf"  "silt/vf"  "Apne_marine_forhold_Distale_facies,_lavenergiforhold"            "Distal_marin"                                      
4230.8 "6506_12-6"  -999.25 "Sandstone" "Shale" -999.25   2.0000 98.00000     0.0 "silt/vf"  "silt/vf"  "Apne_marine_forhold_Distale_facies,_lavenergiforhold"            "Distal_marin"                                      
4230.9 "6506_12-6"  -999.25 "Sandstone" "Shale" -999.25   2.0000 98.00000     0.0 "silt/vf"  "silt/vf"  "Apne_marine_forhold_Distale_facies,_lavenergiforhold"            "Distal_marin"                                      
4231.0 "6506_12-6"  -999.25 "Sandstone" "Shale" -999.25   2.0000 98.00000     0.0 "silt/vf"  "silt/vf"  "Apne_marine_forhold_Distale_facies,_lavenergiforhold"            "Distal_marin"                                      
4231.1 "6506_12-6"  -999.25 "Sandstone" "Shale" -999.25   2.0000 98.00000     0.0 "silt/vf"  "silt/vf"  "Apne_marine_forhold_Distale_facies,_lavenergiforhold"            "Distal_marin"                                      
4231.2 "6506_12-6"  -999.25 "Sandstone" "Shale" -999.25   2.0000 98.00000     0.0 "silt/vf"  "silt/vf"  "Apne_marine_forhold_Distale_facies,_lavenergiforhold"            "Distal_marin"                                      
4231.3 "6506_12-6"  -999.25 "Sandstone" "Shale" -999.25   2.0000 98.00000     0.0 "silt/vf"  "silt/vf"  "Apne_marine_forhold_Distale_facies,_lavenergiforhold"            "Distal_marin"                                      
4231.4 "6506_12-6"  -999.25 "Sandstone" "Shale" -999.25   2.0000 98.00000     0.0 "silt/vf"  "silt/vf"  "Apne_marine_forhold_Distale_facies,_lavenergiforhold"            "Distal_marin"                                      
4231.5 "6506_12-6"  -999.25 "Sandstone" "Shale" -999.25   2.0000 98.00000     0.0 "silt/vf"  "silt/vf"  "Apne_marine_forhold_Distale_facies,_lavenergiforhold"            "Distal_marin"                                      
4231.6 "6506_12-6"  -999.25 "Sandstone" "Shale" -999.25   2.0000 98.00000     0.0 "silt/vf"  "silt/vf"  "Apne_marine_forhold_Distale_facies,_lavenergiforhold"            "Distal_marin"                                      
4231.7 "6506_12-6"  -999.25 "Sandstone" "Shale" -999.25   2.0000 98.00000     0.0 "silt/vf"  "silt/vf"  "Apne_marine_forhold_Distale_facies,_lavenergiforhold"            "Distal_marin"                                      
4231.8 "6506_12-6"  -999.25 "Sandstone" "Shale" -999.25   2.0000 98.00000     0.0 "silt/vf"  "silt/vf"  "Apne_marine_forhold_Distale_facies,_lavenergiforhold"            "Distal_marin"                                      
4231.9 "6506_12-6"  -999.25 "Sandstone" "Shale" -999.25   2.0000 98.00000     0.0 "silt/vf"  "silt/vf"  "Apne_marine_forhold_Distale_facies,_lavenergiforhold"            "Distal_marin"                                      
4232.0 "6506_12-6"  -999.25 "Sandstone" "Shale" -999.25   2.0000 98.00000     0.0 "silt/vf"  "silt/vf"  "Apne_marine_forhold_Distale_facies,_lavenergiforhold"            "Distal_marin"                                      
