~Version
VERS  .                                 3.0 : CWLS LAS ASCII Standard - Version 3.0
WRAP  . NO                                  : One line per depth step
DLM   . SPACE                               : Column data section delimiter
SOURCE. Converted to LAS by Log Studio 4.76 : GeoProvider

~Well
STRT.         4184.0 : Start depth
STOP.         4634.6 : Stop depth
STEP.              1 : Step
NULL.        -999.25 : No-value
COMP.                : Company
WELL. 6506/12-6      : Well
FLD .                : Field
LOC .                : Location
LATI.                : Latitude
LONG.                : Longitude
GDAT.                : Geodetic datum
CNTY.                : County
STAT.                : State
CTRY.                : Country
SRVC. GeoProvider AS : Service company
DATE.                : Date
API .                : API number
RUN .                : Run number

~Parameters
WellboreName.  : Wellbore name
RigName     .  : Rig name
StartDate   .  : Start date

~Curves
DEPTH.m            .  : null {F}Depth mMD
Hole_ID.-          .  : null {S}Hole ID
GR.API             .  : null {F}Gamma Ray
Lithology1.-       .  : null {S}Lithology 1
Lithology2.-       .  : null {S}Lithology 2
Lithology3.-       .  : null {S}Lithology 3
Lithology1.%       .  : null {F}Lithology 1 percentage
Lithology2.%       .  : null {F}Lithology 2 percentage
Lithology3.%       .  : null {F}Lithology 3 percentage
Grain_size_Top.-   .  : null {S}Grain size at the top 
Grain_size_Base.-  .  : null {S}Grain size at the bottom
Sub_Environment.-  .  : null {S}Sub Environment
Gross_Environment.-.  : null {S}Gross Environment

~Ascii
# ...
4631.8 "6506_12-6"  82.9500 "Sandstone" -999.25 -999.25 100.0000      0.0     0.0 "c/vc"     "c/vc"     "Tidevannskanal"                                                  "Verikal_oppbygging_av_tidevannsdominert_delta_front"
4631.9 "6506_12-6"  81.7700 "Sandstone" -999.25 -999.25 100.0000      0.0     0.0 "c/vc"     "c/vc"     "Tidevannskanal"                                                  "Verikal_oppbygging_av_tidevannsdominert_delta_front"
4632.0 "6506_12-6"  80.9800 "Sandstone" -999.25 -999.25 100.0000      0.0     0.0 "c/vc"     "c/vc"     "Tidevannskanal"                                                  "Verikal_oppbygging_av_tidevannsdominert_delta_front"
4632.1 "6506_12-6"  80.1900 "Sandstone" -999.25 -999.25 100.0000      0.0     0.0 "c/vc"     "c/vc"     "Tidevannskanal"                                                  "Verikal_oppbygging_av_tidevannsdominert_delta_front"
4632.2 "6506_12-6"  79.4100 "Sandstone" -999.25 -999.25 100.0000      0.0     0.0 "c/vc"     "c/vc"     "Tidevannskanal"                                                  "Verikal_oppbygging_av_tidevannsdominert_delta_front"
4632.3 "6506_12-6"  78.8600 "Sandstone" -999.25 -999.25 100.0000      0.0     0.0 "c/vc"     "c/vc"     "Tidevannskanal"                                                  "Verikal_oppbygging_av_tidevannsdominert_delta_front"
4632.4 "6506_12-6"  78.9800 "Sandstone" -999.25 -999.25 100.0000      0.0     0.0 "c/vc"     "c/vc"     "Tidevannskanal"                                                  "Verikal_oppbygging_av_tidevannsdominert_delta_front"
4632.5 "6506_12-6"  79.1000 "Sandstone" "Shale" -999.25  65.0000 35.00000     0.0 -999.25    -999.25    -999.25                                                           "Verikal_oppbygging_av_tidevannsdominert_delta_front"
4632.6 "6506_12-6"  79.2200 "Sandstone" "Shale" -999.25  65.0000 35.00000     0.0 -999.25    -999.25    -999.25                                                           "Verikal_oppbygging_av_tidevannsdominert_delta_front"
4632.7 "6506_12-6"  79.3400 "Sandstone" "Shale" -999.25  65.0000 35.00000     0.0 -999.25    -999.25    -999.25                                                           "Verikal_oppbygging_av_tidevannsdominert_delta_front"
4632.8 "6506_12-6"  79.4600 "Sandstone" -999.25 -999.25 100.0000      0.0     0.0 "granule"  "granule"  -999.25                                                           "Verikal_oppbygging_av_tidevannsdominert_delta_front"
4632.9 "6506_12-6"  79.5800 "Sandstone" -999.25 -999.25 100.0000      0.0     0.0 "granule"  "granule"  -999.25                                                           "Verikal_oppbygging_av_tidevannsdominert_delta_front"
4633.0 "6506_12-6"  79.7100 "Sandstone" -999.25 -999.25 100.0000      0.0     0.0 "granule"  "granule"  -999.25                                                           "Verikal_oppbygging_av_tidevannsdominert_delta_front"
4633.1 "6506_12-6"  79.8300 "Sandstone" "Shale" -999.25  50.0000 50.00000     0.0 "m"        "m"        -999.25                                                           "Verikal_oppbygging_av_tidevannsdominert_delta_front"
4633.2 "6506_12-6"  80.0400 "Sandstone" "Shale" -999.25  50.0000 50.00000     0.0 "m"        "m"        -999.25                                                           "Verikal_oppbygging_av_tidevannsdominert_delta_front"
4633.3 "6506_12-6"  82.1400 "Sandstone" "Shale" -999.25  50.0000 50.00000     0.0 "m"        "m"        -999.25                                                           "Verikal_oppbygging_av_tidevannsdominert_delta_front"
4633.4 "6506_12-6"  84.2500 "Sandstone" -999.25 -999.25 100.0000      0.0     0.0 "c"        "c"        -999.25                                                           "Verikal_oppbygging_av_tidevannsdominert_delta_front"
4633.5 "6506_12-6"  86.3500 "Sandstone" -999.25 -999.25 100.0000      0.0     0.0 "c"        "c"        -999.25                                                           "Verikal_oppbygging_av_tidevannsdominert_delta_front"
4633.6 "6506_12-6"  86.9400 "Sandstone" -999.25 -999.25 100.0000      0.0     0.0 "c"        "c"        -999.25                                                           "Verikal_oppbygging_av_tidevannsdominert_delta_front"
4633.7 "6506_12-6"  87.2800 "Sandstone" "Shale" -999.25  60.0000 40.00000     0.0 "c"        "c"        -999.25                                                           "Verikal_oppbygging_av_tidevannsdominert_delta_front"
4633.8 "6506_12-6"  87.6300 "Sandstone" "Shale" -999.25  60.0000 40.00000     0.0 "c"        "c"        -999.25                                                           "Verikal_oppbygging_av_tidevannsdominert_delta_front"
4633.9 "6506_12-6"  87.9700 "Sandstone" "Shale" -999.25  60.0000 40.00000     0.0 "c"        "c"        -999.25                                                           "Verikal_oppbygging_av_tidevannsdominert_delta_front"
4634.0 "6506_12-6"  88.3200 "Sandstone" "Shale" -999.25  60.0000 40.00000     0.0 "c"        "c"        -999.25                                                           "Verikal_oppbygging_av_tidevannsdominert_delta_front"
4634.1 "6506_12-6"  88.4700 "Sandstone" "Shale" -999.25  60.0000 40.00000     0.0 "c"        "c"        -999.25                                                           "Verikal_oppbygging_av_tidevannsdominert_delta_front"
4634.2 "6506_12-6"  87.8200 "Sandstone" "Shale" -999.25  60.0000 40.00000     0.0 "c"        "c"        -999.25                                                           "Verikal_oppbygging_av_tidevannsdominert_delta_front"
4634.3 "6506_12-6"  87.1600 "Sandstone" "Shale" -999.25  60.0000 40.00000     0.0 "c"        "c"        -999.25                                                           "Verikal_oppbygging_av_tidevannsdominert_delta_front"
4634.4 "6506_12-6"  86.5100 "Sandstone" "Shale" -999.25  60.0000 40.00000     0.0 "c"        "c"        -999.25                                                           "Verikal_oppbygging_av_tidevannsdominert_delta_front"
4634.5 "6506_12-6"  85.8500 "Sandstone" "Shale" -999.25  60.0000 40.00000     0.0 "c"        "c"        -999.25                                                           "Verikal_oppbygging_av_tidevannsdominert_delta_front"
4634.6 "6506_12-6"  83.7700 "Sandstone" "Shale" -999.25  60.0000 40.00000     0.0 "c"        "c"        -999.25                                                           "Verikal_oppbygging_av_tidevannsdominert_delta_front"
