~Version
VERS  .                                 3.0 : CWLS LAS ASCII Standard - Version 3.0
WRAP  . NO                                  : One line per depth step
DLM   . SPACE                               : Column data section delimiter
SOURCE. Converted to LAS by Log Studio 4.76 : GeoProvider

~Well
STRT.         4184.0 : Start depth
STOP.         4634.6 : Stop depth
STEP.              1 : Step
NULL.        -999.25 : No-value
COMP.                : Company
WELL. 6506/12-6      : Well
FLD .                : Field
LOC .                : Location
LATI.                : Latitude
LONG.                : Longitude
GDAT.                : Geodetic datum
CNTY.                : County
STAT.                : State
CTRY.                : Country
SRVC. GeoProvider AS : Service company
DATE.                : Date
API .                : API number
RUN .                : Run number

~Parameters
WellboreName.  : Wellbore name
RigName     .  : Rig name
StartDate   .  : Start date

~Curves
DEPTH.m            .  : null {F}Depth mMD
Hole_ID.-          .  : null {S}Hole ID
GR.API             .  : null {F}Gamma Ray
Lithology1.-       .  : null {S}Lithology 1
Lithology2.-       .  : null {S}Lithology 2
Lithology3.-       .  : null {S}Lithology 3
Lithology1.%       .  : null {F}Lithology 1 percentage
Lithology2.%       .  : null {F}Lithology 2 percentage
Lithology3.%       .  : null {F}Lithology 3 percentage
Grain_size_Top.-   .  : null {S}Grain size at the top 
Grain_size_Base.-  .  : null {S}Grain size at the bottom
Sub_Environment.-  .  : null {S}Sub Environment
Gross_Environment.-.  : null {S}Gross Environment

~Ascii
# ...
4610.2 "6506_12-6"  70.1400 "Sandstone" "Shale" -999.25  40.0000 60.00000     0.0 "vf/f"     "vf/f"     "Tidevannskanal"                                                  "Verikal_oppbygging_av_tidevannsdominert_delta_front"
4610.3 "6506_12-6"  74.6400 "Sandstone" "Shale" -999.25  40.0000 60.00000     0.0 "vf/f"     "vf/f"     "Tidevannskanal"                                                  "Verikal_oppbygging_av_tidevannsdominert_delta_front"
4610.4 "6506_12-6"  79.1500 "Sandstone" "Shale" -999.25  40.0000 60.00000     0.0 "vf/f"     "vf/f"     "Tidevannskanal"                                                  "Verikal_oppbygging_av_tidevannsdominert_delta_front"
4610.5 "6506_12-6"  83.6600 "Sandstone" "Shale" -999.25  40.0000 60.00000     0.0 "vf/f"     "vf/f"     "Tidevannskanal"                                                  "Verikal_oppbygging_av_tidevannsdominert_delta_front"
4610.6 "6506_12-6"  88.1700 "Sandstone" "Shale" -999.25  40.0000 60.00000     0.0 "vf/f"     "vf/f"     "Tidevannskanal"                                                  "Verikal_oppbygging_av_tidevannsdominert_delta_front"
4610.7 "6506_12-6"  92.6800 "Sandstone" "Shale" -999.25  40.0000 60.00000     0.0 "vf/f"     "vf/f"     "Tidevannskanal"                                                  "Verikal_oppbygging_av_tidevannsdominert_delta_front"
4610.8 "6506_12-6"  94.1700 "Sandstone" "Shale" -999.25  40.0000 60.00000     0.0 "vf/f"     "vf/f"     "Tidevannskanal"                                                  "Verikal_oppbygging_av_tidevannsdominert_delta_front"
4610.9 "6506_12-6"  94.5400 "Sandstone" "Shale" -999.25  40.0000 60.00000     0.0 "vf/f"     "vf/f"     "Tidevannskanal"                                                  "Verikal_oppbygging_av_tidevannsdominert_delta_front"
4611.0 "6506_12-6"  94.9100 "Sandstone" "Shale" -999.25  65.0000 35.00000     0.0 "vf/f"     "vf/f"     "Tidevannskanal"                                                  "Verikal_oppbygging_av_tidevannsdominert_delta_front"
4611.1 "6506_12-6"  95.2700 "Sandstone" "Shale" -999.25  65.0000 35.00000     0.0 "vf/f"     "vf/f"     "Tidevannskanal"                                                  "Verikal_oppbygging_av_tidevannsdominert_delta_front"
4611.2 "6506_12-6"  95.6400 "Sandstone" "Shale" -999.25  65.0000 35.00000     0.0 "vf/f"     "vf/f"     "Tidevannskanal"                                                  "Verikal_oppbygging_av_tidevannsdominert_delta_front"
4611.3 "6506_12-6"  96.6300 "Sandstone" "Shale" -999.25  65.0000 35.00000     0.0 "vf/f"     "vf/f"     "Tidevannskanal"                                                  "Verikal_oppbygging_av_tidevannsdominert_delta_front"
4611.4 "6506_12-6"  98.5100 "Sandstone" "Shale" -999.25  65.0000 35.00000     0.0 "vf/f"     "vf/f"     "Tidevannskanal"                                                  "Verikal_oppbygging_av_tidevannsdominert_delta_front"
4611.5 "6506_12-6" 100.3900 "Sandstone" "Shale" -999.25  65.0000 35.00000     0.0 "vf/f"     "vf/f"     "Tidevannskanal"                                                  "Verikal_oppbygging_av_tidevannsdominert_delta_front"
4611.6 "6506_12-6" 102.2700 "Sandstone" "Shale" -999.25  65.0000 35.00000     0.0 "vf/f"     "vf/f"     "Tidevannskanal"                                                  "Verikal_oppbygging_av_tidevannsdominert_delta_front"
4611.7 "6506_12-6" 104.1500 "Sandstone" "Shale" -999.25  65.0000 35.00000     0.0 "vf/f"     "vf/f"     "Tidevannskanal"                                                  "Verikal_oppbygging_av_tidevannsdominert_delta_front"
4611.8 "6506_12-6" 108.4700 "Sandstone" "Shale" -999.25  65.0000 35.00000     0.0 "vf/f"     "vf/f"     "Tidevannskanal"                                                  "Verikal_oppbygging_av_tidevannsdominert_delta_front"
4611.9 "6506_12-6" 113.3700 "Sandstone" "Shale" -999.25  65.0000 35.00000     0.0 "vf/f"     "vf/f"     "Tidevannskanal"                                                  "Verikal_oppbygging_av_tidevannsdominert_delta_front"
4612.0 "6506_12-6" 118.2700 "Sandstone" "Shale" -999.25  65.0000 35.00000     0.0 "vf/f"     "vf/f"     "Tidevannskanal"                                                  "Verikal_oppbygging_av_tidevannsdominert_delta_front"
4612.1 "6506_12-6" 121.4300 "Sandstone" "Shale" -999.25  65.0000 35.00000     0.0 "vf/f"     "vf/f"     "Tidevannskanal"                                                  "Verikal_oppbygging_av_tidevannsdominert_delta_front"
4612.2 "6506_12-6" 123.5000 "Sandstone" "Shale" -999.25  65.0000 35.00000     0.0 "vf/f"     "vf/f"     "Tidevannskanal"                                                  "Verikal_oppbygging_av_tidevannsdominert_delta_front"
4612.3 "6506_12-6" 125.5600 "Sandstone" "Shale" -999.25  65.0000 35.00000     0.0 "vf/f"     "vf/f"     "Tidevannskanal"                                                  "Verikal_oppbygging_av_tidevannsdominert_delta_front"
4612.4 "6506_12-6" 127.4000 "Sandstone" "Shale" -999.25  65.0000 35.00000     0.0 "vf/f"     "vf/f"     "Tidevannskanal"                                                  "Verikal_oppbygging_av_tidevannsdominert_delta_front"
4612.5 "6506_12-6" 128.5700 "Sandstone" "Shale" -999.25  65.0000 35.00000     0.0 "vf/f"     "vf/f"     "Tidevannskanal"                                                  "Verikal_oppbygging_av_tidevannsdominert_delta_front"
4612.6 "6506_12-6" 128.6800 "Sandstone" "Shale" -999.25  65.0000 35.00000     0.0 "vf/f"     "vf/f"     "Tidevannskanal"                                                  "Verikal_oppbygging_av_tidevannsdominert_delta_front"
4612.7 "6506_12-6" 128.8000 "Sandstone" "Shale" -999.25  65.0000 35.00000     0.0 "vf/f"     "vf/f"     "Tidevannskanal"                                                  "Verikal_oppbygging_av_tidevannsdominert_delta_front"
4612.8 "6506_12-6" 129.4200 "Sandstone" "Shale" -999.25  65.0000 35.00000     0.0 "vf/f"     "vf/f"     "Tidevannskanal"                                                  "Verikal_oppbygging_av_tidevannsdominert_delta_front"
4612.9 "6506_12-6" 130.1100 "Sandstone" "Shale" -999.25  65.0000 35.00000     0.0 "vf/f"     "vf/f"     "Tidevannskanal"                                                  "Verikal_oppbygging_av_tidevannsdominert_delta_front"
4613.0 "6506_12-6" 130.7000 "Sandstone" "Shale" -999.25  65.0000 35.00000     0.0 "vf/f"     "vf/f"     "Tidevannskanal"                                                  "Verikal_oppbygging_av_tidevannsdominert_delta_front"
4613.1 "6506_12-6" 129.4200 "Sandstone" "Shale" -999.25  65.0000 35.00000     0.0 "vf/f"     "vf/f"     "Tidevannskanal"                                                  "Verikal_oppbygging_av_tidevannsdominert_delta_front"
4613.2 "6506_12-6" 128.1400 "Sandstone" "Shale" -999.25  65.0000 35.00000     0.0 "vf/f"     "vf/f"     "Subtidale_sandbanker"                                            "Verikal_oppbygging_av_tidevannsdominert_delta_front"
4613.3 "6506_12-6" 125.6300 "Sandstone" "Shale" -999.25  65.0000 35.00000     0.0 "vf/f"     "vf/f"     "Subtidale_sandbanker"                                            "Verikal_oppbygging_av_tidevannsdominert_delta_front"
4613.4 "6506_12-6" 118.5300 "Sandstone" "Shale" -999.25  65.0000 35.00000     0.0 "vf/f"     "vf/f"     "Subtidale_sandbanker"                                            "Verikal_oppbygging_av_tidevannsdominert_delta_front"
4613.5 "6506_12-6" 111.4400 "Sandstone" "Shale" -999.25  65.0000 35.00000     0.0 "vf/f"     "vf/f"     "Subtidale_sandbanker"                                            "Verikal_oppbygging_av_tidevannsdominert_delta_front"
4613.6 "6506_12-6" 104.3500 "Sandstone" "Shale" -999.25  65.0000 35.00000     0.0 "vf/f"     "vf/f"     "Subtidale_sandbanker"                                            "Verikal_oppbygging_av_tidevannsdominert_delta_front"
4613.7 "6506_12-6"  97.2600 "Sandstone" "Shale" -999.25  65.0000 35.00000     0.0 "vf/f"     "vf/f"     "Subtidale_sandbanker"                                            "Verikal_oppbygging_av_tidevannsdominert_delta_front"
