~Version
VERS  .                                 3.0 : CWLS LAS ASCII Standard - Version 3.0
WRAP  . NO                                  : One line per depth step
DLM   . SPACE                               : Column data section delimiter
SOURCE. Converted to LAS by Log Studio 4.76 : GeoProvider

~Well
STRT.         4184.0 : Start depth
STOP.         4634.6 : Stop depth
STEP.              1 : Step
NULL.        -999.25 : No-value
COMP.                : Company
WELL. 6506/12-6      : Well
FLD .                : Field
LOC .                : Location
LATI.                : Latitude
LONG.                : Longitude
GDAT.                : Geodetic datum
CNTY.                : County
STAT.                : State
CTRY.                : Country
SRVC. GeoProvider AS : Service company
DATE.                : Date
API .                : API number
RUN .                : Run number

~Parameters
WellboreName.  : Wellbore name
RigName     .  : Rig name
StartDate   .  : Start date

~Curves
DEPTH.m            .  : null {F}Depth mMD
Hole_ID.-          .  : null {S}Hole ID
GR.API             .  : null {F}Gamma Ray
Lithology1.-       .  : null {S}Lithology 1
Lithology2.-       .  : null {S}Lithology 2
Lithology3.-       .  : null {S}Lithology 3
Lithology1.%       .  : null {F}Lithology 1 percentage
Lithology2.%       .  : null {F}Lithology 2 percentage
Lithology3.%       .  : null {F}Lithology 3 percentage
Grain_size_Top.-   .  : null {S}Grain size at the top 
Grain_size_Base.-  .  : null {S}Grain size at the bottom
Sub_Environment.-  .  : null {S}Sub Environment
Gross_Environment.-.  : null {S}Gross Environment

~Ascii
# ...
4498.4 "6506_12-6" 110.3800 "Sandstone" "Shale" -999.25  20.0000 80.00000     0.0 "silt/vf"  "vf"       "Åpen_marine/_distal_marine_facies"                               "Distal_marin_(prodelta)"                           
4498.5 "6506_12-6" 110.3800 "Sandstone" "Shale" -999.25  20.0000 80.00000     0.0 "silt/vf"  "vf"       "Åpen_marine/_distal_marine_facies"                               "Distal_marin_(prodelta)"                           
4498.6 "6506_12-6" 110.3800 "Sandstone" "Shale" -999.25  20.0000 80.00000     0.0 "silt/vf"  "vf"       "Åpen_marine/_distal_marine_facies"                               "Distal_marin_(prodelta)"                           
4498.7 "6506_12-6" 110.2500 "Sandstone" "Shale" -999.25  20.0000 80.00000     0.0 "silt/vf"  "vf"       "Åpen_marine/_distal_marine_facies"                               "Distal_marin_(prodelta)"                           
4498.8 "6506_12-6" 110.3500 "Sandstone" "Shale" -999.25  20.0000 80.00000     0.0 "silt/vf"  "vf"       "Åpen_marine/_distal_marine_facies"                               "Distal_marin_(prodelta)"                           
4498.9 "6506_12-6" 111.4200 "Sandstone" "Shale" -999.25  20.0000 80.00000     0.0 "silt/vf"  "vf"       "Åpen_marine/_distal_marine_facies"                               "Distal_marin_(prodelta)"                           
4499.0 "6506_12-6" 112.4900 "Sandstone" "Shale" -999.25  20.0000 80.00000     0.0 "silt/vf"  "vf"       "Åpen_marine/_distal_marine_facies"                               "Distal_marin_(prodelta)"                           
4499.1 "6506_12-6" 113.5600 "Sandstone" "Shale" -999.25  20.0000 80.00000     0.0 "silt/vf"  "vf"       "Åpen_marine/_distal_marine_facies"                               "Distal_marin_(prodelta)"                           
4499.2 "6506_12-6" 114.6300 "Sandstone" "Shale" -999.25  20.0000 80.00000     0.0 "silt/vf"  "vf"       "Åpen_marine/_distal_marine_facies"                               "Distal_marin_(prodelta)"                           
4499.3 "6506_12-6" 115.1400 "Sandstone" "Shale" -999.25  20.0000 80.00000     0.0 "silt/vf"  "vf"       "Åpen_marine/_distal_marine_facies"                               "Distal_marin_(prodelta)"                           
4499.4 "6506_12-6" 114.1700 "Sandstone" "Shale" -999.25  20.0000 80.00000     0.0 "silt/vf"  "vf"       "Åpen_marine/_distal_marine_facies"                               "Distal_marin_(prodelta)"                           
4499.5 "6506_12-6" 113.1900 "Sandstone" "Shale" -999.25  20.0000 80.00000     0.0 "silt/vf"  "vf"       "Åpen_marine/_distal_marine_facies"                               "Distal_marin_(prodelta)"                           
4499.6 "6506_12-6" 112.2200 "Sandstone" "Shale" -999.25  20.0000 80.00000     0.0 "silt/vf"  "vf"       "Åpen_marine/_distal_marine_facies"                               "Distal_marin_(prodelta)"                           
4499.7 "6506_12-6" 111.2500 "Sandstone" "Shale" -999.25  20.0000 80.00000     0.0 "silt/vf"  "vf"       "Åpen_marine/_distal_marine_facies"                               "Distal_marin_(prodelta)"                           
4499.8 "6506_12-6" 110.2700 "Sandstone" "Shale" -999.25  20.0000 80.00000     0.0 "silt/vf"  "vf"       "Åpen_marine/_distal_marine_facies"                               "Distal_marin_(prodelta)"                           
4499.9 "6506_12-6" 109.7200 "Sandstone" "Shale" -999.25  20.0000 80.00000     0.0 "silt/vf"  "vf"       "Åpen_marine/_distal_marine_facies"                               "Distal_marin_(prodelta)"                           
4500.0 "6506_12-6" 110.4600 "Sandstone" "Shale" -999.25  20.0000 80.00000     0.0 "silt/vf"  "vf"       "Åpen_marine/_distal_marine_facies"                               "Distal_marin_(prodelta)"                           
4500.1 "6506_12-6" 111.1900 "Sandstone" "Shale" -999.25  20.0000 80.00000     0.0 "silt/vf"  "vf"       "Åpen_marine/_distal_marine_facies"                               "Distal_marin_(prodelta)"                           
4500.2 "6506_12-6" 111.9300 "Sandstone" "Shale" -999.25  20.0000 80.00000     0.0 "silt/vf"  "vf"       "Åpen_marine/_distal_marine_facies"                               "Distal_marin_(prodelta)"                           
4500.3 "6506_12-6" 112.6700 "Sandstone" "Shale" -999.25  20.0000 80.00000     0.0 "silt/vf"  "vf"       "Åpen_marine/_distal_marine_facies"                               "Distal_marin_(prodelta)"                           
4500.4 "6506_12-6" 113.4000 "Sandstone" "Shale" -999.25  20.0000 80.00000     0.0 "silt/vf"  "vf"       "Åpen_marine/_distal_marine_facies"                               "Distal_marin_(prodelta)"                           
4500.5 "6506_12-6" 115.4700 "Sandstone" "Shale" -999.25  20.0000 80.00000     0.0 "silt/vf"  "vf"       "Åpen_marine/_distal_marine_facies"                               "Distal_marin_(prodelta)"                           
4500.6 "6506_12-6" 117.6400 "Sandstone" "Shale" -999.25  20.0000 80.00000     0.0 "silt/vf"  "vf"       "Åpen_marine/_distal_marine_facies"                               "Distal_marin_(prodelta)"                           
4500.7 "6506_12-6" 119.6000 "Sandstone" "Shale" -999.25  20.0000 80.00000     0.0 "silt/vf"  "vf"       "Åpen_marine/_distal_marine_facies"                               "Distal_marin_(prodelta)"                           
4500.8 "6506_12-6" 119.6800 "Sandstone" "Shale" -999.25  20.0000 80.00000     0.0 "silt/vf"  "vf"       "Åpen_marine/_distal_marine_facies"                               "Distal_marin_(prodelta)"                           
4500.9 "6506_12-6" 119.7600 "Sandstone" "Shale" -999.25  20.0000 80.00000     0.0 "silt/vf"  "vf"       "Åpen_marine/_distal_marine_facies"                               "Distal_marin_(prodelta)"                           
4501.0 "6506_12-6" 119.8400 "Sandstone" "Shale" -999.25  20.0000 80.00000     0.0 "silt/vf"  "vf"       "Åpen_marine/_distal_marine_facies"                               "Distal_marin_(prodelta)"                           
4501.1 "6506_12-6" 119.1200 "Sandstone" "Shale" -999.25  20.0000 80.00000     0.0 "silt/vf"  "vf"       "Åpen_marine/_distal_marine_facies"                               "Distal_marin_(prodelta)"                           
4501.2 "6506_12-6" 117.7500 "Sandstone" "Shale" -999.25  20.0000 80.00000     0.0 "silt/vf"  "vf"       "Åpen_marine/_distal_marine_facies"                               "Distal_marin_(prodelta)"                           
4501.3 "6506_12-6" 116.3800 "Sandstone" "Shale" -999.25  20.0000 80.00000     0.0 "silt/vf"  "vf"       "Åpen_marine/_distal_marine_facies"                               "Distal_marin_(prodelta)"                           
4501.4 "6506_12-6" 115.0100 "Sandstone" "Shale" -999.25  20.0000 80.00000     0.0 "silt/vf"  "vf"       "Åpen_marine/_distal_marine_facies"                               "Distal_marin_(prodelta)"                           
4501.5 "6506_12-6" 113.6400 "Sandstone" "Shale" -999.25  20.0000 80.00000     0.0 "silt/vf"  "vf"       "Åpen_marine/_distal_marine_facies"                               "Distal_marin_(prodelta)"                           
4501.6 "6506_12-6" 112.2700 "Sandstone" "Shale" -999.25  20.0000 80.00000     0.0 "silt/vf"  "vf"       "Åpen_marine/_distal_marine_facies"                               "Distal_marin_(prodelta)"                           
4501.7 "6506_12-6" 110.9100 "Sandstone" "Shale" -999.25  20.0000 80.00000     0.0 "silt/vf"  "vf"       "Åpen_marine/_distal_marine_facies"                               "Distal_marin_(prodelta)"                           
4501.8 "6506_12-6" 110.5100 "Sandstone" "Shale" -999.25  20.0000 80.00000     0.0 "silt/vf"  "vf"       "Åpen_marine/_distal_marine_facies"                               "Distal_marin_(prodelta)"                           
4501.9 "6506_12-6" 110.3200 "Sandstone" "Shale" -999.25  20.0000 80.00000     0.0 "silt/vf"  "vf"       "Åpen_marine/_distal_marine_facies"                               "Distal_marin_(prodelta)"                           
