~Version
VERS  .                                 3.0 : CWLS LAS ASCII Standard - Version 3.0
WRAP  . NO                                  : One line per depth step
DLM   . SPACE                               : Column data section delimiter
SOURCE. Converted to LAS by Log Studio 4.76 : GeoProvider

~Well
STRT.         4184.0 : Start depth
STOP.         4634.6 : Stop depth
STEP.              1 : Step
NULL.        -999.25 : No-value
COMP.                : Company
WELL. 6506/12-6      : Well
FLD .                : Field
LOC .                : Location
LATI.                : Latitude
LONG.                : Longitude
GDAT.                : Geodetic datum
CNTY.                : County
STAT.                : State
CTRY.                : Country
SRVC. GeoProvider AS : Service company
DATE.                : Date
API .                : API number
RUN .                : Run number

~Parameters
WellboreName.  : Wellbore name
RigName     .  : Rig name
StartDate   .  : Start date

~Curves
DEPTH.m            .  : null {F}Depth mMD
Hole_ID.-          .  : null {S}Hole ID
GR.API             .  : null {F}Gamma Ray
Lithology1.-       .  : null {S}Lithology 1
Lithology2.-       .  : null {S}Lithology 2
Lithology3.-       .  : null {S}Lithology 3
Lithology1.%       .  : null {F}Lithology 1 percentage
Lithology2.%       .  : null {F}Lithology 2 percentage
Lithology3.%       .  : null {F}Lithology 3 percentage
Grain_size_Top.-   .  : null {S}Grain size at the top 
Grain_size_Base.-  .  : null {S}Grain size at the bottom
Sub_Environment.-  .  : null {S}Sub Environment
Gross_Environment.-.  : null {S}Gross Environment

~Ascii
# ...
4355.8 "6506_12-6"  91.9500 "Sandstone" -999.25 -999.25 100.0000      0.0     0.0 "m"        "f/m"      "Subtidale_sandbanker_og_kanaler"                                 "Aggraderende_og_progradernede_delta_front"         
4355.9 "6506_12-6"  89.6500 "Sandstone" -999.25 -999.25 100.0000      0.0     0.0 "m"        "f/m"      "Subtidale_sandbanker_og_kanaler"                                 "Aggraderende_og_progradernede_delta_front"         
4356.0 "6506_12-6"  88.4700 "Sandstone" -999.25 -999.25 100.0000      0.0     0.0 "m"        "f/m"      "Subtidale_sandbanker_og_kanaler"                                 "Aggraderende_og_progradernede_delta_front"         
4356.1 "6506_12-6"  90.4100 "Sandstone" -999.25 -999.25 100.0000      0.0     0.0 "m"        "f/m"      "Subtidale_sandbanker_og_kanaler"                                 "Aggraderende_og_progradernede_delta_front"         
4356.2 "6506_12-6"  92.7800 "Sandstone" -999.25 -999.25 100.0000      0.0     0.0 "m"        "f/m"      "Subtidale_sandbanker_og_kanaler"                                 "Aggraderende_og_progradernede_delta_front"         
4356.3 "6506_12-6"  95.1400 "Sandstone" -999.25 -999.25 100.0000      0.0     0.0 "m"        "f/m"      "Subtidale_sandbanker_og_kanaler"                                 "Aggraderende_og_progradernede_delta_front"         
4356.4 "6506_12-6"  97.5100 "Sandstone" -999.25 -999.25 100.0000      0.0     0.0 "m"        "m"        "Subtidale_sandbanker_og_kanaler"                                 "Aggraderende_og_progradernede_delta_front"         
4356.5 "6506_12-6"  99.8800 "Sandstone" -999.25 -999.25 100.0000      0.0     0.0 "m"        "m"        "Subtidale_sandbanker_og_kanaler"                                 "Aggraderende_og_progradernede_delta_front"         
4356.6 "6506_12-6" 101.0600 "Sandstone" -999.25 -999.25 100.0000      0.0     0.0 "m"        "m"        "Subtidale_sandbanker_og_kanaler"                                 "Aggraderende_og_progradernede_delta_front"         
4356.7 "6506_12-6" 100.9100 "Sandstone" -999.25 -999.25 100.0000      0.0     0.0 "m"        "m"        "Subtidale_sandbanker_og_kanaler"                                 "Aggraderende_og_progradernede_delta_front"         
4356.8 "6506_12-6" 100.7700 "Sandstone" -999.25 -999.25 100.0000      0.0     0.0 "m"        "m"        "Subtidale_sandbanker_og_kanaler"                                 "Aggraderende_og_progradernede_delta_front"         
4356.9 "6506_12-6" 100.6300 "Sandstone" -999.25 -999.25 100.0000      0.0     0.0 "m/c"      "m/c"      "Subtidale_sandbanker_og_kanaler"                                 "Aggraderende_og_progradernede_delta_front"         
4357.0 "6506_12-6" 100.4900 "Sandstone" -999.25 -999.25 100.0000      0.0     0.0 "m/c"      "m/c"      "Subtidale_sandbanker_og_kanaler"                                 "Aggraderende_og_progradernede_delta_front"         
4357.1 "6506_12-6" 101.3900 "Sandstone" -999.25 -999.25 100.0000      0.0     0.0 "m/c"      "m/c"      "Subtidale_sandbanker_og_kanaler"                                 "Aggraderende_og_progradernede_delta_front"         
4357.2 "6506_12-6" 102.7700 "Sandstone" -999.25 -999.25 100.0000      0.0     0.0 "m/c"      "m/c"      "Subtidale_sandbanker_og_kanaler"                                 "Aggraderende_og_progradernede_delta_front"         
4357.3 "6506_12-6" 103.2300 "Sandstone" -999.25 -999.25 100.0000      0.0     0.0 "m/c"      "m/c"      "Subtidale_sandbanker_og_kanaler"                                 "Aggraderende_og_progradernede_delta_front"         
4357.4 "6506_12-6" 103.6800 "Sandstone" -999.25 -999.25 100.0000      0.0     0.0 "m/c"      "m/c"      "Subtidale_sandbanker_og_kanaler"                                 "Aggraderende_og_progradernede_delta_front"         
4357.5 "6506_12-6" 104.1400 "Sandstone" -999.25 -999.25 100.0000      0.0     0.0 "m/c"      "m/c"      "Subtidale_sandbanker_og_kanaler"                                 "Aggraderende_og_progradernede_delta_front"         
4357.6 "6506_12-6" 104.6000 "Sandstone" -999.25 -999.25 100.0000      0.0     0.0 "m/c"      "m/c"      "Subtidale_sandbanker_og_kanaler"                                 "Aggraderende_og_progradernede_delta_front"         
4357.7 "6506_12-6" 103.0900 "Sandstone" -999.25 -999.25 100.0000      0.0     0.0 "m/c"      "m/c"      "Subtidale_sandbanker_og_kanaler"                                 "Aggraderende_og_progradernede_delta_front"         
4357.8 "6506_12-6" 101.0100 "Sandstone" -999.25 -999.25 100.0000      0.0     0.0 "m/c"      "m/c"      "Subtidale_sandbanker_og_kanaler"                                 "Aggraderende_og_progradernede_delta_front"         
4357.9 "6506_12-6"  98.9300 "Sandstone" -999.25 -999.25 100.0000      0.0     0.0 "m/c"      "m/c"      "Subtidale_sandbanker_og_kanaler"                                 "Aggraderende_og_progradernede_delta_front"         
4358.0 "6506_12-6"  96.8500 "Sandstone" -999.25 -999.25 100.0000      0.0     0.0 "m/c"      "m/c"      "Subtidale_sandbanker_og_kanaler"                                 "Aggraderende_og_progradernede_delta_front"         
4358.1 "6506_12-6"  94.7700 "Sandstone" -999.25 -999.25 100.0000      0.0     0.0 "m/c"      "m/c"      "Subtidale_sandbanker_og_kanaler"                                 "Aggraderende_og_progradernede_delta_front"         
4358.2 "6506_12-6"  92.6900 "Sandstone" "Shale" -999.25  90.0000 10.00000     0.0 -999.25    -999.25    "Bøigedominat_og_tidevannsdominert_delta_front/_muningsbanke"     "Aggraderende_og_progradernede_delta_front"         
4358.3 "6506_12-6"  90.6100 "Sandstone" "Shale" -999.25  90.0000 10.00000     0.0 -999.25    -999.25    "Bøigedominat_og_tidevannsdominert_delta_front/_muningsbanke"     "Aggraderende_og_progradernede_delta_front"         
4358.4 "6506_12-6"  88.7300 "Sandstone" "Shale" -999.25  90.0000 10.00000     0.0 -999.25    -999.25    "Bøigedominat_og_tidevannsdominert_delta_front/_muningsbanke"     "Aggraderende_og_progradernede_delta_front"         
4358.5 "6506_12-6"  89.0100 "Sandstone" -999.25 -999.25 100.0000      0.0     0.0 "m/c"      "m/c"      "Bøigedominat_og_tidevannsdominert_delta_front/_muningsbanke"     "Aggraderende_og_progradernede_delta_front"         
4358.6 "6506_12-6"  89.2900 "Sandstone" -999.25 -999.25 100.0000      0.0     0.0 "m/c"      "m/c"      "Bøigedominat_og_tidevannsdominert_delta_front/_muningsbanke"     "Aggraderende_og_progradernede_delta_front"         
4358.7 "6506_12-6"  89.5700 "Sandstone" -999.25 -999.25 100.0000      0.0     0.0 "m/c"      "m/c"      "Bøigedominat_og_tidevannsdominert_delta_front/_muningsbanke"     "Aggraderende_og_progradernede_delta_front"         
4358.8 "6506_12-6"  89.8500 "Sandstone" -999.25 -999.25 100.0000      0.0     0.0 "m/c"      "m/c"      "Bøigedominat_og_tidevannsdominert_delta_front/_muningsbanke"     "Aggraderende_og_progradernede_delta_front"         
4358.9 "6506_12-6"  90.1200 "Sandstone" -999.25 -999.25 100.0000      0.0     0.0 "m/c"      "m/c"      "Bøigedominat_og_tidevannsdominert_delta_front/_muningsbanke"     "Aggraderende_og_progradernede_delta_front"         
4359.0 "6506_12-6"  90.0800 "Sandstone" -999.25 -999.25 100.0000      0.0     0.0 "m/c"      "m/c"      "Bøigedominat_og_tidevannsdominert_delta_front/_muningsbanke"     "Aggraderende_og_progradernede_delta_front"         
4359.1 "6506_12-6"  85.8000 "Sandstone" -999.25 -999.25 100.0000      0.0     0.0 "m/c"      "m/c"      "Bøigedominat_og_tidevannsdominert_delta_front/_muningsbanke"     "Aggraderende_og_progradernede_delta_front"         
4359.2 "6506_12-6"  81.6900 "Sandstone" -999.25 -999.25 100.0000      0.0     0.0 "m"        "m/c"      "Bøigedominat_og_tidevannsdominert_delta_front/_muningsbanke"     "Aggraderende_og_progradernede_delta_front"         
4359.3 "6506_12-6"  80.2700 "Sandstone" -999.25 -999.25 100.0000      0.0     0.0 "m"        "m/c"      "Bøigedominat_og_tidevannsdominert_delta_front/_muningsbanke"     "Aggraderende_og_progradernede_delta_front"         
