~Version
VERS  .                                 3.0 : CWLS LAS ASCII Standard - Version 3.0
WRAP  . NO                                  : One line per depth step
DLM   . SPACE                               : Column data section delimiter
SOURCE. Converted to LAS by Log Studio 4.76 : GeoProvider

~Well
STRT.         4184.0 : Start depth
STOP.         4634.6 : Stop depth
STEP.              1 : Step
NULL.        -999.25 : No-value
COMP.                : Company
WELL. 6506/12-6      : Well
FLD .                : Field
LOC .                : Location
LATI.                : Latitude
LONG.                : Longitude
GDAT.                : Geodetic datum
CNTY.                : County
STAT.                : State
CTRY.                : Country
SRVC. GeoProvider AS : Service company
DATE.                : Date
API .                : API number
RUN .                : Run number

~Parameters
WellboreName.  : Wellbore name
RigName     .  : Rig name
StartDate   .  : Start date

~Curves
DEPTH.m            .  : null {F}Depth mMD
Hole_ID.-          .  : null {S}Hole ID
GR.API             .  : null {F}Gamma Ray
Lithology1.-       .  : null {S}Lithology 1
Lithology2.-       .  : null {S}Lithology 2
Lithology3.-       .  : null {S}Lithology 3
Lithology1.%       .  : null {F}Lithology 1 percentage
Lithology2.%       .  : null {F}Lithology 2 percentage
Lithology3.%       .  : null {F}Lithology 3 percentage
Grain_size_Top.-   .  : null {S}Grain size at the top 
Grain_size_Base.-  .  : null {S}Grain size at the bottom
Sub_Environment.-  .  : null {S}Sub Environment
Gross_Environment.-.  : null {S}Gross Environment

~Ascii
# ...
4447.7 "6506_12-6"  79.9000 "Sandstone" "Shale" -999.25  80.0000 20.00000     0.0 "f"        "vf"       "Åpen_marin"                                                      "Distal_marin_(prodelta)"                           
4447.8 "6506_12-6"  81.1500 "Sandstone" "Shale" -999.25  80.0000 20.00000     0.0 "f"        "vf"       "Åpen_marin"                                                      "Distal_marin_(prodelta)"                           
4447.9 "6506_12-6"  82.4100 "Sandstone" "Shale" -999.25  80.0000 20.00000     0.0 "f"        "vf"       "Åpen_marin"                                                      "Distal_marin_(prodelta)"                           
4448.0 "6506_12-6"  83.6000 "Sandstone" "Shale" -999.25  80.0000 20.00000     0.0 "f"        "vf"       "Åpen_marin"                                                      "Distal_marin_(prodelta)"                           
4448.1 "6506_12-6"  83.9900 "Sandstone" "Shale" -999.25  80.0000 20.00000     0.0 "f"        "vf"       "Åpen_marin"                                                      "Distal_marin_(prodelta)"                           
4448.2 "6506_12-6"  82.9600 "Sandstone" "Shale" -999.25  80.0000 20.00000     0.0 "f"        "vf"       "Åpen_marin"                                                      "Distal_marin_(prodelta)"                           
4448.3 "6506_12-6"  81.1600 "Sandstone" "Shale" -999.25  80.0000 20.00000     0.0 "f"        "vf"       "Åpen_marin"                                                      "Distal_marin_(prodelta)"                           
4448.4 "6506_12-6"  79.3600 "Sandstone" "Shale" -999.25  80.0000 20.00000     0.0 "f"        "vf"       "Åpen_marin"                                                      "Distal_marin_(prodelta)"                           
4448.5 "6506_12-6"  77.5600 "Sandstone" "Shale" -999.25  80.0000 20.00000     0.0 "f"        "vf"       "Åpen_marin"                                                      "Distal_marin_(prodelta)"                           
4448.6 "6506_12-6"  75.7500 "Sandstone" "Shale" -999.25  80.0000 20.00000     0.0 "f"        "vf"       "Åpen_marin"                                                      "Distal_marin_(prodelta)"                           
4448.7 "6506_12-6"  74.5700 "Sandstone" "Shale" -999.25  80.0000 20.00000     0.0 "f"        "vf"       "Åpen_marin"                                                      "Distal_marin_(prodelta)"                           
4448.8 "6506_12-6"  73.6700 "Sandstone" "Shale" -999.25  80.0000 20.00000     0.0 "f"        "vf"       "Åpen_marin"                                                      "Distal_marin_(prodelta)"                           
4448.9 "6506_12-6"  72.7700 "Sandstone" "Shale" -999.25  80.0000 20.00000     0.0 "f"        "vf"       "Åpen_marin"                                                      "Distal_marin_(prodelta)"                           
4449.0 "6506_12-6"  71.8700 "Sandstone" "Shale" -999.25  80.0000 20.00000     0.0 "f"        "vf"       "Åpen_marin"                                                      "Distal_marin_(prodelta)"                           
4449.1 "6506_12-6"  70.9700 "Sandstone" "Shale" -999.25  80.0000 20.00000     0.0 "f"        "vf"       "Åpen_marin"                                                      "Distal_marin_(prodelta)"                           
4449.2 "6506_12-6"  71.6700 "Sandstone" "Shale" -999.25  80.0000 20.00000     0.0 "f"        "vf"       "Åpen_marin"                                                      "Distal_marin_(prodelta)"                           
4449.3 "6506_12-6"  72.9500 "Sandstone" "Shale" -999.25  80.0000 20.00000     0.0 "f"        "vf"       "Åpen_marin"                                                      "Distal_marin_(prodelta)"                           
4449.4 "6506_12-6"  74.2400 "Sandstone" "Shale" -999.25  80.0000 20.00000     0.0 "f"        "vf"       "Åpen_marin"                                                      "Distal_marin_(prodelta)"                           
4449.5 "6506_12-6"  75.5300 "Sandstone" "Shale" -999.25  80.0000 20.00000     0.0 "f"        "vf"       "Åpen_marin"                                                      "Distal_marin_(prodelta)"                           
4449.6 "6506_12-6"  76.1200 "Sandstone" "Shale" -999.25  80.0000 20.00000     0.0 "f"        "vf"       "Åpen_marin"                                                      "Distal_marin_(prodelta)"                           
4449.7 "6506_12-6"  76.5600 "Sandstone" "Shale" -999.25  80.0000 20.00000     0.0 "f"        "vf"       "Åpen_marin"                                                      "Distal_marin_(prodelta)"                           
4449.8 "6506_12-6"  77.0100 "Sandstone" "Shale" -999.25  80.0000 20.00000     0.0 "f"        "vf"       "Åpen_marin"                                                      "Distal_marin_(prodelta)"                           
4449.9 "6506_12-6"  77.4500 "Sandstone" "Shale" -999.25  80.0000 20.00000     0.0 "f"        "vf"       "Åpen_marin"                                                      "Distal_marin_(prodelta)"                           
4450.0 "6506_12-6"  77.8900 "Sandstone" "Shale" -999.25  80.0000 20.00000     0.0 "f"        "vf"       "Åpen_marin"                                                      "Distal_marin_(prodelta)"                           
4450.1 "6506_12-6"  78.4900 "Sandstone" "Shale" -999.25  80.0000 20.00000     0.0 "f"        "vf"       "Åpen_marin"                                                      "Distal_marin_(prodelta)"                           
4450.2 "6506_12-6"  79.9100 "Sandstone" "Shale" -999.25  80.0000 20.00000     0.0 "f"        "vf"       "Åpen_marin"                                                      "Distal_marin_(prodelta)"                           
4450.3 "6506_12-6"  81.3300 "Sandstone" "Shale" -999.25  80.0000 20.00000     0.0 "f"        "vf"       "Åpen_marin"                                                      "Distal_marin_(prodelta)"                           
4450.4 "6506_12-6"  82.7500 "Sandstone" "Shale" -999.25  80.0000 20.00000     0.0 "f"        "vf"       "Åpen_marin"                                                      "Distal_marin_(prodelta)"                           
4450.5 "6506_12-6"  84.1700 "Sandstone" "Shale" -999.25  80.0000 20.00000     0.0 "f"        "vf"       "Åpen_marin"                                                      "Distal_marin_(prodelta)"                           
4450.6 "6506_12-6"  85.5800 "Sandstone" "Shale" -999.25  80.0000 20.00000     0.0 "f"        "vf"       "Åpen_marin"                                                      "Distal_marin_(prodelta)"                           
4450.7 "6506_12-6"  85.1900 "Sandstone" "Shale" -999.25  80.0000 20.00000     0.0 "f"        "vf"       "Åpen_marin"                                                      "Distal_marin_(prodelta)"                           
4450.8 "6506_12-6"  84.4500 "Sandstone" "Shale" -999.25  80.0000 20.00000     0.0 "f"        "vf"       "Distal_marine_facies,_Lav-energi_forhold"                        "Distal_marin_(prodelta)"                           
4450.9 "6506_12-6"  83.7100 "Sandstone" "Shale" -999.25  80.0000 20.00000     0.0 "f"        "vf"       "Distal_marine_facies,_Lav-energi_forhold"                        "Distal_marin_(prodelta)"                           
4451.0 "6506_12-6"  82.9800 "Sandstone" "Shale" -999.25  80.0000 20.00000     0.0 "f"        "vf"       "Distal_marine_facies,_Lav-energi_forhold"                        "Distal_marin_(prodelta)"                           
4451.1 "6506_12-6"  82.2400 "Sandstone" "Shale" -999.25  80.0000 20.00000     0.0 "f"        "vf"       "Distal_marine_facies,_Lav-energi_forhold"                        "Distal_marin_(prodelta)"                           
4451.2 "6506_12-6"  81.8300 "Sandstone" "Shale" -999.25  80.0000 20.00000     0.0 "f"        "vf"       "Distal_marine_facies,_Lav-energi_forhold"                        "Distal_marin_(prodelta)"                           
