~Version
VERS  .                                 3.0 : CWLS LAS ASCII Standard - Version 3.0
WRAP  . NO                                  : One line per depth step
DLM   . SPACE                               : Column data section delimiter
SOURCE. Converted to LAS by Log Studio 4.76 : GeoProvider

~Well
STRT.         4184.0 : Start depth
STOP.         4634.6 : Stop depth
STEP.              1 : Step
NULL.        -999.25 : No-value
COMP.                : Company
WELL. 6506/12-6      : Well
FLD .                : Field
LOC .                : Location
LATI.                : Latitude
LONG.                : Longitude
GDAT.                : Geodetic datum
CNTY.                : County
STAT.                : State
CTRY.                : Country
SRVC. GeoProvider AS : Service company
DATE.                : Date
API .                : API number
RUN .                : Run number

~Parameters
WellboreName.  : Wellbore name
RigName     .  : Rig name
StartDate   .  : Start date

~Curves
DEPTH.m            .  : null {F}Depth mMD
Hole_ID.-          .  : null {S}Hole ID
GR.API             .  : null {F}Gamma Ray
Lithology1.-       .  : null {S}Lithology 1
Lithology2.-       .  : null {S}Lithology 2
Lithology3.-       .  : null {S}Lithology 3
Lithology1.%       .  : null {F}Lithology 1 percentage
Lithology2.%       .  : null {F}Lithology 2 percentage
Lithology3.%       .  : null {F}Lithology 3 percentage
Grain_size_Top.-   .  : null {S}Grain size at the top 
Grain_size_Base.-  .  : null {S}Grain size at the bottom
Sub_Environment.-  .  : null {S}Sub Environment
Gross_Environment.-.  : null {S}Gross Environment

~Ascii
# ...
4246.5 "6506_12-6"  83.8800 "Sandstone" -999.25 -999.25 100.0000      0.0     0.0 "f/m"      "f/m"      "Distal_"braid"_delta_front"                                      "Prograderende_"braid"_-_delta_front"               
4246.6 "6506_12-6"  87.2900 "Sandstone" -999.25 -999.25 100.0000      0.0     0.0 "f/m"      "f/m"      "Distal_"braid"_delta_front"                                      "Prograderende_"braid"_-_delta_front"               
4246.7 "6506_12-6"  90.7100 "Sandstone" -999.25 -999.25 100.0000      0.0     0.0 "f/m"      "f/m"      "Distal_"braid"_delta_front"                                      "Prograderende_"braid"_-_delta_front"               
4246.8 "6506_12-6"  92.0700 "Sandstone" -999.25 -999.25 100.0000      0.0     0.0 "f/m"      "f/m"      "Distal_"braid"_delta_front"                                      "Prograderende_"braid"_-_delta_front"               
4246.9 "6506_12-6"  93.3300 "Sandstone" -999.25 -999.25 100.0000      0.0     0.0 "f/m"      "f/m"      "Distal_"braid"_delta_front"                                      "Prograderende_"braid"_-_delta_front"               
4247.0 "6506_12-6"  93.4300 "Sandstone" -999.25 -999.25 100.0000      0.0     0.0 "f/m"      "f/m"      "Distal_"braid"_delta_front"                                      "Prograderende_"braid"_-_delta_front"               
4247.1 "6506_12-6"  88.4000 "Sandstone" -999.25 -999.25 100.0000      0.0     0.0 "f/m"      "f/m"      "Distal_"braid"_delta_front"                                      "Prograderende_"braid"_-_delta_front"               
4247.2 "6506_12-6"  84.9300 "Sandstone" -999.25 -999.25 100.0000      0.0     0.0 "f/m"      "f/m"      "Distal_"braid"_delta_front"                                      "Prograderende_"braid"_-_delta_front"               
4247.3 "6506_12-6"  81.8400 "Sandstone" -999.25 -999.25 100.0000      0.0     0.0 "f/m"      "f/m"      "Distal_"braid"_delta_front"                                      "Prograderende_"braid"_-_delta_front"               
4247.4 "6506_12-6"  78.8600 "Sandstone" -999.25 -999.25 100.0000      0.0     0.0 "f/m"      "f/m"      "Distal_"braid"_delta_front"                                      "Prograderende_"braid"_-_delta_front"               
4247.5 "6506_12-6"  78.9200 "Sandstone" -999.25 -999.25 100.0000      0.0     0.0 "c/vc"     "c/vc"     "Distal_"braid"_delta_front"                                      "Prograderende_"braid"_-_delta_front"               
4247.6 "6506_12-6"  78.9700 "Sandstone" -999.25 -999.25 100.0000      0.0     0.0 "c/vc"     "c/vc"     "Distal_"braid"_delta_front"                                      "Prograderende_"braid"_-_delta_front"               
4247.7 "6506_12-6"  79.0300 "Sandstone" -999.25 -999.25 100.0000      0.0     0.0 "c/vc"     "c/vc"     "Distal_"braid"_delta_front"                                      "Prograderende_"braid"_-_delta_front"               
4247.8 "6506_12-6"  79.0800 "Sandstone" -999.25 -999.25 100.0000      0.0     0.0 "f/m"      "f/m"      "Distal_"braid"_delta_front"                                      "Prograderende_"braid"_-_delta_front"               
4247.9 "6506_12-6"  79.3900 "Sandstone" -999.25 -999.25 100.0000      0.0     0.0 "f/m"      "f/m"      "Distal_"braid"_delta_front"                                      "Prograderende_"braid"_-_delta_front"               
4248.0 "6506_12-6"  80.7300 "Sandstone" -999.25 -999.25 100.0000      0.0     0.0 "f/m"      "f/m"      "Distal_"braid"_delta_front"                                      "Prograderende_"braid"_-_delta_front"               
4248.1 "6506_12-6"  82.0600 "Sandstone" -999.25 -999.25 100.0000      0.0     0.0 "f/m"      "f/m"      "Distal_"braid"_delta_front"                                      "Prograderende_"braid"_-_delta_front"               
4248.2 "6506_12-6"  83.4000 "Sandstone" -999.25 -999.25 100.0000      0.0     0.0 "f/m"      "f/m"      "Distal_"braid"_delta_front"                                      "Prograderende_"braid"_-_delta_front"               
4248.3 "6506_12-6"  84.4100 "Sandstone" -999.25 -999.25 100.0000      0.0     0.0 "f/m"      "f/m"      "Distal_"braid"_delta_front"                                      "Prograderende_"braid"_-_delta_front"               
4248.4 "6506_12-6"  84.9200 "Sandstone" -999.25 -999.25 100.0000      0.0     0.0 "f/m"      "f/m"      "Distal_"braid"_delta_front"                                      "Prograderende_"braid"_-_delta_front"               
4248.5 "6506_12-6"  85.4400 "Sandstone" -999.25 -999.25 100.0000      0.0     0.0 "f/m"      "f/m"      "Distal_"braid"_delta_front"                                      "Prograderende_"braid"_-_delta_front"               
4248.6 "6506_12-6"  85.9500 "Sandstone" -999.25 -999.25 100.0000      0.0     0.0 "f/m"      "f/m"      "Distal_"braid"_delta_front"                                      "Prograderende_"braid"_-_delta_front"               
4248.7 "6506_12-6"  86.4700 "Sandstone" -999.25 -999.25 100.0000      0.0     0.0 "f/m"      "f/m"      "Distal_"braid"_delta_front"                                      "Prograderende_"braid"_-_delta_front"               
4248.8 "6506_12-6"  86.9800 "Sandstone" -999.25 -999.25 100.0000      0.0     0.0 "f/m"      "f/m"      "Distal_"braid"_delta_front"                                      "Prograderende_"braid"_-_delta_front"               
4248.9 "6506_12-6"  87.5000 "Sandstone" -999.25 -999.25 100.0000      0.0     0.0 "f/m"      "f/m"      "Distal_"braid"_delta_front"                                      "Prograderende_"braid"_-_delta_front"               
4249.0 "6506_12-6"  88.3000 "Sandstone" -999.25 -999.25 100.0000      0.0     0.0 "f/m"      "f/m"      "Distal_"braid"_delta_front"                                      "Prograderende_"braid"_-_delta_front"               
4249.1 "6506_12-6"  90.9000 "Sandstone" -999.25 -999.25 100.0000      0.0     0.0 "f/m"      "f/m"      "Distal_"braid"_delta_front"                                      "Prograderende_"braid"_-_delta_front"               
4249.2 "6506_12-6"  93.5000 "Sandstone" -999.25 -999.25 100.0000      0.0     0.0 "f/m"      "f/m"      "Distal_"braid"_delta_front"                                      "Prograderende_"braid"_-_delta_front"               
4249.3 "6506_12-6"  96.1100 "Sandstone" -999.25 -999.25 100.0000      0.0     0.0 "f/m"      "f/m"      "Distal_"braid"_delta_front"                                      "Prograderende_"braid"_-_delta_front"               
4249.4 "6506_12-6"  98.7100 "Sandstone" -999.25 -999.25 100.0000      0.0     0.0 "f/m"      "f/m"      "Distal_"braid"_delta_front"                                      "Prograderende_"braid"_-_delta_front"               
4249.5 "6506_12-6" 101.3100 "Sandstone" -999.25 -999.25 100.0000      0.0     0.0 "f/m"      "f/m"      "Distal_"braid"_delta_front"                                      "Prograderende_"braid"_-_delta_front"               
4249.6 "6506_12-6" 103.9200 "Sandstone" -999.25 -999.25 100.0000      0.0     0.0 "f/m"      "f/m"      "Distal_"braid"_delta_front"                                      "Prograderende_"braid"_-_delta_front"               
4249.7 "6506_12-6" 106.1400 "Sandstone" -999.25 -999.25 100.0000      0.0     0.0 "f/m"      "f/m"      "Distal_"braid"_delta_front"                                      "Prograderende_"braid"_-_delta_front"               
4249.8 "6506_12-6" 106.4500 "Sandstone" -999.25 -999.25 100.0000      0.0     0.0 "f/m"      "f/m"      "Distal_"braid"_delta_front"                                      "Prograderende_"braid"_-_delta_front"               
4249.9 "6506_12-6" 106.5500 "Sandstone" -999.25 -999.25 100.0000      0.0     0.0 "f/m"      "f/m"      "Distal_"braid"_delta_front"                                      "Prograderende_"braid"_-_delta_front"               
4250.0 "6506_12-6" 106.6400 "Sandstone" -999.25 -999.25 100.0000      0.0     0.0 "f/m"      "f/m"      "Distal_"braid"_delta_front"                                      "Prograderende_"braid"_-_delta_front"               
