~Version
VERS  .                                 3.0 : CWLS LAS ASCII Standard - Version 3.0
WRAP  . NO                                  : One line per depth step
DLM   . SPACE                               : Column data section delimiter
SOURCE. Converted to LAS by Log Studio 4.76 : GeoProvider

~Well
STRT.         4184.0 : Start depth
STOP.         4634.6 : Stop depth
STEP.              1 : Step
NULL.        -999.25 : No-value
COMP.                : Company
WELL. 6506/12-6      : Well
FLD .                : Field
LOC .                : Location
LATI.                : Latitude
LONG.                : Longitude
GDAT.                : Geodetic datum
CNTY.                : County
STAT.                : State
CTRY.                : Country
SRVC. GeoProvider AS : Service company
DATE.                : Date
API .                : API number
RUN .                : Run number

~Parameters
WellboreName.  : Wellbore name
RigName     .  : Rig name
StartDate   .  : Start date

~Curves
DEPTH.m            .  : null {F}Depth mMD
Hole_ID.-          .  : null {S}Hole ID
GR.API             .  : null {F}Gamma Ray
Lithology1.-       .  : null {S}Lithology 1
Lithology2.-       .  : null {S}Lithology 2
Lithology3.-       .  : null {S}Lithology 3
Lithology1.%       .  : null {F}Lithology 1 percentage
Lithology2.%       .  : null {F}Lithology 2 percentage
Lithology3.%       .  : null {F}Lithology 3 percentage
Grain_size_Top.-   .  : null {S}Grain size at the top 
Grain_size_Base.-  .  : null {S}Grain size at the bottom
Sub_Environment.-  .  : null {S}Sub Environment
Gross_Environment.-.  : null {S}Gross Environment

~Ascii
# ...
4465.7 "6506_12-6"  68.3000 "Sandstone" "Shale" -999.25  97.0000  3.00000     0.0 "vc"       "vc"       "Proksimal__"braid"_-_delta_front_kompleks"                       "Progradernede_og_retrograder_"braid"_delta_kompleks"
4465.8 "6506_12-6"  70.0900 "Sandstone" "Shale" -999.25  97.0000  3.00000     0.0 "vc"       "vc"       "Proksimal__"braid"_-_delta_front_kompleks"                       "Progradernede_og_retrograder_"braid"_delta_kompleks"
4465.9 "6506_12-6"  71.8800 "Sandstone" "Shale" -999.25  97.0000  3.00000     0.0 "vc"       "vc"       "Proksimal__"braid"_-_delta_front_kompleks"                       "Progradernede_og_retrograder_"braid"_delta_kompleks"
4466.0 "6506_12-6"  75.1900 "Sandstone" "Shale" -999.25  97.0000  3.00000     0.0 "vc"       "vc"       "Proksimal__"braid"_-_delta_front_kompleks"                       "Progradernede_og_retrograder_"braid"_delta_kompleks"
4466.1 "6506_12-6"  80.8400 "Sandstone" "Shale" -999.25  97.0000  3.00000     0.0 "vc"       "vc"       "Proksimal__"braid"_-_delta_front_kompleks"                       "Progradernede_og_retrograder_"braid"_delta_kompleks"
4466.2 "6506_12-6"  84.9400 "Sandstone" "Shale" -999.25  97.0000  3.00000     0.0 "vc"       "vc"       "Proksimal__"braid"_-_delta_front_kompleks"                       "Progradernede_og_retrograder_"braid"_delta_kompleks"
4466.3 "6506_12-6"  84.8600 "Sandstone" "Shale" -999.25  97.0000  3.00000     0.0 "vc"       "vc"       "Proksimal__"braid"_-_delta_front_kompleks"                       "Progradernede_og_retrograder_"braid"_delta_kompleks"
4466.4 "6506_12-6"  84.7700 "Sandstone" "Shale" -999.25  97.0000  3.00000     0.0 "vc"       "vc"       "Proksimal__"braid"_-_delta_front_kompleks"                       "Progradernede_og_retrograder_"braid"_delta_kompleks"
4466.5 "6506_12-6"  84.4400 "Sandstone" "Shale" -999.25  97.0000  3.00000     0.0 "vc"       "vc"       "Proksimal__"braid"_-_delta_front_kompleks"                       "Progradernede_og_retrograder_"braid"_delta_kompleks"
4466.6 "6506_12-6"  81.2900 "Sandstone" "Shale" -999.25  95.0000  5.00000     0.0 "vc/granule" "vc"       "Proksimal__"braid"_-_delta_front_kompleks"                       "Progradernede_og_retrograder_"braid"_delta_kompleks"
4466.7 "6506_12-6"  78.1400 "Sandstone" "Shale" -999.25  95.0000  5.00000     0.0 "vc/granule" "vc"       "Proksimal__"braid"_-_delta_front_kompleks"                       "Progradernede_og_retrograder_"braid"_delta_kompleks"
4466.8 "6506_12-6"  77.2400 "Sandstone" "Shale" -999.25  95.0000  5.00000     0.0 "vc/granule" "vc"       "Proksimal__"braid"_-_delta_front_kompleks"                       "Progradernede_og_retrograder_"braid"_delta_kompleks"
4466.9 "6506_12-6"  76.7300 "Sandstone" "Shale" -999.25  95.0000  5.00000     0.0 "vc/granule" "vc"       "Proksimal__"braid"_-_delta_front_kompleks"                       "Progradernede_og_retrograder_"braid"_delta_kompleks"
4467.0 "6506_12-6"  77.5200 "Sandstone" "Shale" -999.25  95.0000  5.00000     0.0 "vc/granule" "vc"       "Proksimal__"braid"_-_delta_front_kompleks"                       "Progradernede_og_retrograder_"braid"_delta_kompleks"
4467.1 "6506_12-6"  78.2700 "Sandstone" "Shale" -999.25  95.0000  5.00000     0.0 "vc/granule" "vc"       "Proksimal__"braid"_-_delta_front_kompleks"                       "Progradernede_og_retrograder_"braid"_delta_kompleks"
4467.2 "6506_12-6"  78.2700 "Sandstone" "Shale" -999.25  95.0000  5.00000     0.0 "vc/granule" "vc"       "Proksimal__"braid"_-_delta_front_kompleks"                       "Progradernede_og_retrograder_"braid"_delta_kompleks"
4467.3 "6506_12-6"  78.2700 "Sandstone" "Shale" -999.25  95.0000  5.00000     0.0 "vc/granule" "vc"       "Proksimal__"braid"_-_delta_front_kompleks"                       "Progradernede_og_retrograder_"braid"_delta_kompleks"
4467.4 "6506_12-6"  78.2700 "Sandstone" "Shale" -999.25  95.0000  5.00000     0.0 "vc/granule" "vc"       "Proksimal__"braid"_-_delta_front_kompleks"                       "Progradernede_og_retrograder_"braid"_delta_kompleks"
4467.5 "6506_12-6"  77.4600 "Sandstone" "Shale" -999.25  95.0000  5.00000     0.0 "vc/granule" "vc"       "Proksimal__"braid"_-_delta_front_kompleks"                       "Progradernede_og_retrograder_"braid"_delta_kompleks"
4467.6 "6506_12-6"  75.8700 "Sandstone" "Shale" -999.25  95.0000  5.00000     0.0 "vc/granule" "vc"       "Proksimal__"braid"_-_delta_front_kompleks"                       "Progradernede_og_retrograder_"braid"_delta_kompleks"
4467.7 "6506_12-6"  74.1500 "Sandstone" "Shale" -999.25  95.0000  5.00000     0.0 "vc/granule" "vc"       "Proksimal__"braid"_-_delta_front_kompleks"                       "Progradernede_og_retrograder_"braid"_delta_kompleks"
4467.8 "6506_12-6"  72.4300 "Sandstone" "Shale" -999.25  95.0000  5.00000     0.0 "vc/granule" "vc"       "Proksimal__"braid"_-_delta_front_kompleks"                       "Progradernede_og_retrograder_"braid"_delta_kompleks"
4467.9 "6506_12-6"  70.7000 "Sandstone" "Shale" -999.25  95.0000  5.00000     0.0 "vc/granule" "vc"       "Proksimal__"braid"_-_delta_front_kompleks"                       "Progradernede_og_retrograder_"braid"_delta_kompleks"
4468.0 "6506_12-6"  68.9800 "Sandstone" "Shale" -999.25  97.0000  3.00000     0.0 "vc"       "vc/granule" "Proksimal__"braid"_-_delta_front_kompleks"                       "Progradernede_og_retrograder_"braid"_delta_kompleks"
4468.1 "6506_12-6"  67.2500 "Sandstone" "Shale" -999.25  97.0000  3.00000     0.0 "vc"       "vc/granule" "Proksimal__"braid"_-_delta_front_kompleks"                       "Progradernede_og_retrograder_"braid"_delta_kompleks"
4468.2 "6506_12-6"  66.4300 "Sandstone" "Shale" -999.25  97.0000  3.00000     0.0 "vc"       "vc/granule" "Proksimal__"braid"_-_delta_front_kompleks"                       "Progradernede_og_retrograder_"braid"_delta_kompleks"
4468.3 "6506_12-6"  66.8200 "Sandstone" "Shale" -999.25  97.0000  3.00000     0.0 "vc"       "vc/granule" "Proksimal__"braid"_-_delta_front_kompleks"                       "Progradernede_og_retrograder_"braid"_delta_kompleks"
4468.4 "6506_12-6"  67.2100 "Sandstone" "Shale" -999.25  97.0000  3.00000     0.0 "vc"       "vc/granule" "Proksimal__"braid"_-_delta_front_kompleks"                       "Progradernede_og_retrograder_"braid"_delta_kompleks"
4468.5 "6506_12-6"  67.6100 "Sandstone" "Shale" -999.25  97.0000  3.00000     0.0 "vc"       "vc/granule" "Proksimal__"braid"_-_delta_front_kompleks"                       "Progradernede_og_retrograder_"braid"_delta_kompleks"
4468.6 "6506_12-6"  71.1300 "Sandstone" "Shale" -999.25  97.0000  3.00000     0.0 "vc"       "vc/granule" "Proksimal__"braid"_-_delta_front_kompleks"                       "Progradernede_og_retrograder_"braid"_delta_kompleks"
4468.7 "6506_12-6"  71.8900 "Sandstone" "Shale" -999.25  97.0000  3.00000     0.0 "vc"       "vc/granule" "Proksimal__"braid"_-_delta_front_kompleks"                       "Progradernede_og_retrograder_"braid"_delta_kompleks"
4468.8 "6506_12-6"  72.6400 "Sandstone" "Shale" -999.25  97.0000  3.00000     0.0 "vc"       "vc/granule" "Proksimal__"braid"_-_delta_front_kompleks"                       "Progradernede_og_retrograder_"braid"_delta_kompleks"
4468.9 "6506_12-6"  73.4000 "Sandstone" "Shale" -999.25  97.0000  3.00000     0.0 "vc"       "vc/granule" "Proksimal__"braid"_-_delta_front_kompleks"                       "Progradernede_og_retrograder_"braid"_delta_kompleks"
4469.0 "6506_12-6"  74.1500 "Sandstone" "Shale" -999.25  97.0000  3.00000     0.0 "vc"       "vc/granule" "Proksimal__"braid"_-_delta_front_kompleks"                       "Progradernede_og_retrograder_"braid"_delta_kompleks"
4469.1 "6506_12-6"  74.9000 "Sandstone" "Shale" -999.25  97.0000  3.00000     0.0 "vc"       "vc/granule" "Proksimal__"braid"_-_delta_front_kompleks"                       "Progradernede_og_retrograder_"braid"_delta_kompleks"
4469.2 "6506_12-6"  75.6600 "Sandstone" "Shale" -999.25  97.0000  3.00000     0.0 "vc"       "vc/granule" "Proksimal__"braid"_-_delta_front_kompleks"                       "Progradernede_og_retrograder_"braid"_delta_kompleks"
