~Version
VERS  .                                 3.0 : CWLS LAS ASCII Standard - Version 3.0
WRAP  . NO                                  : One line per depth step
DLM   . SPACE                               : Column data section delimiter
SOURCE. Converted to LAS by Log Studio 4.76 : GeoProvider

~Well
STRT.         2852.0 : Start depth
STOP.         3100.5 : Stop depth
STEP.              1 : Step
NULL.        -999.25 : No-value
COMP.                : Company
WELL. 6407/7-3       : Well
FLD .                : Field
LOC .                : Location
LATI.                : Latitude
LONG.                : Longitude
GDAT.                : Geodetic datum
CNTY.                : County
STAT.                : State
CTRY.                : Country
SRVC. GeoProvider AS : Service company
DATE.                : Date
API .                : API number
RUN .                : Run number

~Parameters
WellboreName.  : Wellbore name
RigName     .  : Rig name
StartDate   .  : Start date

~Curves
DEPTH.m            .  : null {F}Depth mMD
Hole_ID.-          .  : null {S}Hole ID
GR.API             .  : null {F}Gamma Ray
Lithology1.-       .  : null {S}Lithology 1
Lithology2.-       .  : null {S}Lithology 2
Lithology3.-       .  : null {S}Lithology 3
Lithology1.%       .  : null {F}Lithology 1 percentage
Lithology2.%       .  : null {F}Lithology 2 percentage
Lithology3.%       .  : null {F}Lithology 3 percentage
Grain_size_Top.-   .  : null {S}Grain size at the top 
Grain_size_Base.-  .  : null {S}Grain size at the bottom
Sub_Environment.-  .  : null {S}Sub Environment
Gross_Environment.-.  : null {S}Gross Environment

~Ascii
# ...
3057.8 "6407_7-3"  88.6800 "Sandstone" -999.25   -999.25   100.0000      0.0      0.0 "vc/granule" "c/vc"     "Mostly_inchannel_bars,_sandwaves_and_dunes,_nut_some_of_the_fine_grained_pluselike_deposits_probably_represent_proximal_floodplain_sediments." "Alluvial_plain_to_upper_delta_plain_deposits._The_braided_system_accumulated_near_the_source_area_under_humid/temperate_climatic_conditions."
3057.9 "6407_7-3"  88.5200 "Sandstone" -999.25   -999.25   100.0000      0.0      0.0 "vc/granule" "c/vc"     "Mostly_inchannel_bars,_sandwaves_and_dunes,_nut_some_of_the_fine_grained_pluselike_deposits_probably_represent_proximal_floodplain_sediments." "Alluvial_plain_to_upper_delta_plain_deposits._The_braided_system_accumulated_near_the_source_area_under_humid/temperate_climatic_conditions."
3058.0 "6407_7-3"  88.4400 "Sandstone" -999.25   -999.25   100.0000      0.0      0.0 "vc/granule" "c/vc"     "Mostly_inchannel_bars,_sandwaves_and_dunes,_nut_some_of_the_fine_grained_pluselike_deposits_probably_represent_proximal_floodplain_sediments." "Alluvial_plain_to_upper_delta_plain_deposits._The_braided_system_accumulated_near_the_source_area_under_humid/temperate_climatic_conditions."
3058.1 "6407_7-3"  90.2100 "Sandstone" -999.25   -999.25   100.0000      0.0      0.0 "vc/granule" "c/vc"     "Mostly_inchannel_bars,_sandwaves_and_dunes,_nut_some_of_the_fine_grained_pluselike_deposits_probably_represent_proximal_floodplain_sediments." "Alluvial_plain_to_upper_delta_plain_deposits._The_braided_system_accumulated_near_the_source_area_under_humid/temperate_climatic_conditions."
3058.2 "6407_7-3"  92.7700 "Sandstone" -999.25   -999.25   100.0000      0.0      0.0 "vc/granule" "c/vc"     "Mostly_inchannel_bars,_sandwaves_and_dunes,_nut_some_of_the_fine_grained_pluselike_deposits_probably_represent_proximal_floodplain_sediments." "Alluvial_plain_to_upper_delta_plain_deposits._The_braided_system_accumulated_near_the_source_area_under_humid/temperate_climatic_conditions."
3058.3 "6407_7-3"  95.4200 "Sandstone" -999.25   -999.25   100.0000      0.0      0.0 "vc/granule" "c/vc"     "Mostly_inchannel_bars,_sandwaves_and_dunes,_nut_some_of_the_fine_grained_pluselike_deposits_probably_represent_proximal_floodplain_sediments." "Alluvial_plain_to_upper_delta_plain_deposits._The_braided_system_accumulated_near_the_source_area_under_humid/temperate_climatic_conditions."
3058.4 "6407_7-3"  97.5200 "Sandstone" -999.25   -999.25   100.0000      0.0      0.0 "vc/granule" "c/vc"     "Mostly_inchannel_bars,_sandwaves_and_dunes,_nut_some_of_the_fine_grained_pluselike_deposits_probably_represent_proximal_floodplain_sediments." "Alluvial_plain_to_upper_delta_plain_deposits._The_braided_system_accumulated_near_the_source_area_under_humid/temperate_climatic_conditions."
3058.5 "6407_7-3"  97.8200 "Sandstone" -999.25   -999.25   100.0000      0.0      0.0 "vc/granule" "c/vc"     "Mostly_inchannel_bars,_sandwaves_and_dunes,_nut_some_of_the_fine_grained_pluselike_deposits_probably_represent_proximal_floodplain_sediments." "Alluvial_plain_to_upper_delta_plain_deposits._The_braided_system_accumulated_near_the_source_area_under_humid/temperate_climatic_conditions."
3058.6 "6407_7-3"  97.3500 "Sandstone" -999.25   -999.25   100.0000      0.0      0.0 "vc/granule" "c/vc"     "Mostly_inchannel_bars,_sandwaves_and_dunes,_nut_some_of_the_fine_grained_pluselike_deposits_probably_represent_proximal_floodplain_sediments." "Alluvial_plain_to_upper_delta_plain_deposits._The_braided_system_accumulated_near_the_source_area_under_humid/temperate_climatic_conditions."
3058.7 "6407_7-3"  95.7300 "Sandstone" -999.25   -999.25   100.0000      0.0      0.0 "vc/granule" "c/vc"     "Mostly_inchannel_bars,_sandwaves_and_dunes,_nut_some_of_the_fine_grained_pluselike_deposits_probably_represent_proximal_floodplain_sediments." "Alluvial_plain_to_upper_delta_plain_deposits._The_braided_system_accumulated_near_the_source_area_under_humid/temperate_climatic_conditions."
3058.8 "6407_7-3"  94.1100 "Sandstone" -999.25   -999.25   100.0000      0.0      0.0 "vc/granule" "c/vc"     "Mostly_inchannel_bars,_sandwaves_and_dunes,_nut_some_of_the_fine_grained_pluselike_deposits_probably_represent_proximal_floodplain_sediments." "Alluvial_plain_to_upper_delta_plain_deposits._The_braided_system_accumulated_near_the_source_area_under_humid/temperate_climatic_conditions."
3058.9 "6407_7-3"  92.4200 "Sandstone" -999.25   -999.25   100.0000      0.0      0.0 "vc/granule" "c/vc"     "Mostly_inchannel_bars,_sandwaves_and_dunes,_nut_some_of_the_fine_grained_pluselike_deposits_probably_represent_proximal_floodplain_sediments." "Alluvial_plain_to_upper_delta_plain_deposits._The_braided_system_accumulated_near_the_source_area_under_humid/temperate_climatic_conditions."
3059.0 "6407_7-3"  90.6300 "Sandstone" -999.25   -999.25   100.0000      0.0      0.0 "vc/granule" "c/vc"     "Mostly_inchannel_bars,_sandwaves_and_dunes,_nut_some_of_the_fine_grained_pluselike_deposits_probably_represent_proximal_floodplain_sediments." "Alluvial_plain_to_upper_delta_plain_deposits._The_braided_system_accumulated_near_the_source_area_under_humid/temperate_climatic_conditions."
3059.1 "6407_7-3"  89.1300 "Sandstone" -999.25   -999.25   100.0000      0.0      0.0 "vc/granule" "c/vc"     "Mostly_inchannel_bars,_sandwaves_and_dunes,_nut_some_of_the_fine_grained_pluselike_deposits_probably_represent_proximal_floodplain_sediments." "Alluvial_plain_to_upper_delta_plain_deposits._The_braided_system_accumulated_near_the_source_area_under_humid/temperate_climatic_conditions."
3059.2 "6407_7-3"  88.3000 "Sandstone" -999.25   -999.25   100.0000      0.0      0.0 "vc/granule" "c/vc"     "Mostly_inchannel_bars,_sandwaves_and_dunes,_nut_some_of_the_fine_grained_pluselike_deposits_probably_represent_proximal_floodplain_sediments." "Alluvial_plain_to_upper_delta_plain_deposits._The_braided_system_accumulated_near_the_source_area_under_humid/temperate_climatic_conditions."
3059.3 "6407_7-3"  85.6300 "Sandstone" -999.25   -999.25   100.0000      0.0      0.0 "vc/granule" "c/vc"     "Mostly_inchannel_bars,_sandwaves_and_dunes,_nut_some_of_the_fine_grained_pluselike_deposits_probably_represent_proximal_floodplain_sediments." "Alluvial_plain_to_upper_delta_plain_deposits._The_braided_system_accumulated_near_the_source_area_under_humid/temperate_climatic_conditions."
3059.4 "6407_7-3"  81.7200 "Sandstone" -999.25   -999.25   100.0000      0.0      0.0 "vc/granule" "c/vc"     "Mostly_inchannel_bars,_sandwaves_and_dunes,_nut_some_of_the_fine_grained_pluselike_deposits_probably_represent_proximal_floodplain_sediments." "Alluvial_plain_to_upper_delta_plain_deposits._The_braided_system_accumulated_near_the_source_area_under_humid/temperate_climatic_conditions."
3059.5 "6407_7-3"  80.1300 "Sandstone" -999.25   -999.25   100.0000      0.0      0.0 "vc/granule" "vc/granule" "Mostly_inchannel_bars,_sandwaves_and_dunes,_nut_some_of_the_fine_grained_pluselike_deposits_probably_represent_proximal_floodplain_sediments." "Alluvial_plain_to_upper_delta_plain_deposits._The_braided_system_accumulated_near_the_source_area_under_humid/temperate_climatic_conditions."
3059.6 "6407_7-3"  79.5900 "Sandstone" -999.25   -999.25   100.0000      0.0      0.0 "vc/granule" "vc/granule" "Mostly_inchannel_bars,_sandwaves_and_dunes,_nut_some_of_the_fine_grained_pluselike_deposits_probably_represent_proximal_floodplain_sediments." "Alluvial_plain_to_upper_delta_plain_deposits._The_braided_system_accumulated_near_the_source_area_under_humid/temperate_climatic_conditions."
3059.7 "6407_7-3"  80.0800 "Sandstone" -999.25   -999.25   100.0000      0.0      0.0 "vc/granule" "vc/granule" "Mostly_inchannel_bars,_sandwaves_and_dunes,_nut_some_of_the_fine_grained_pluselike_deposits_probably_represent_proximal_floodplain_sediments." "Alluvial_plain_to_upper_delta_plain_deposits._The_braided_system_accumulated_near_the_source_area_under_humid/temperate_climatic_conditions."
3059.8 "6407_7-3"  80.5700 "Sandstone" -999.25   -999.25   100.0000      0.0      0.0 "vc/granule" "vc/granule" "Mostly_inchannel_bars,_sandwaves_and_dunes,_nut_some_of_the_fine_grained_pluselike_deposits_probably_represent_proximal_floodplain_sediments." "Alluvial_plain_to_upper_delta_plain_deposits._The_braided_system_accumulated_near_the_source_area_under_humid/temperate_climatic_conditions."
