~Version
VERS  .                                 3.0 : CWLS LAS ASCII Standard - Version 3.0
WRAP  . NO                                  : One line per depth step
DLM   . SPACE                               : Column data section delimiter
SOURCE. Converted to LAS by Log Studio 4.76 : GeoProvider

~Well
STRT.         2852.0 : Start depth
STOP.         3100.5 : Stop depth
STEP.              1 : Step
NULL.        -999.25 : No-value
COMP.                : Company
WELL. 6407/7-3       : Well
FLD .                : Field
LOC .                : Location
LATI.                : Latitude
LONG.                : Longitude
GDAT.                : Geodetic datum
CNTY.                : County
STAT.                : State
CTRY.                : Country
SRVC. GeoProvider AS : Service company
DATE.                : Date
API .                : API number
RUN .                : Run number

~Parameters
WellboreName.  : Wellbore name
RigName     .  : Rig name
StartDate   .  : Start date

~Curves
DEPTH.m            .  : null {F}Depth mMD
Hole_ID.-          .  : null {S}Hole ID
GR.API             .  : null {F}Gamma Ray
Lithology1.-       .  : null {S}Lithology 1
Lithology2.-       .  : null {S}Lithology 2
Lithology3.-       .  : null {S}Lithology 3
Lithology1.%       .  : null {F}Lithology 1 percentage
Lithology2.%       .  : null {F}Lithology 2 percentage
Lithology3.%       .  : null {F}Lithology 3 percentage
Grain_size_Top.-   .  : null {S}Grain size at the top 
Grain_size_Base.-  .  : null {S}Grain size at the bottom
Sub_Environment.-  .  : null {S}Sub Environment
Gross_Environment.-.  : null {S}Gross Environment

~Ascii
# ...
2990.6 "6407_7-3"  95.1800 "Sandstone" "Limestone" "Claystone"  78.0000 10.00000 12.00000 "m"        "vf/f"     "Delta_front_sediments_notably_more_mature_than_the_fluvial_deposits_below._"                                                                 "Proximal_delta_front,_high_rate_of_vertical_aggradation._Fluvial_wave-dominated."                                                          
2990.7 "6407_7-3"  93.3800 "Sandstone" "Limestone" "Claystone"  78.0000 10.00000 12.00000 "m"        "vf/f"     "Delta_front_sediments_notably_more_mature_than_the_fluvial_deposits_below._"                                                                 "Proximal_delta_front,_high_rate_of_vertical_aggradation._Fluvial_wave-dominated."                                                          
2990.8 "6407_7-3"  91.5800 "Sandstone" "Limestone" "Claystone"  78.0000 10.00000 12.00000 "m"        "vf/f"     "Delta_front_sediments_notably_more_mature_than_the_fluvial_deposits_below._"                                                                 "Proximal_delta_front,_high_rate_of_vertical_aggradation._Fluvial_wave-dominated."                                                          
2990.9 "6407_7-3"  89.7800 "Sandstone" "Limestone" "Claystone"  78.0000 10.00000 12.00000 "m"        "vf/f"     "Delta_front_sediments_notably_more_mature_than_the_fluvial_deposits_below._"                                                                 "Proximal_delta_front,_high_rate_of_vertical_aggradation._Fluvial_wave-dominated."                                                          
2991.0 "6407_7-3"  88.1200 "Sandstone" "Limestone" "Claystone"  78.0000 10.00000 12.00000 "m"        "vf/f"     "Delta_front_sediments_notably_more_mature_than_the_fluvial_deposits_below._"                                                                 "Proximal_delta_front,_high_rate_of_vertical_aggradation._Fluvial_wave-dominated."                                                          
2991.1 "6407_7-3"  89.1300 "Sandstone" "Limestone" "Claystone"  78.0000 10.00000 12.00000 "m"        "vf/f"     "Delta_front_sediments_notably_more_mature_than_the_fluvial_deposits_below._"                                                                 "Proximal_delta_front,_high_rate_of_vertical_aggradation._Fluvial_wave-dominated."                                                          
2991.2 "6407_7-3"  91.1300 "Sandstone" "Limestone" "Claystone"  78.0000 10.00000 12.00000 "m"        "vf/f"     "Delta_front_sediments_notably_more_mature_than_the_fluvial_deposits_below._"                                                                 "Proximal_delta_front,_high_rate_of_vertical_aggradation._Fluvial_wave-dominated."                                                          
2991.3 "6407_7-3"  93.1300 "Sandstone" "Limestone" "Claystone"  78.0000 10.00000 12.00000 "m"        "vf/f"     "Delta_front_sediments_notably_more_mature_than_the_fluvial_deposits_below._"                                                                 "Proximal_delta_front,_high_rate_of_vertical_aggradation._Fluvial_wave-dominated."                                                          
2991.4 "6407_7-3"  93.2600 "Sandstone" "Limestone" "Claystone"  78.0000 10.00000 12.00000 "m"        "vf/f"     "Delta_front_sediments_notably_more_mature_than_the_fluvial_deposits_below._"                                                                 "Proximal_delta_front,_high_rate_of_vertical_aggradation._Fluvial_wave-dominated."                                                          
2991.5 "6407_7-3"  93.3600 "Sandstone" "Limestone" "Claystone"  78.0000 10.00000 12.00000 "m"        "vf/f"     "Delta_front_sediments_notably_more_mature_than_the_fluvial_deposits_below._"                                                                 "Proximal_delta_front,_high_rate_of_vertical_aggradation._Fluvial_wave-dominated."                                                          
2991.6 "6407_7-3"  93.6200 "Sandstone" "Limestone" "Claystone"  78.0000 10.00000 12.00000 "m"        "vf/f"     "Delta_front_sediments_notably_more_mature_than_the_fluvial_deposits_below._"                                                                 "Proximal_delta_front,_high_rate_of_vertical_aggradation._Fluvial_wave-dominated."                                                          
2991.7 "6407_7-3"  95.2100 "Sandstone" "Limestone" "Claystone"  78.0000 10.00000 12.00000 "m"        "vf/f"     "Delta_front_sediments_notably_more_mature_than_the_fluvial_deposits_below._"                                                                 "Proximal_delta_front,_high_rate_of_vertical_aggradation._Fluvial_wave-dominated."                                                          
2991.8 "6407_7-3"  96.7900 "Sandstone" "Limestone" "Claystone"  78.0000 10.00000 12.00000 "m"        "vf/f"     "Delta_front_sediments_notably_more_mature_than_the_fluvial_deposits_below._"                                                                 "Proximal_delta_front,_high_rate_of_vertical_aggradation._Fluvial_wave-dominated."                                                          
2991.9 "6407_7-3"  95.5000 "Sandstone" "Limestone" "Claystone"  78.0000 10.00000 12.00000 "m"        "vf/f"     "Delta_front_sediments_notably_more_mature_than_the_fluvial_deposits_below._"                                                                 "Proximal_delta_front,_high_rate_of_vertical_aggradation._Fluvial_wave-dominated."                                                          
2992.0 "6407_7-3"  92.0100 "Sandstone" "Limestone" "Claystone"  78.0000 10.00000 12.00000 "m"        "vf/f"     "Delta_front_sediments_notably_more_mature_than_the_fluvial_deposits_below._"                                                                 "Proximal_delta_front,_high_rate_of_vertical_aggradation._Fluvial_wave-dominated."                                                          
2992.1 "6407_7-3"  88.5300 "Sandstone" "Limestone" "Claystone"  78.0000 10.00000 12.00000 "m"        "vf/f"     "Delta_front_sediments_notably_more_mature_than_the_fluvial_deposits_below._"                                                                 "Proximal_delta_front,_high_rate_of_vertical_aggradation._Fluvial_wave-dominated."                                                          
2992.2 "6407_7-3"  85.2600 "Sandstone" "Limestone" "Claystone"  78.0000 10.00000 12.00000 "m"        "vf/f"     "Delta_front_sediments_notably_more_mature_than_the_fluvial_deposits_below._"                                                                 "Proximal_delta_front,_high_rate_of_vertical_aggradation._Fluvial_wave-dominated."                                                          
2992.3 "6407_7-3"  83.1600 "Sandstone" "Limestone" "Claystone"  78.0000 10.00000 12.00000 "m"        "vf/f"     "Delta_front_sediments_notably_more_mature_than_the_fluvial_deposits_below._"                                                                 "Proximal_delta_front,_high_rate_of_vertical_aggradation._Fluvial_wave-dominated."                                                          
2992.4 "6407_7-3"  82.2500 "Sandstone" "Limestone" "Claystone"  78.0000 10.00000 12.00000 "m"        "vf/f"     "Delta_front_sediments_notably_more_mature_than_the_fluvial_deposits_below._"                                                                 "Proximal_delta_front,_high_rate_of_vertical_aggradation._Fluvial_wave-dominated."                                                          
2992.5 "6407_7-3"  82.9200 "Sandstone" "Limestone" "Claystone"  78.0000 10.00000 12.00000 "m"        "vf/f"     "Delta_front_sediments_notably_more_mature_than_the_fluvial_deposits_below._"                                                                 "Proximal_delta_front,_high_rate_of_vertical_aggradation._Fluvial_wave-dominated."                                                          
2992.6 "6407_7-3"  84.4800 "Sandstone" "Limestone" "Claystone"  78.0000 10.00000 12.00000 "m"        "vf/f"     "Delta_front_sediments_notably_more_mature_than_the_fluvial_deposits_below._"                                                                 "Proximal_delta_front,_high_rate_of_vertical_aggradation._Fluvial_wave-dominated."                                                          
