~Version
VERS  .                                 3.0 : CWLS LAS ASCII Standard - Version 3.0
WRAP  . NO                                  : One line per depth step
DLM   . SPACE                               : Column data section delimiter
SOURCE. Converted to LAS by Log Studio 4.76 : GeoProvider

~Well
STRT.         2852.0 : Start depth
STOP.         3100.5 : Stop depth
STEP.              1 : Step
NULL.        -999.25 : No-value
COMP.                : Company
WELL. 6407/7-3       : Well
FLD .                : Field
LOC .                : Location
LATI.                : Latitude
LONG.                : Longitude
GDAT.                : Geodetic datum
CNTY.                : County
STAT.                : State
CTRY.                : Country
SRVC. GeoProvider AS : Service company
DATE.                : Date
API .                : API number
RUN .                : Run number

~Parameters
WellboreName.  : Wellbore name
RigName     .  : Rig name
StartDate   .  : Start date

~Curves
DEPTH.m            .  : null {F}Depth mMD
Hole_ID.-          .  : null {S}Hole ID
GR.API             .  : null {F}Gamma Ray
Lithology1.-       .  : null {S}Lithology 1
Lithology2.-       .  : null {S}Lithology 2
Lithology3.-       .  : null {S}Lithology 3
Lithology1.%       .  : null {F}Lithology 1 percentage
Lithology2.%       .  : null {F}Lithology 2 percentage
Lithology3.%       .  : null {F}Lithology 3 percentage
Grain_size_Top.-   .  : null {S}Grain size at the top 
Grain_size_Base.-  .  : null {S}Grain size at the bottom
Sub_Environment.-  .  : null {S}Sub Environment
Gross_Environment.-.  : null {S}Gross Environment

~Ascii
# ...
3043.1 "6407_7-3" 104.8900 "Sandstone" -999.25   -999.25   100.0000      0.0      0.0 "c/vc"     "m/c"      "Kaolinite-rich_proximal_braided_stream_deposits"                                                                                             "Alluvial_plain_to_upper_delta_plain_deposits._The_braided_system_accumulated_near_the_source_area_under_humid/temperate_climatic_conditions."
3043.2 "6407_7-3" 102.5100 "Sandstone" -999.25   -999.25   100.0000      0.0      0.0 "c/vc"     "m/c"      "Kaolinite-rich_proximal_braided_stream_deposits"                                                                                             "Alluvial_plain_to_upper_delta_plain_deposits._The_braided_system_accumulated_near_the_source_area_under_humid/temperate_climatic_conditions."
3043.3 "6407_7-3" 101.6700 "Sandstone" -999.25   -999.25   100.0000      0.0      0.0 "c/vc"     "m/c"      "Kaolinite-rich_proximal_braided_stream_deposits"                                                                                             "Alluvial_plain_to_upper_delta_plain_deposits._The_braided_system_accumulated_near_the_source_area_under_humid/temperate_climatic_conditions."
3043.4 "6407_7-3" 100.7800 "Sandstone" -999.25   -999.25   100.0000      0.0      0.0 "c/vc"     "m/c"      "Kaolinite-rich_proximal_braided_stream_deposits"                                                                                             "Alluvial_plain_to_upper_delta_plain_deposits._The_braided_system_accumulated_near_the_source_area_under_humid/temperate_climatic_conditions."
3043.5 "6407_7-3"  99.8300 "Sandstone" -999.25   -999.25   100.0000      0.0      0.0 "c/vc"     "m/c"      "Kaolinite-rich_proximal_braided_stream_deposits"                                                                                             "Alluvial_plain_to_upper_delta_plain_deposits._The_braided_system_accumulated_near_the_source_area_under_humid/temperate_climatic_conditions."
3043.6 "6407_7-3"  97.9600 "Sandstone" -999.25   -999.25   100.0000      0.0      0.0 "c/vc"     "m/c"      "Kaolinite-rich_proximal_braided_stream_deposits"                                                                                             "Alluvial_plain_to_upper_delta_plain_deposits._The_braided_system_accumulated_near_the_source_area_under_humid/temperate_climatic_conditions."
3043.7 "6407_7-3"  95.9700 "Sandstone" -999.25   -999.25   100.0000      0.0      0.0 "c/vc"     "m/c"      "Kaolinite-rich_proximal_braided_stream_deposits"                                                                                             "Alluvial_plain_to_upper_delta_plain_deposits._The_braided_system_accumulated_near_the_source_area_under_humid/temperate_climatic_conditions."
3043.8 "6407_7-3"  94.2200 "Sandstone" -999.25   -999.25   100.0000      0.0      0.0 "c/vc"     "m/c"      "Kaolinite-rich_proximal_braided_stream_deposits"                                                                                             "Alluvial_plain_to_upper_delta_plain_deposits._The_braided_system_accumulated_near_the_source_area_under_humid/temperate_climatic_conditions."
3043.9 "6407_7-3"  92.4700 "Sandstone" -999.25   -999.25   100.0000      0.0      0.0 "c/vc"     "m/c"      "Kaolinite-rich_proximal_braided_stream_deposits"                                                                                             "Alluvial_plain_to_upper_delta_plain_deposits._The_braided_system_accumulated_near_the_source_area_under_humid/temperate_climatic_conditions."
3044.0 "6407_7-3"  90.8800 "Sandstone" -999.25   -999.25   100.0000      0.0      0.0 "c/vc"     "m/c"      "Kaolinite-rich_proximal_braided_stream_deposits"                                                                                             "Alluvial_plain_to_upper_delta_plain_deposits._The_braided_system_accumulated_near_the_source_area_under_humid/temperate_climatic_conditions."
3044.1 "6407_7-3"  91.5300 "Sandstone" -999.25   -999.25   100.0000      0.0      0.0 "c/vc"     "m/c"      "Kaolinite-rich_proximal_braided_stream_deposits"                                                                                             "Alluvial_plain_to_upper_delta_plain_deposits._The_braided_system_accumulated_near_the_source_area_under_humid/temperate_climatic_conditions."
3044.2 "6407_7-3"  93.6700 "Sandstone" -999.25   -999.25   100.0000      0.0      0.0 "c/vc"     "m/c"      "Kaolinite-rich_proximal_braided_stream_deposits"                                                                                             "Alluvial_plain_to_upper_delta_plain_deposits._The_braided_system_accumulated_near_the_source_area_under_humid/temperate_climatic_conditions."
3044.3 "6407_7-3"  96.3700 "Sandstone" -999.25   -999.25   100.0000      0.0      0.0 "c/vc"     "m/c"      "Kaolinite-rich_proximal_braided_stream_deposits"                                                                                             "Alluvial_plain_to_upper_delta_plain_deposits._The_braided_system_accumulated_near_the_source_area_under_humid/temperate_climatic_conditions."
3044.4 "6407_7-3"  99.0700 "Sandstone" -999.25   -999.25   100.0000      0.0      0.0 "c/vc"     "m/c"      "Kaolinite-rich_proximal_braided_stream_deposits"                                                                                             "Alluvial_plain_to_upper_delta_plain_deposits._The_braided_system_accumulated_near_the_source_area_under_humid/temperate_climatic_conditions."
3044.5 "6407_7-3" 100.0000 "Sandstone" -999.25   -999.25   100.0000      0.0      0.0 "c/vc"     "m/c"      "Kaolinite-rich_proximal_braided_stream_deposits"                                                                                             "Alluvial_plain_to_upper_delta_plain_deposits._The_braided_system_accumulated_near_the_source_area_under_humid/temperate_climatic_conditions."
3044.6 "6407_7-3" 100.0000 "Sandstone" -999.25   -999.25   100.0000      0.0      0.0 "c/vc"     "m/c"      "Kaolinite-rich_proximal_braided_stream_deposits"                                                                                             "Alluvial_plain_to_upper_delta_plain_deposits._The_braided_system_accumulated_near_the_source_area_under_humid/temperate_climatic_conditions."
3044.7 "6407_7-3" 100.0000 "Sandstone" -999.25   -999.25   100.0000      0.0      0.0 "c/vc"     "m/c"      "Kaolinite-rich_proximal_braided_stream_deposits"                                                                                             "Alluvial_plain_to_upper_delta_plain_deposits._The_braided_system_accumulated_near_the_source_area_under_humid/temperate_climatic_conditions."
3044.8 "6407_7-3" 100.0000 "Sandstone" -999.25   -999.25   100.0000      0.0      0.0 "c/vc"     "m/c"      "Kaolinite-rich_proximal_braided_stream_deposits"                                                                                             "Alluvial_plain_to_upper_delta_plain_deposits._The_braided_system_accumulated_near_the_source_area_under_humid/temperate_climatic_conditions."
3044.9 "6407_7-3" 100.0000 "Sandstone" -999.25   -999.25   100.0000      0.0      0.0 "c/vc"     "m/c"      "Kaolinite-rich_proximal_braided_stream_deposits"                                                                                             "Alluvial_plain_to_upper_delta_plain_deposits._The_braided_system_accumulated_near_the_source_area_under_humid/temperate_climatic_conditions."
3045.0 "6407_7-3" 100.0000 "Sandstone" -999.25   -999.25   100.0000      0.0      0.0 "c/vc"     "m/c"      "Kaolinite-rich_proximal_braided_stream_deposits"                                                                                             "Alluvial_plain_to_upper_delta_plain_deposits._The_braided_system_accumulated_near_the_source_area_under_humid/temperate_climatic_conditions."
3045.1 "6407_7-3" 101.1700 "Sandstone" "Limestone" -999.25    20.0000 80.00000      0.0 "c/vc"     "granule"  "Kaolinite-rich_proximal_braided_stream_deposits"                                                                                             "Alluvial_plain_to_upper_delta_plain_deposits._The_braided_system_accumulated_near_the_source_area_under_humid/temperate_climatic_conditions."
