~Version
VERS  .                                 3.0 : CWLS LAS ASCII Standard - Version 3.0
WRAP  . NO                                  : One line per depth step
DLM   . SPACE                               : Column data section delimiter
SOURCE. Converted to LAS by Log Studio 4.76 : GeoProvider

~Well
STRT.         2852.0 : Start depth
STOP.         3100.5 : Stop depth
STEP.              1 : Step
NULL.        -999.25 : No-value
COMP.                : Company
WELL. 6407/7-3       : Well
FLD .                : Field
LOC .                : Location
LATI.                : Latitude
LONG.                : Longitude
GDAT.                : Geodetic datum
CNTY.                : County
STAT.                : State
CTRY.                : Country
SRVC. GeoProvider AS : Service company
DATE.                : Date
API .                : API number
RUN .                : Run number

~Parameters
WellboreName.  : Wellbore name
RigName     .  : Rig name
StartDate   .  : Start date

~Curves
DEPTH.m            .  : null {F}Depth mMD
Hole_ID.-          .  : null {S}Hole ID
GR.API             .  : null {F}Gamma Ray
Lithology1.-       .  : null {S}Lithology 1
Lithology2.-       .  : null {S}Lithology 2
Lithology3.-       .  : null {S}Lithology 3
Lithology1.%       .  : null {F}Lithology 1 percentage
Lithology2.%       .  : null {F}Lithology 2 percentage
Lithology3.%       .  : null {F}Lithology 3 percentage
Grain_size_Top.-   .  : null {S}Grain size at the top 
Grain_size_Base.-  .  : null {S}Grain size at the bottom
Sub_Environment.-  .  : null {S}Sub Environment
Gross_Environment.-.  : null {S}Gross Environment

~Ascii
2852.0 "6407_7-3"  48.6100 "Sandstone" -999.25   -999.25   100.0000      0.0      0.0 "f"        "f"        "Mouth_bar/upper_shoreface/mouth_bar"                                                                                                         "Stacked,_punctuated_progradational_sequences_of_shoreline_or_delta_front"                                                                  
2852.1 "6407_7-3"  48.3200 "Sandstone" -999.25   -999.25   100.0000      0.0      0.0 "f"        "f"        "Mouth_bar/upper_shoreface/mouth_bar"                                                                                                         "Stacked,_punctuated_progradational_sequences_of_shoreline_or_delta_front"                                                                  
2852.2 "6407_7-3"  49.7400 "Sandstone" -999.25   -999.25   100.0000      0.0      0.0 "f"        "f"        "Mouth_bar/upper_shoreface/mouth_bar"                                                                                                         "Stacked,_punctuated_progradational_sequences_of_shoreline_or_delta_front"                                                                  
2852.3 "6407_7-3"  51.4600 "Sandstone" -999.25   -999.25   100.0000      0.0      0.0 "f"        "f"        "Mouth_bar/upper_shoreface/mouth_bar"                                                                                                         "Stacked,_punctuated_progradational_sequences_of_shoreline_or_delta_front"                                                                  
2852.4 "6407_7-3"  53.1800 "Sandstone" -999.25   -999.25   100.0000      0.0      0.0 "f"        "f"        "Mouth_bar/upper_shoreface/mouth_bar"                                                                                                         "Stacked,_punctuated_progradational_sequences_of_shoreline_or_delta_front"                                                                  
2852.5 "6407_7-3"  54.9000 "Sandstone" -999.25   -999.25   100.0000      0.0      0.0 "f"        "f"        "Mouth_bar/upper_shoreface/mouth_bar"                                                                                                         "Stacked,_punctuated_progradational_sequences_of_shoreline_or_delta_front"                                                                  
2852.6 "6407_7-3"  55.8000 "Sandstone" -999.25   -999.25   100.0000      0.0      0.0 "f"        "f"        "Mouth_bar/upper_shoreface/mouth_bar"                                                                                                         "Stacked,_punctuated_progradational_sequences_of_shoreline_or_delta_front"                                                                  
2852.7 "6407_7-3"  55.9300 "Sandstone" -999.25   -999.25   100.0000      0.0      0.0 "f"        "f"        "Mouth_bar/upper_shoreface/mouth_bar"                                                                                                         "Stacked,_punctuated_progradational_sequences_of_shoreline_or_delta_front"                                                                  
2852.8 "6407_7-3"  55.6700 "Sandstone" -999.25   -999.25   100.0000      0.0      0.0 "f"        "f"        "Mouth_bar/upper_shoreface/mouth_bar"                                                                                                         "Stacked,_punctuated_progradational_sequences_of_shoreline_or_delta_front"                                                                  
2852.9 "6407_7-3"  55.2200 "Sandstone" -999.25   -999.25   100.0000      0.0      0.0 "f"        "f"        "Mouth_bar/upper_shoreface/mouth_bar"                                                                                                         "Stacked,_punctuated_progradational_sequences_of_shoreline_or_delta_front"                                                                  
2853.0 "6407_7-3"  54.7700 "Sandstone" -999.25   -999.25   100.0000      0.0      0.0 "f"        "f"        "Mouth_bar/upper_shoreface/mouth_bar"                                                                                                         "Stacked,_punctuated_progradational_sequences_of_shoreline_or_delta_front"                                                                  
2853.1 "6407_7-3"  54.7700 "Sandstone" -999.25   -999.25   100.0000      0.0      0.0 "f"        "f"        "Mouth_bar/upper_shoreface/mouth_bar"                                                                                                         "Stacked,_punctuated_progradational_sequences_of_shoreline_or_delta_front"                                                                  
2853.2 "6407_7-3"  55.3500 "Sandstone" -999.25   -999.25   100.0000      0.0      0.0 "f"        "f"        "Mouth_bar/upper_shoreface/mouth_bar"                                                                                                         "Stacked,_punctuated_progradational_sequences_of_shoreline_or_delta_front"                                                                  
2853.3 "6407_7-3"  55.9500 "Sandstone" -999.25   -999.25   100.0000      0.0      0.0 "f"        "f"        "Mouth_bar/upper_shoreface/mouth_bar"                                                                                                         "Stacked,_punctuated_progradational_sequences_of_shoreline_or_delta_front"                                                                  
2853.4 "6407_7-3"  56.1500 "Sandstone" -999.25   -999.25   100.0000      0.0      0.0 "f"        "f"        "Mouth_bar/upper_shoreface/mouth_bar"                                                                                                         "Stacked,_punctuated_progradational_sequences_of_shoreline_or_delta_front"                                                                  
2853.5 "6407_7-3"  55.9000 "Sandstone" -999.25   -999.25   100.0000      0.0      0.0 "f"        "f"        "Mouth_bar/upper_shoreface/mouth_bar"                                                                                                         "Stacked,_punctuated_progradational_sequences_of_shoreline_or_delta_front"                                                                  
2853.6 "6407_7-3"  55.0700 "Sandstone" -999.25   -999.25   100.0000      0.0      0.0 "f"        "f"        "Mouth_bar/upper_shoreface/mouth_bar"                                                                                                         "Stacked,_punctuated_progradational_sequences_of_shoreline_or_delta_front"                                                                  
2853.7 "6407_7-3"  54.0600 "Sandstone" -999.25   -999.25   100.0000      0.0      0.0 "f"        "f"        "Mouth_bar/upper_shoreface/mouth_bar"                                                                                                         "Stacked,_punctuated_progradational_sequences_of_shoreline_or_delta_front"                                                                  
2853.8 "6407_7-3"  52.3700 "Sandstone" -999.25   -999.25   100.0000      0.0      0.0 "f"        "f"        "Mouth_bar/upper_shoreface/mouth_bar"                                                                                                         "Stacked,_punctuated_progradational_sequences_of_shoreline_or_delta_front"                                                                  
2853.9 "6407_7-3"  50.6800 "Sandstone" -999.25   -999.25   100.0000      0.0      0.0 "f"        "f"        "Mouth_bar/upper_shoreface/mouth_bar"                                                                                                         "Stacked,_punctuated_progradational_sequences_of_shoreline_or_delta_front"                                                                  
2854.0 "6407_7-3"  49.1300 "Sandstone" -999.25   -999.25   100.0000      0.0      0.0 "f"        "f"        "Mouth_bar/upper_shoreface/mouth_bar"                                                                                                         "Stacked,_punctuated_progradational_sequences_of_shoreline_or_delta_front"                                                                  
