~Version
VERS  .                                 3.0 : CWLS LAS ASCII Standard - Version 3.0
WRAP  . NO                                  : One line per depth step
DLM   . SPACE                               : Column data section delimiter
SOURCE. Converted to LAS by Log Studio 4.76 : GeoProvider

~Well
STRT.         2852.0 : Start depth
STOP.         3100.5 : Stop depth
STEP.              1 : Step
NULL.        -999.25 : No-value
COMP.                : Company
WELL. 6407/7-3       : Well
FLD .                : Field
LOC .                : Location
LATI.                : Latitude
LONG.                : Longitude
GDAT.                : Geodetic datum
CNTY.                : County
STAT.                : State
CTRY.                : Country
SRVC. GeoProvider AS : Service company
DATE.                : Date
API .                : API number
RUN .                : Run number

~Parameters
WellboreName.  : Wellbore name
RigName     .  : Rig name
StartDate   .  : Start date

~Curves
DEPTH.m            .  : null {F}Depth mMD
Hole_ID.-          .  : null {S}Hole ID
GR.API             .  : null {F}Gamma Ray
Lithology1.-       .  : null {S}Lithology 1
Lithology2.-       .  : null {S}Lithology 2
Lithology3.-       .  : null {S}Lithology 3
Lithology1.%       .  : null {F}Lithology 1 percentage
Lithology2.%       .  : null {F}Lithology 2 percentage
Lithology3.%       .  : null {F}Lithology 3 percentage
Grain_size_Top.-   .  : null {S}Grain size at the top 
Grain_size_Base.-  .  : null {S}Grain size at the bottom
Sub_Environment.-  .  : null {S}Sub Environment
Gross_Environment.-.  : null {S}Gross Environment

~Ascii
# ...
2963.3 "6407_7-3" 104.2000 "Sandstone" "Claystone" -999.25    60.0000 40.00000      0.0 "clay/silt" "m/c"      "Notable_wave_influence_on_outer_part_of_tidal_flat."                                                                                         "Tidal_flat_system"                                                                                                                         
2963.4 "6407_7-3" 105.9100 "Sandstone" "Claystone" -999.25    60.0000 40.00000      0.0 "clay/silt" "m/c"      "Notable_wave_influence_on_outer_part_of_tidal_flat."                                                                                         "Tidal_flat_system"                                                                                                                         
2963.5 "6407_7-3" 107.7200 "Sandstone" "Claystone" -999.25    60.0000 40.00000      0.0 "clay/silt" "m/c"      "Notable_wave_influence_on_outer_part_of_tidal_flat."                                                                                         "Tidal_flat_system"                                                                                                                         
2963.6 "6407_7-3" 109.5600 "Sandstone" "Claystone" -999.25    60.0000 40.00000      0.0 "clay/silt" "m/c"      "Notable_wave_influence_on_outer_part_of_tidal_flat."                                                                                         "Tidal_flat_system"                                                                                                                         
2963.7 "6407_7-3" 110.8200 "Sandstone" "Claystone" -999.25    60.0000 40.00000      0.0 "clay/silt" "m/c"      "Notable_wave_influence_on_outer_part_of_tidal_flat."                                                                                         "Tidal_flat_system"                                                                                                                         
2963.8 "6407_7-3" 111.6000 "Sandstone" "Claystone" -999.25    60.0000 40.00000      0.0 "clay/silt" "m/c"      "Notable_wave_influence_on_outer_part_of_tidal_flat."                                                                                         "Tidal_flat_system"                                                                                                                         
2963.9 "6407_7-3" 111.0600 "Sandstone" "Claystone" -999.25    60.0000 40.00000      0.0 "clay/silt" "m/c"      "Notable_wave_influence_on_outer_part_of_tidal_flat."                                                                                         "Tidal_flat_system"                                                                                                                         
2964.0 "6407_7-3" 109.9800 "Sandstone" "Claystone" -999.25    60.0000 40.00000      0.0 "clay/silt" "m/c"      "Notable_wave_influence_on_outer_part_of_tidal_flat."                                                                                         "Tidal_flat_system"                                                                                                                         
2964.1 "6407_7-3" 108.6700 "Sandstone" "Claystone" -999.25    60.0000 40.00000      0.0 "clay/silt" "m/c"      "Notable_wave_influence_on_outer_part_of_tidal_flat."                                                                                         "Tidal_flat_system"                                                                                                                         
2964.2 "6407_7-3" 106.5100 "Sandstone" "Claystone" -999.25    60.0000 40.00000      0.0 "clay/silt" "m/c"      "Notable_wave_influence_on_outer_part_of_tidal_flat."                                                                                         "Tidal_flat_system"                                                                                                                         
2964.3 "6407_7-3" 103.7700 "Sandstone" "Claystone" -999.25    60.0000 40.00000      0.0 "clay/silt" "m/c"      "Notable_wave_influence_on_outer_part_of_tidal_flat."                                                                                         "Tidal_flat_system"                                                                                                                         
2964.4 "6407_7-3" 101.0200 "Sandstone" "Claystone" -999.25    60.0000 40.00000      0.0 "clay/silt" "m/c"      "Notable_wave_influence_on_outer_part_of_tidal_flat."                                                                                         "Tidal_flat_system"                                                                                                                         
2964.5 "6407_7-3"  98.2800 "Sandstone" "Claystone" -999.25    60.0000 40.00000      0.0 "clay/silt" "m/c"      "Notable_wave_influence_on_outer_part_of_tidal_flat."                                                                                         "Tidal_flat_system"                                                                                                                         
2964.6 "6407_7-3"  94.9400 "Sandstone" "Claystone" -999.25    60.0000 40.00000      0.0 "clay/silt" "m/c"      "Notable_wave_influence_on_outer_part_of_tidal_flat."                                                                                         "Tidal_flat_system"                                                                                                                         
2964.7 "6407_7-3"  92.1700 "Sandstone" "Claystone" -999.25    60.0000 40.00000      0.0 "clay/silt" "m/c"      "Notable_wave_influence_on_outer_part_of_tidal_flat."                                                                                         "Tidal_flat_system"                                                                                                                         
2964.8 "6407_7-3"  90.8500 "Sandstone" "Claystone" -999.25    60.0000 40.00000      0.0 "clay/silt" "m/c"      "Notable_wave_influence_on_outer_part_of_tidal_flat."                                                                                         "Tidal_flat_system"                                                                                                                         
2964.9 "6407_7-3"  91.8400 "Sandstone" "Claystone" -999.25    60.0000 40.00000      0.0 "clay/silt" "m/c"      "Notable_wave_influence_on_outer_part_of_tidal_flat."                                                                                         "Tidal_flat_system"                                                                                                                         
2965.0 "6407_7-3"  93.3000 "Sandstone" "Claystone" -999.25    60.0000 40.00000      0.0 "clay/silt" "m/c"      "Notable_wave_influence_on_outer_part_of_tidal_flat."                                                                                         "Tidal_flat_system"                                                                                                                         
2965.1 "6407_7-3"  94.9200 "Sandstone" "Claystone" -999.25    60.0000 40.00000      0.0 "clay/silt" "m/c"      "Notable_wave_influence_on_outer_part_of_tidal_flat."                                                                                         "Tidal_flat_system"                                                                                                                         
2965.2 "6407_7-3"  96.5400 "Sandstone" "Claystone" -999.25    60.0000 40.00000      0.0 "clay/silt" "m/c"      "Notable_wave_influence_on_outer_part_of_tidal_flat."                                                                                         "Tidal_flat_system"                                                                                                                         
2965.3 "6407_7-3"  98.1500 "Sandstone" "Claystone" -999.25    60.0000 40.00000      0.0 "clay/silt" "m/c"      "Notable_wave_influence_on_outer_part_of_tidal_flat."                                                                                         "Tidal_flat_system"                                                                                                                         
