~Version
VERS  .                                 3.0 : CWLS LAS ASCII Standard - Version 3.0
WRAP  . NO                                  : One line per depth step
DLM   . SPACE                               : Column data section delimiter
SOURCE. Converted to LAS by Log Studio 4.76 : GeoProvider

~Well
STRT.         2852.0 : Start depth
STOP.         3100.5 : Stop depth
STEP.              1 : Step
NULL.        -999.25 : No-value
COMP.                : Company
WELL. 6407/7-3       : Well
FLD .                : Field
LOC .                : Location
LATI.                : Latitude
LONG.                : Longitude
GDAT.                : Geodetic datum
CNTY.                : County
STAT.                : State
CTRY.                : Country
SRVC. GeoProvider AS : Service company
DATE.                : Date
API .                : API number
RUN .                : Run number

~Parameters
WellboreName.  : Wellbore name
RigName     .  : Rig name
StartDate   .  : Start date

~Curves
DEPTH.m            .  : null {F}Depth mMD
Hole_ID.-          .  : null {S}Hole ID
GR.API             .  : null {F}Gamma Ray
Lithology1.-       .  : null {S}Lithology 1
Lithology2.-       .  : null {S}Lithology 2
Lithology3.-       .  : null {S}Lithology 3
Lithology1.%       .  : null {F}Lithology 1 percentage
Lithology2.%       .  : null {F}Lithology 2 percentage
Lithology3.%       .  : null {F}Lithology 3 percentage
Grain_size_Top.-   .  : null {S}Grain size at the top 
Grain_size_Base.-  .  : null {S}Grain size at the bottom
Sub_Environment.-  .  : null {S}Sub Environment
Gross_Environment.-.  : null {S}Gross Environment

~Ascii
# ...
2950.7 "6407_7-3" 102.6100 "Sandstone" "Claystone" -999.25    46.0000 54.00000      0.0 "m/c"      "vf"       "Transgrassion"                                                                                                                               "Estuary/Outer_bay"                                                                                                                         
2950.8 "6407_7-3" 105.5700 "Sandstone" "Claystone" -999.25    46.0000 54.00000      0.0 "m/c"      "vf"       "Transgrassion"                                                                                                                               "Estuary/Outer_bay"                                                                                                                         
2950.9 "6407_7-3" 107.2700 "Sandstone" "Claystone" -999.25    46.0000 54.00000      0.0 "m/c"      "vf"       "Transgrassion"                                                                                                                               "Estuary/Outer_bay"                                                                                                                         
2951.0 "6407_7-3" 107.1100 "Sandstone" "Claystone" -999.25    46.0000 54.00000      0.0 "m/c"      "vf"       "Transgrassion"                                                                                                                               "Estuary/Outer_bay"                                                                                                                         
2951.1 "6407_7-3" 106.7100 "Sandstone" "Claystone" -999.25    46.0000 54.00000      0.0 "m/c"      "vf"       "Transgrassion"                                                                                                                               "Estuary/Outer_bay"                                                                                                                         
2951.2 "6407_7-3" 106.3100 "Sandstone" "Claystone" -999.25    46.0000 54.00000      0.0 "m/c"      "vf"       "Transgrassion"                                                                                                                               "Estuary/Outer_bay"                                                                                                                         
2951.3 "6407_7-3" 106.4200 "Sandstone" "Claystone" -999.25    46.0000 54.00000      0.0 "m/c"      "vf"       "Transgrassion"                                                                                                                               "Estuary/Outer_bay"                                                                                                                         
2951.4 "6407_7-3" 107.0600 "Sandstone" "Claystone" -999.25    46.0000 54.00000      0.0 "m/c"      "vf"       "Transgrassion"                                                                                                                               "Estuary/Outer_bay"                                                                                                                         
2951.5 "6407_7-3" 107.7000 "Sandstone" "Claystone" -999.25    46.0000 54.00000      0.0 "m/c"      "vf"       "Transgrassion"                                                                                                                               "Estuary/Outer_bay"                                                                                                                         
2951.6 "6407_7-3" 107.6300 "Sandstone" "Claystone" -999.25    46.0000 54.00000      0.0 "m/c"      "vf"       "Transgrassion"                                                                                                                               "Estuary/Outer_bay"                                                                                                                         
2951.7 "6407_7-3" 105.8900 "Sandstone" "Claystone" -999.25    46.0000 54.00000      0.0 "m/c"      "vf"       "Channel_cutting_tidal_flat"                                                                                                                  "Tidal_flat_system"                                                                                                                         
2951.8 "6407_7-3" 104.1400 "Sandstone" "Claystone" -999.25    46.0000 54.00000      0.0 "m/c"      "vf"       "Channel_cutting_tidal_flat"                                                                                                                  "Tidal_flat_system"                                                                                                                         
2951.9 "6407_7-3" 102.4000 "Sandstone" -999.25   -999.25   100.0000      0.0      0.0 "m/c"      "m/c"      "Channel_cutting_tidal_flat"                                                                                                                  "Tidal_flat_system"                                                                                                                         
2952.0 "6407_7-3" 101.0700 "Sandstone" -999.25   -999.25   100.0000      0.0      0.0 "m/c"      "m/c"      "Channel_cutting_tidal_flat"                                                                                                                  "Tidal_flat_system"                                                                                                                         
2952.1 "6407_7-3" 101.3200 "Sandstone" -999.25   -999.25   100.0000      0.0      0.0 "m/c"      "m/c"      "Channel_cutting_tidal_flat"                                                                                                                  "Tidal_flat_system"                                                                                                                         
2952.2 "6407_7-3" 102.1800 "Sandstone" -999.25   -999.25   100.0000      0.0      0.0 "m/c"      "m/c"      "Channel_cutting_tidal_flat"                                                                                                                  "Tidal_flat_system"                                                                                                                         
2952.3 "6407_7-3" 103.8800 "Sandstone" -999.25   -999.25   100.0000      0.0      0.0 "m/c"      "m/c"      "Channel_cutting_tidal_flat"                                                                                                                  "Tidal_flat_system"                                                                                                                         
2952.4 "6407_7-3" 106.7900 "Sandstone" -999.25   -999.25   100.0000      0.0      0.0 "m/c"      "m/c"      "Channel_cutting_tidal_flat"                                                                                                                  "Tidal_flat_system"                                                                                                                         
2952.5 "6407_7-3" 110.2700 "Sandstone" -999.25   -999.25   100.0000      0.0      0.0 "m/c"      "m/c"      "Channel_cutting_tidal_flat"                                                                                                                  "Tidal_flat_system"                                                                                                                         
2952.6 "6407_7-3" 113.6400 "Sandstone" -999.25   -999.25   100.0000      0.0      0.0 "m/c"      "m/c"      "Channel_cutting_tidal_flat"                                                                                                                  "Tidal_flat_system"                                                                                                                         
2952.7 "6407_7-3" 115.4100 "Sandstone" -999.25   -999.25   100.0000      0.0      0.0 "m/c"      "m/c"      "Channel_cutting_tidal_flat"                                                                                                                  "Tidal_flat_system"                                                                                                                         
