~Version
VERS  .                                 3.0 : CWLS LAS ASCII Standard - Version 3.0
WRAP  . NO                                  : One line per depth step
DLM   . SPACE                               : Column data section delimiter
SOURCE. Converted to LAS by Log Studio 4.76 : GeoProvider

~Well
STRT.         2852.0 : Start depth
STOP.         3100.5 : Stop depth
STEP.              1 : Step
NULL.        -999.25 : No-value
COMP.                : Company
WELL. 6407/7-3       : Well
FLD .                : Field
LOC .                : Location
LATI.                : Latitude
LONG.                : Longitude
GDAT.                : Geodetic datum
CNTY.                : County
STAT.                : State
CTRY.                : Country
SRVC. GeoProvider AS : Service company
DATE.                : Date
API .                : API number
RUN .                : Run number

~Parameters
WellboreName.  : Wellbore name
RigName     .  : Rig name
StartDate   .  : Start date

~Curves
DEPTH.m            .  : null {F}Depth mMD
Hole_ID.-          .  : null {S}Hole ID
GR.API             .  : null {F}Gamma Ray
Lithology1.-       .  : null {S}Lithology 1
Lithology2.-       .  : null {S}Lithology 2
Lithology3.-       .  : null {S}Lithology 3
Lithology1.%       .  : null {F}Lithology 1 percentage
Lithology2.%       .  : null {F}Lithology 2 percentage
Lithology3.%       .  : null {F}Lithology 3 percentage
Grain_size_Top.-   .  : null {S}Grain size at the top 
Grain_size_Base.-  .  : null {S}Grain size at the bottom
Sub_Environment.-  .  : null {S}Sub Environment
Gross_Environment.-.  : null {S}Gross Environment

~Ascii
# ...
3070.4 "6407_7-3"  89.0600 "Sandstone" "Claystone" -999.25     5.0000 95.00000      0.0 "clay/silt" "vf/f"     "Poorly_drained_floodplain_and_lacustrine_conditions"                                                                                         "Alluvial_plain_to_upper_delta_plain_deposits._The_braided_system_accumulated_near_the_source_area_under_humid/temperate_climatic_conditions."
3070.5 "6407_7-3"  89.5700 "Sandstone" "Claystone" -999.25     5.0000 95.00000      0.0 "clay/silt" "vf/f"     "Poorly_drained_floodplain_and_lacustrine_conditions"                                                                                         "Alluvial_plain_to_upper_delta_plain_deposits._The_braided_system_accumulated_near_the_source_area_under_humid/temperate_climatic_conditions."
3070.6 "6407_7-3"  91.2100 "Sandstone" "Claystone" -999.25     5.0000 95.00000      0.0 "clay/silt" "vf/f"     "Poorly_drained_floodplain_and_lacustrine_conditions"                                                                                         "Alluvial_plain_to_upper_delta_plain_deposits._The_braided_system_accumulated_near_the_source_area_under_humid/temperate_climatic_conditions."
3070.7 "6407_7-3"  93.1600 "Sandstone" "Claystone" -999.25     5.0000 95.00000      0.0 "clay/silt" "vf/f"     "Poorly_drained_floodplain_and_lacustrine_conditions"                                                                                         "Alluvial_plain_to_upper_delta_plain_deposits._The_braided_system_accumulated_near_the_source_area_under_humid/temperate_climatic_conditions."
3070.8 "6407_7-3"  95.1000 "Sandstone" "Claystone" -999.25     5.0000 95.00000      0.0 "clay/silt" "vf/f"     "Poorly_drained_floodplain_and_lacustrine_conditions"                                                                                         "Alluvial_plain_to_upper_delta_plain_deposits._The_braided_system_accumulated_near_the_source_area_under_humid/temperate_climatic_conditions."
3070.9 "6407_7-3"  96.9700 "Sandstone" "Claystone" -999.25     5.0000 95.00000      0.0 "clay/silt" "vf/f"     "Poorly_drained_floodplain_and_lacustrine_conditions"                                                                                         "Alluvial_plain_to_upper_delta_plain_deposits._The_braided_system_accumulated_near_the_source_area_under_humid/temperate_climatic_conditions."
3071.0 "6407_7-3"  98.8300 "Sandstone" "Claystone" -999.25     5.0000 95.00000      0.0 "clay/silt" "vf/f"     "Poorly_drained_floodplain_and_lacustrine_conditions"                                                                                         "Alluvial_plain_to_upper_delta_plain_deposits._The_braided_system_accumulated_near_the_source_area_under_humid/temperate_climatic_conditions."
3071.1 "6407_7-3"  99.7000 "Sandstone" "Claystone" -999.25     5.0000 95.00000      0.0 "clay/silt" "vf/f"     "Poorly_drained_floodplain_and_lacustrine_conditions"                                                                                         "Alluvial_plain_to_upper_delta_plain_deposits._The_braided_system_accumulated_near_the_source_area_under_humid/temperate_climatic_conditions."
3071.2 "6407_7-3"  99.9300 "Sandstone" "Claystone" -999.25     5.0000 95.00000      0.0 "clay/silt" "vf/f"     "Poorly_drained_floodplain_and_lacustrine_conditions"                                                                                         "Alluvial_plain_to_upper_delta_plain_deposits._The_braided_system_accumulated_near_the_source_area_under_humid/temperate_climatic_conditions."
3071.3 "6407_7-3"  99.6500 "Sandstone" "Claystone" -999.25     5.0000 95.00000      0.0 "clay/silt" "vf/f"     "Poorly_drained_floodplain_and_lacustrine_conditions"                                                                                         "Alluvial_plain_to_upper_delta_plain_deposits._The_braided_system_accumulated_near_the_source_area_under_humid/temperate_climatic_conditions."
3071.4 "6407_7-3"  98.8200 "Sandstone" "Claystone" -999.25     5.0000 95.00000      0.0 "clay/silt" "vf/f"     "Poorly_drained_floodplain_and_lacustrine_conditions"                                                                                         "Alluvial_plain_to_upper_delta_plain_deposits._The_braided_system_accumulated_near_the_source_area_under_humid/temperate_climatic_conditions."
3071.5 "6407_7-3"  97.7200 "Sandstone" "Claystone" -999.25     5.0000 95.00000      0.0 "clay/silt" "vf/f"     "Poorly_drained_floodplain_and_lacustrine_conditions"                                                                                         "Alluvial_plain_to_upper_delta_plain_deposits._The_braided_system_accumulated_near_the_source_area_under_humid/temperate_climatic_conditions."
3071.6 "6407_7-3"  97.4800 "Sandstone" "Claystone" -999.25     5.0000 95.00000      0.0 "clay/silt" "vf/f"     "Poorly_drained_floodplain_and_lacustrine_conditions"                                                                                         "Alluvial_plain_to_upper_delta_plain_deposits._The_braided_system_accumulated_near_the_source_area_under_humid/temperate_climatic_conditions."
3071.7 "6407_7-3"  98.3900 "Sandstone" "Claystone" -999.25     5.0000 95.00000      0.0 "clay/silt" "vf/f"     "Poorly_drained_floodplain_and_lacustrine_conditions"                                                                                         "Alluvial_plain_to_upper_delta_plain_deposits._The_braided_system_accumulated_near_the_source_area_under_humid/temperate_climatic_conditions."
3071.8 "6407_7-3"  99.0300 "Sandstone" "Claystone" -999.25     5.0000 95.00000      0.0 "clay/silt" "vf/f"     "Poorly_drained_floodplain_and_lacustrine_conditions"                                                                                         "Alluvial_plain_to_upper_delta_plain_deposits._The_braided_system_accumulated_near_the_source_area_under_humid/temperate_climatic_conditions."
3071.9 "6407_7-3"  99.1900 "Sandstone" "Claystone" -999.25     5.0000 95.00000      0.0 "clay/silt" "vf/f"     "Poorly_drained_floodplain_and_lacustrine_conditions"                                                                                         "Alluvial_plain_to_upper_delta_plain_deposits._The_braided_system_accumulated_near_the_source_area_under_humid/temperate_climatic_conditions."
3072.0 "6407_7-3"  98.9700 "Sandstone" "Claystone" -999.25     5.0000 95.00000      0.0 "clay/silt" "vf/f"     "Poorly_drained_floodplain_and_lacustrine_conditions"                                                                                         "Alluvial_plain_to_upper_delta_plain_deposits._The_braided_system_accumulated_near_the_source_area_under_humid/temperate_climatic_conditions."
3072.1 "6407_7-3"  98.7600 "Sandstone" "Claystone" -999.25     5.0000 95.00000      0.0 "clay/silt" "vf/f"     "Poorly_drained_floodplain_and_lacustrine_conditions"                                                                                         "Alluvial_plain_to_upper_delta_plain_deposits._The_braided_system_accumulated_near_the_source_area_under_humid/temperate_climatic_conditions."
3072.2 "6407_7-3"  99.1300 "Sandstone" "Claystone" -999.25     5.0000 95.00000      0.0 "clay/silt" "vf/f"     "Poorly_drained_floodplain_and_lacustrine_conditions"                                                                                         "Alluvial_plain_to_upper_delta_plain_deposits._The_braided_system_accumulated_near_the_source_area_under_humid/temperate_climatic_conditions."
3072.3 "6407_7-3" 100.9100 "Sandstone" "Claystone" -999.25     5.0000 95.00000      0.0 "clay/silt" "vf/f"     "Poorly_drained_floodplain_and_lacustrine_conditions"                                                                                         "Alluvial_plain_to_upper_delta_plain_deposits._The_braided_system_accumulated_near_the_source_area_under_humid/temperate_climatic_conditions."
3072.4 "6407_7-3" 104.4400 "Sandstone" "Claystone" -999.25     5.0000 95.00000      0.0 "clay/silt" "vf/f"     "Poorly_drained_floodplain_and_lacustrine_conditions"                                                                                         "Alluvial_plain_to_upper_delta_plain_deposits._The_braided_system_accumulated_near_the_source_area_under_humid/temperate_climatic_conditions."
