~Version
VERS  .                                 3.0 : CWLS LAS ASCII Standard - Version 3.0
WRAP  . NO                                  : One line per depth step
DLM   . SPACE                               : Column data section delimiter
SOURCE. Converted to LAS by Log Studio 4.76 : GeoProvider

~Well
STRT.         2852.0 : Start depth
STOP.         3100.5 : Stop depth
STEP.              1 : Step
NULL.        -999.25 : No-value
COMP.                : Company
WELL. 6407/7-3       : Well
FLD .                : Field
LOC .                : Location
LATI.                : Latitude
LONG.                : Longitude
GDAT.                : Geodetic datum
CNTY.                : County
STAT.                : State
CTRY.                : Country
SRVC. GeoProvider AS : Service company
DATE.                : Date
API .                : API number
RUN .                : Run number

~Parameters
WellboreName.  : Wellbore name
RigName     .  : Rig name
StartDate   .  : Start date

~Curves
DEPTH.m            .  : null {F}Depth mMD
Hole_ID.-          .  : null {S}Hole ID
GR.API             .  : null {F}Gamma Ray
Lithology1.-       .  : null {S}Lithology 1
Lithology2.-       .  : null {S}Lithology 2
Lithology3.-       .  : null {S}Lithology 3
Lithology1.%       .  : null {F}Lithology 1 percentage
Lithology2.%       .  : null {F}Lithology 2 percentage
Lithology3.%       .  : null {F}Lithology 3 percentage
Grain_size_Top.-   .  : null {S}Grain size at the top 
Grain_size_Base.-  .  : null {S}Grain size at the bottom
Sub_Environment.-  .  : null {S}Sub Environment
Gross_Environment.-.  : null {S}Gross Environment

~Ascii
# ...
2975.9 "6407_7-3"  88.1500 "Sandstone" "Claystone" -999.25    17.0000 83.00000      0.0 "f"        "clay/silt" "Salinity_change"                                                                                                                             "Distal_delta_front"                                                                                                                        
2976.0 "6407_7-3"  83.6400 "Sandstone" "Claystone" -999.25    17.0000 83.00000      0.0 "f"        "clay/silt" "Salinity_change"                                                                                                                             "Distal_delta_front"                                                                                                                        
2976.1 "6407_7-3"  80.6500 "Sandstone" "Claystone" -999.25    17.0000 83.00000      0.0 "f"        "clay/silt" "Salinity_change"                                                                                                                             "Distal_delta_front"                                                                                                                        
2976.2 "6407_7-3"  80.0400 "Sandstone" "Claystone" -999.25    17.0000 83.00000      0.0 "f"        "clay/silt" "Salinity_change"                                                                                                                             "Distal_delta_front"                                                                                                                        
2976.3 "6407_7-3"  79.4200 "Sandstone" "Claystone" -999.25    17.0000 83.00000      0.0 "f"        "clay/silt" "Salinity_change"                                                                                                                             "Distal_delta_front"                                                                                                                        
2976.4 "6407_7-3"  77.8700 "Sandstone" "Claystone" -999.25    17.0000 83.00000      0.0 "f"        "clay/silt" "Lower_shoreface_alternating_storm_and_fairweather_periods"                                                                                   "Distal_delta_front"                                                                                                                        
2976.5 "6407_7-3"  74.9800 "Sandstone" "Claystone" -999.25    17.0000 83.00000      0.0 "f"        "clay/silt" "Lower_shoreface_alternating_storm_and_fairweather_periods"                                                                                   "Distal_delta_front"                                                                                                                        
2976.6 "6407_7-3"  73.1300 "Sandstone" "Claystone" -999.25    17.0000 83.00000      0.0 "f"        "clay/silt" "Lower_shoreface_alternating_storm_and_fairweather_periods"                                                                                   "Distal_delta_front"                                                                                                                        
2976.7 "6407_7-3"  75.5400 "Sandstone" "Claystone" -999.25    17.0000 83.00000      0.0 "f"        "clay/silt" "Lower_shoreface_alternating_storm_and_fairweather_periods"                                                                                   "Distal_delta_front"                                                                                                                        
2976.8 "6407_7-3"  81.4600 "Sandstone" "Claystone" -999.25    17.0000 83.00000      0.0 "f"        "clay/silt" "Lower_shoreface_alternating_storm_and_fairweather_periods"                                                                                   "Distal_delta_front"                                                                                                                        
2976.9 "6407_7-3"  87.4100 "Sandstone" "Claystone" -999.25    17.0000 83.00000      0.0 "f"        "clay/silt" "Lower_shoreface_alternating_storm_and_fairweather_periods"                                                                                   "Distal_delta_front"                                                                                                                        
2977.0 "6407_7-3"  93.3500 "Sandstone" "Claystone" -999.25    17.0000 83.00000      0.0 "f"        "clay/silt" "Lower_shoreface_alternating_storm_and_fairweather_periods"                                                                                   "Distal_delta_front"                                                                                                                        
2977.1 "6407_7-3"  99.3000 "Sandstone" "Claystone" -999.25    17.0000 83.00000      0.0 "f"        "clay/silt" "Lower_shoreface_alternating_storm_and_fairweather_periods"                                                                                   "Distal_delta_front"                                                                                                                        
2977.2 "6407_7-3" 105.8000 "Sandstone" "Claystone" -999.25    17.0000 83.00000      0.0 "f"        "clay/silt" "Lower_shoreface_alternating_storm_and_fairweather_periods"                                                                                   "Distal_delta_front"                                                                                                                        
2977.3 "6407_7-3" 112.4900 "Sandstone" "Claystone" -999.25    17.0000 83.00000      0.0 "f"        "clay/silt" "Lower_shoreface_alternating_storm_and_fairweather_periods"                                                                                   "Distal_delta_front"                                                                                                                        
2977.4 "6407_7-3" 117.6000 "Sandstone" "Claystone" -999.25    17.0000 83.00000      0.0 "f"        "clay/silt" "Lower_shoreface_alternating_storm_and_fairweather_periods"                                                                                   "Distal_delta_front"                                                                                                                        
2977.5 "6407_7-3" 120.6300 "Sandstone" "Claystone" -999.25    17.0000 83.00000      0.0 "f"        "clay/silt" "Lower_shoreface_alternating_storm_and_fairweather_periods"                                                                                   "Distal_delta_front"                                                                                                                        
2977.6 "6407_7-3" 121.9700 "Sandstone" "Claystone" -999.25    17.0000 83.00000      0.0 "f"        "clay/silt" "Lower_shoreface_alternating_storm_and_fairweather_periods"                                                                                   "Distal_delta_front"                                                                                                                        
2977.7 "6407_7-3" 121.4000 "Sandstone" "Claystone" -999.25    17.0000 83.00000      0.0 "f"        "clay/silt" "Lower_shoreface_alternating_storm_and_fairweather_periods"                                                                                   "Distal_delta_front"                                                                                                                        
2977.8 "6407_7-3" 119.2700 "Sandstone" "Claystone" -999.25    17.0000 83.00000      0.0 "f"        "clay/silt" "Lower_shoreface_alternating_storm_and_fairweather_periods"                                                                                   "Distal_delta_front"                                                                                                                        
2977.9 "6407_7-3" 117.0400 "Sandstone" "Claystone" -999.25    17.0000 83.00000      0.0 "f"        "clay/silt" "Lower_shoreface_alternating_storm_and_fairweather_periods"                                                                                   "Distal_delta_front"                                                                                                                        
