~Version
VERS  .                                 3.0 : CWLS LAS ASCII Standard - Version 3.0
WRAP  . NO                                  : One line per depth step
DLM   . SPACE                               : Column data section delimiter
SOURCE. Converted to LAS by Log Studio 4.76 : GeoProvider

~Well
STRT.         2852.0 : Start depth
STOP.         3100.5 : Stop depth
STEP.              1 : Step
NULL.        -999.25 : No-value
COMP.                : Company
WELL. 6407/7-3       : Well
FLD .                : Field
LOC .                : Location
LATI.                : Latitude
LONG.                : Longitude
GDAT.                : Geodetic datum
CNTY.                : County
STAT.                : State
CTRY.                : Country
SRVC. GeoProvider AS : Service company
DATE.                : Date
API .                : API number
RUN .                : Run number

~Parameters
WellboreName.  : Wellbore name
RigName     .  : Rig name
StartDate   .  : Start date

~Curves
DEPTH.m            .  : null {F}Depth mMD
Hole_ID.-          .  : null {S}Hole ID
GR.API             .  : null {F}Gamma Ray
Lithology1.-       .  : null {S}Lithology 1
Lithology2.-       .  : null {S}Lithology 2
Lithology3.-       .  : null {S}Lithology 3
Lithology1.%       .  : null {F}Lithology 1 percentage
Lithology2.%       .  : null {F}Lithology 2 percentage
Lithology3.%       .  : null {F}Lithology 3 percentage
Grain_size_Top.-   .  : null {S}Grain size at the top 
Grain_size_Base.-  .  : null {S}Grain size at the bottom
Sub_Environment.-  .  : null {S}Sub Environment
Gross_Environment.-.  : null {S}Gross Environment

~Ascii
# ...
2879.3 "6407_7-3"  72.5700 "Sandstone" "Limestone" -999.25    77.0000 23.00000      0.0 "c/vc"     "vf/f"     "Storm_influenced_lower_shoreface/offshore"                                                                                                   "Stacked,_punctuated_progradational_sequences_of_shoreline_or_delta_front"                                                                  
2879.4 "6407_7-3"  72.6800 "Sandstone" "Limestone" -999.25    77.0000 23.00000      0.0 "c/vc"     "vf/f"     "Storm_influenced_lower_shoreface/offshore"                                                                                                   "Stacked,_punctuated_progradational_sequences_of_shoreline_or_delta_front"                                                                  
2879.5 "6407_7-3"  72.7800 "Sandstone" "Limestone" -999.25    77.0000 23.00000      0.0 "c/vc"     "vf/f"     "Storm_influenced_lower_shoreface/offshore"                                                                                                   "Stacked,_punctuated_progradational_sequences_of_shoreline_or_delta_front"                                                                  
2879.6 "6407_7-3"  72.8800 "Sandstone" "Limestone" -999.25    77.0000 23.00000      0.0 "c/vc"     "vf/f"     "Storm_influenced_lower_shoreface/offshore"                                                                                                   "Stacked,_punctuated_progradational_sequences_of_shoreline_or_delta_front"                                                                  
2879.7 "6407_7-3"  72.9900 "Sandstone" "Limestone" -999.25    77.0000 23.00000      0.0 "c/vc"     "vf/f"     "Storm_influenced_lower_shoreface/offshore"                                                                                                   "Stacked,_punctuated_progradational_sequences_of_shoreline_or_delta_front"                                                                  
2879.8 "6407_7-3"  73.0600 "Sandstone" "Limestone" -999.25    77.0000 23.00000      0.0 "c/vc"     "vf/f"     "Storm_influenced_lower_shoreface/offshore"                                                                                                   "Stacked,_punctuated_progradational_sequences_of_shoreline_or_delta_front"                                                                  
2879.9 "6407_7-3"  73.0300 "Sandstone" "Limestone" -999.25    77.0000 23.00000      0.0 "c/vc"     "vf/f"     "Storm_influenced_lower_shoreface/offshore"                                                                                                   "Stacked,_punctuated_progradational_sequences_of_shoreline_or_delta_front"                                                                  
2880.0 "6407_7-3"  72.9900 "Sandstone" "Limestone" -999.25    77.0000 23.00000      0.0 "c/vc"     "vf/f"     "Storm_influenced_lower_shoreface/offshore"                                                                                                   "Stacked,_punctuated_progradational_sequences_of_shoreline_or_delta_front"                                                                  
2880.1 "6407_7-3"  72.9500 "Sandstone" "Limestone" -999.25    77.0000 23.00000      0.0 "c/vc"     "vf/f"     "Storm_influenced_lower_shoreface/offshore"                                                                                                   "Stacked,_punctuated_progradational_sequences_of_shoreline_or_delta_front"                                                                  
2880.2 "6407_7-3"  72.9200 "Sandstone" "Limestone" -999.25    77.0000 23.00000      0.0 "c/vc"     "vf/f"     "Storm_influenced_lower_shoreface/offshore"                                                                                                   "Stacked,_punctuated_progradational_sequences_of_shoreline_or_delta_front"                                                                  
2880.3 "6407_7-3"  72.8800 "Sandstone" "Limestone" -999.25    77.0000 23.00000      0.0 "c/vc"     "vf/f"     "Storm_influenced_lower_shoreface/offshore"                                                                                                   "Stacked,_punctuated_progradational_sequences_of_shoreline_or_delta_front"                                                                  
2880.4 "6407_7-3"  73.3500 "Sandstone" "Limestone" -999.25    77.0000 23.00000      0.0 "c/vc"     "vf/f"     "Storm_influenced_lower_shoreface/offshore"                                                                                                   "Stacked,_punctuated_progradational_sequences_of_shoreline_or_delta_front"                                                                  
2880.5 "6407_7-3"  74.0800 "Sandstone" "Limestone" -999.25    77.0000 23.00000      0.0 "c/vc"     "vf/f"     "Storm_influenced_lower_shoreface/offshore"                                                                                                   "Stacked,_punctuated_progradational_sequences_of_shoreline_or_delta_front"                                                                  
2880.6 "6407_7-3"  74.8100 "Sandstone" "Limestone" -999.25    55.0000 45.00000      0.0 "f"        "vf/f"     "Storm_influenced_lower_shoreface/offshore"                                                                                                   "Stacked,_punctuated_progradational_sequences_of_shoreline_or_delta_front"                                                                  
2880.7 "6407_7-3"  75.4900 "Sandstone" "Limestone" -999.25    55.0000 45.00000      0.0 "f"        "vf/f"     "Storm_influenced_lower_shoreface/offshore"                                                                                                   "Stacked,_punctuated_progradational_sequences_of_shoreline_or_delta_front"                                                                  
2880.8 "6407_7-3"  74.9900 "Sandstone" "Limestone" -999.25    55.0000 45.00000      0.0 "f"        "vf/f"     "Storm_influenced_lower_shoreface/offshore"                                                                                                   "Stacked,_punctuated_progradational_sequences_of_shoreline_or_delta_front"                                                                  
2880.9 "6407_7-3"  72.8400 "Sandstone" "Limestone" -999.25    55.0000 45.00000      0.0 "f"        "vf/f"     "Storm_influenced_lower_shoreface/offshore"                                                                                                   "Stacked,_punctuated_progradational_sequences_of_shoreline_or_delta_front"                                                                  
2881.0 "6407_7-3"  70.6800 "Sandstone" "Limestone" -999.25    55.0000 45.00000      0.0 "f"        "vf/f"     "Storm_influenced_lower_shoreface/offshore"                                                                                                   "Stacked,_punctuated_progradational_sequences_of_shoreline_or_delta_front"                                                                  
2881.1 "6407_7-3"  68.5200 "Sandstone" "Limestone" -999.25    55.0000 45.00000      0.0 "f"        "vf/f"     "Storm_influenced_lower_shoreface/offshore"                                                                                                   "Stacked,_punctuated_progradational_sequences_of_shoreline_or_delta_front"                                                                  
2881.2 "6407_7-3"  68.4000 "Sandstone" "Limestone" -999.25    55.0000 45.00000      0.0 "f"        "vf/f"     "Storm_influenced_lower_shoreface/offshore"                                                                                                   "Stacked,_punctuated_progradational_sequences_of_shoreline_or_delta_front"                                                                  
2881.3 "6407_7-3"  69.3200 "Sandstone" -999.25   -999.25   100.0000      0.0      0.0 "m/c"      "m/c"      "Storm_influenced_lower_shoreface/offshore"                                                                                                   "Stacked,_punctuated_progradational_sequences_of_shoreline_or_delta_front"                                                                  
