~Version
VERS  .                                 3.0 : CWLS LAS ASCII Standard - Version 3.0
WRAP  . NO                                  : One line per depth step
DLM   . SPACE                               : Column data section delimiter
SOURCE. Converted to LAS by Log Studio 4.76 : GeoProvider

~Well
STRT.         2852.0 : Start depth
STOP.         3100.5 : Stop depth
STEP.              1 : Step
NULL.        -999.25 : No-value
COMP.                : Company
WELL. 6407/7-3       : Well
FLD .                : Field
LOC .                : Location
LATI.                : Latitude
LONG.                : Longitude
GDAT.                : Geodetic datum
CNTY.                : County
STAT.                : State
CTRY.                : Country
SRVC. GeoProvider AS : Service company
DATE.                : Date
API .                : API number
RUN .                : Run number

~Parameters
WellboreName.  : Wellbore name
RigName     .  : Rig name
StartDate   .  : Start date

~Curves
DEPTH.m            .  : null {F}Depth mMD
Hole_ID.-          .  : null {S}Hole ID
GR.API             .  : null {F}Gamma Ray
Lithology1.-       .  : null {S}Lithology 1
Lithology2.-       .  : null {S}Lithology 2
Lithology3.-       .  : null {S}Lithology 3
Lithology1.%       .  : null {F}Lithology 1 percentage
Lithology2.%       .  : null {F}Lithology 2 percentage
Lithology3.%       .  : null {F}Lithology 3 percentage
Grain_size_Top.-   .  : null {S}Grain size at the top 
Grain_size_Base.-  .  : null {S}Grain size at the bottom
Sub_Environment.-  .  : null {S}Sub Environment
Gross_Environment.-.  : null {S}Gross Environment

~Ascii
# ...
3017.9 "6407_7-3" 107.7800 "Sandstone" "Claystone" "Limestone"  10.0000 70.00000 20.00000 "vf/f"     "clay/silt" "Alternating_subaerial_and_subaqueous_floodplain_deposits."                                                                                   "Lower_delta_plain_dominated_by_poorly_drained_flood_plain_deposits."                                                                       
3018.0 "6407_7-3" 104.8100 "Sandstone" "Claystone" "Limestone"  10.0000 70.00000 20.00000 "vf/f"     "clay/silt" "Alternating_subaerial_and_subaqueous_floodplain_deposits."                                                                                   "Lower_delta_plain_dominated_by_poorly_drained_flood_plain_deposits."                                                                       
3018.1 "6407_7-3" 101.6200 "Sandstone" "Claystone" "Limestone"  10.0000 70.00000 20.00000 "vf/f"     "clay/silt" "Alternating_subaerial_and_subaqueous_floodplain_deposits."                                                                                   "Lower_delta_plain_dominated_by_poorly_drained_flood_plain_deposits."                                                                       
3018.2 "6407_7-3"  99.4500 "Sandstone" "Claystone" "Limestone"  10.0000 70.00000 20.00000 "vf/f"     "clay/silt" "Alternating_subaerial_and_subaqueous_floodplain_deposits."                                                                                   "Lower_delta_plain_dominated_by_poorly_drained_flood_plain_deposits."                                                                       
3018.3 "6407_7-3"  98.7600 "Sandstone" "Claystone" "Limestone"  10.0000 70.00000 20.00000 "vf/f"     "clay/silt" "Alternating_subaerial_and_subaqueous_floodplain_deposits."                                                                                   "Lower_delta_plain_dominated_by_poorly_drained_flood_plain_deposits."                                                                       
3018.4 "6407_7-3"  99.3400 "Sandstone" "Claystone" "Limestone"  10.0000 70.00000 20.00000 "vf/f"     "clay/silt" "Alternating_subaerial_and_subaqueous_floodplain_deposits."                                                                                   "Lower_delta_plain_dominated_by_poorly_drained_flood_plain_deposits."                                                                       
3018.5 "6407_7-3" 101.8700 "Sandstone" "Claystone" "Limestone"  10.0000 70.00000 20.00000 "vf/f"     "clay/silt" "Alternating_subaerial_and_subaqueous_floodplain_deposits."                                                                                   "Lower_delta_plain_dominated_by_poorly_drained_flood_plain_deposits."                                                                       
3018.6 "6407_7-3" 104.5200 "Sandstone" "Claystone" "Limestone"  10.0000 70.00000 20.00000 "vf/f"     "clay/silt" "Alternating_subaerial_and_subaqueous_floodplain_deposits."                                                                                   "Lower_delta_plain_dominated_by_poorly_drained_flood_plain_deposits."                                                                       
3018.7 "6407_7-3" 107.6200 "Sandstone" "Claystone" "Limestone"  10.0000 70.00000 20.00000 "vf/f"     "clay/silt" "Alternating_subaerial_and_subaqueous_floodplain_deposits."                                                                                   "Lower_delta_plain_dominated_by_poorly_drained_flood_plain_deposits."                                                                       
3018.8 "6407_7-3" 108.4700 "Sandstone" "Claystone" "Limestone"  10.0000 70.00000 20.00000 "vf/f"     "clay/silt" "Alternating_subaerial_and_subaqueous_floodplain_deposits."                                                                                   "Lower_delta_plain_dominated_by_poorly_drained_flood_plain_deposits."                                                                       
3018.9 "6407_7-3" 105.9800 "Sandstone" "Claystone" "Limestone"  10.0000 70.00000 20.00000 "vf/f"     "clay/silt" "Alternating_subaerial_and_subaqueous_floodplain_deposits."                                                                                   "Lower_delta_plain_dominated_by_poorly_drained_flood_plain_deposits."                                                                       
3019.0 "6407_7-3" 102.1100 "Sandstone" "Claystone" "Limestone"  10.0000 70.00000 20.00000 "vf/f"     "clay/silt" "Alternating_subaerial_and_subaqueous_floodplain_deposits."                                                                                   "Lower_delta_plain_dominated_by_poorly_drained_flood_plain_deposits."                                                                       
3019.1 "6407_7-3"  94.7500 "Sandstone" "Claystone" "Limestone"  10.0000 70.00000 20.00000 "vf/f"     "clay/silt" "Alternating_subaerial_and_subaqueous_floodplain_deposits."                                                                                   "Lower_delta_plain_dominated_by_poorly_drained_flood_plain_deposits."                                                                       
3019.2 "6407_7-3"  91.3400 "Sandstone" "Claystone" "Limestone"  10.0000 70.00000 20.00000 "vf/f"     "clay/silt" "Alternating_subaerial_and_subaqueous_floodplain_deposits."                                                                                   "Lower_delta_plain_dominated_by_poorly_drained_flood_plain_deposits."                                                                       
3019.3 "6407_7-3"  90.7400 "Sandstone" "Claystone" "Limestone"  10.0000 70.00000 20.00000 "vf/f"     "clay/silt" "Alternating_subaerial_and_subaqueous_floodplain_deposits."                                                                                   "Lower_delta_plain_dominated_by_poorly_drained_flood_plain_deposits."                                                                       
3019.4 "6407_7-3"  92.5700 "Sandstone" "Claystone" "Limestone"  10.0000 70.00000 20.00000 "vf/f"     "clay/silt" "Alternating_subaerial_and_subaqueous_floodplain_deposits."                                                                                   "Lower_delta_plain_dominated_by_poorly_drained_flood_plain_deposits."                                                                       
3019.5 "6407_7-3"  95.9800 "Sandstone" "Claystone" "Limestone"  10.0000 70.00000 20.00000 "vf/f"     "clay/silt" "Alternating_subaerial_and_subaqueous_floodplain_deposits."                                                                                   "Lower_delta_plain_dominated_by_poorly_drained_flood_plain_deposits."                                                                       
3019.6 "6407_7-3"  98.6900 "Sandstone" "Claystone" "Limestone"  10.0000 70.00000 20.00000 "vf/f"     "clay/silt" "Alternating_subaerial_and_subaqueous_floodplain_deposits."                                                                                   "Lower_delta_plain_dominated_by_poorly_drained_flood_plain_deposits."                                                                       
3019.7 "6407_7-3"  99.1100 "Sandstone" "Claystone" "Limestone"  10.0000 70.00000 20.00000 "vf/f"     "clay/silt" "Alternating_subaerial_and_subaqueous_floodplain_deposits."                                                                                   "Lower_delta_plain_dominated_by_poorly_drained_flood_plain_deposits."                                                                       
3019.8 "6407_7-3"  99.0700 "Sandstone" "Claystone" "Limestone"  10.0000 70.00000 20.00000 "vf/f"     "clay/silt" "Alternating_subaerial_and_subaqueous_floodplain_deposits."                                                                                   "Lower_delta_plain_dominated_by_poorly_drained_flood_plain_deposits."                                                                       
3019.9 "6407_7-3"  99.0200 "Sandstone" "Claystone" "Limestone"  10.0000 70.00000 20.00000 "vf/f"     "clay/silt" "Alternating_subaerial_and_subaqueous_floodplain_deposits."                                                                                   "Lower_delta_plain_dominated_by_poorly_drained_flood_plain_deposits."                                                                       
