~Version
VERS  .                                 3.0 : CWLS LAS ASCII Standard - Version 3.0
WRAP  . NO                                  : One line per depth step
DLM   . SPACE                               : Column data section delimiter
SOURCE. Converted to LAS by Log Studio 4.76 : GeoProvider

~Well
STRT.         2852.0 : Start depth
STOP.         3100.5 : Stop depth
STEP.              1 : Step
NULL.        -999.25 : No-value
COMP.                : Company
WELL. 6407/7-3       : Well
FLD .                : Field
LOC .                : Location
LATI.                : Latitude
LONG.                : Longitude
GDAT.                : Geodetic datum
CNTY.                : County
STAT.                : State
CTRY.                : Country
SRVC. GeoProvider AS : Service company
DATE.                : Date
API .                : API number
RUN .                : Run number

~Parameters
WellboreName.  : Wellbore name
RigName     .  : Rig name
StartDate   .  : Start date

~Curves
DEPTH.m            .  : null {F}Depth mMD
Hole_ID.-          .  : null {S}Hole ID
GR.API             .  : null {F}Gamma Ray
Lithology1.-       .  : null {S}Lithology 1
Lithology2.-       .  : null {S}Lithology 2
Lithology3.-       .  : null {S}Lithology 3
Lithology1.%       .  : null {F}Lithology 1 percentage
Lithology2.%       .  : null {F}Lithology 2 percentage
Lithology3.%       .  : null {F}Lithology 3 percentage
Grain_size_Top.-   .  : null {S}Grain size at the top 
Grain_size_Base.-  .  : null {S}Grain size at the bottom
Sub_Environment.-  .  : null {S}Sub Environment
Gross_Environment.-.  : null {S}Gross Environment

~Ascii
# ...
2936.0 "6407_7-3"  -999.25 -999.25   -999.25   -999.25    -999.25  -999.25  -999.25 -999.25    -999.25    "Storm_influenced_lower_shoreface/offshore"                                                                                                   -999.25                                                                                                                                     
2936.1 "6407_7-3"  -999.25 -999.25   -999.25   -999.25    -999.25  -999.25  -999.25 -999.25    -999.25    "Storm_influenced_lower_shoreface/offshore"                                                                                                   -999.25                                                                                                                                     
2936.2 "6407_7-3"  -999.25 -999.25   -999.25   -999.25    -999.25  -999.25  -999.25 -999.25    -999.25    "Storm_influenced_lower_shoreface/offshore"                                                                                                   -999.25                                                                                                                                     
2936.3 "6407_7-3"  -999.25 -999.25   -999.25   -999.25    -999.25  -999.25  -999.25 -999.25    -999.25    "Storm_influenced_lower_shoreface/offshore"                                                                                                   -999.25                                                                                                                                     
2936.4 "6407_7-3"  -999.25 -999.25   -999.25   -999.25    -999.25  -999.25  -999.25 -999.25    -999.25    "Storm_influenced_lower_shoreface/offshore"                                                                                                   -999.25                                                                                                                                     
2936.5 "6407_7-3"  -999.25 -999.25   -999.25   -999.25    -999.25  -999.25  -999.25 -999.25    -999.25    "Storm_influenced_lower_shoreface/offshore"                                                                                                   -999.25                                                                                                                                     
2936.6 "6407_7-3"  -999.25 -999.25   -999.25   -999.25    -999.25  -999.25  -999.25 -999.25    -999.25    "Storm_influenced_lower_shoreface/offshore"                                                                                                   -999.25                                                                                                                                     
2936.7 "6407_7-3"  -999.25 -999.25   -999.25   -999.25    -999.25  -999.25  -999.25 -999.25    -999.25    "Storm_influenced_lower_shoreface/offshore"                                                                                                   -999.25                                                                                                                                     
2936.8 "6407_7-3"  -999.25 -999.25   -999.25   -999.25    -999.25  -999.25  -999.25 -999.25    -999.25    "Storm_influenced_lower_shoreface/offshore"                                                                                                   -999.25                                                                                                                                     
2936.9 "6407_7-3"  -999.25 -999.25   -999.25   -999.25    -999.25  -999.25  -999.25 -999.25    -999.25    "Storm_influenced_lower_shoreface/offshore"                                                                                                   -999.25                                                                                                                                     
2937.0 "6407_7-3"  98.1600 "Limestone" -999.25   -999.25   100.0000      0.0      0.0 "vf/f"     "c/vc"     "Storm_influenced_lower_shoreface/offshore"                                                                                                   "Stacked,_punctuated_progradational_sequences_of_shoreline_or_delta_front"                                                                  
2937.1 "6407_7-3"  95.2200 "Limestone" -999.25   -999.25   100.0000      0.0      0.0 "vf/f"     "c/vc"     "Low_sedimentation_rate_in_fully_marine_setting"                                                                                              "Distal_delta_front_(prograding)"                                                                                                           
2937.2 "6407_7-3"  96.3600 "Limestone" -999.25   -999.25   100.0000      0.0      0.0 "vf/f"     "c/vc"     "Low_sedimentation_rate_in_fully_marine_setting"                                                                                              "Distal_delta_front_(prograding)"                                                                                                           
2937.3 "6407_7-3"  97.0600 "Limestone" -999.25   -999.25   100.0000      0.0      0.0 "vf/f"     "c/vc"     "Low_sedimentation_rate_in_fully_marine_setting"                                                                                              "Distal_delta_front_(prograding)"                                                                                                           
2937.4 "6407_7-3"  96.0900 "Limestone" -999.25   -999.25   100.0000      0.0      0.0 "vf/f"     "c/vc"     "Low_sedimentation_rate_in_fully_marine_setting"                                                                                              "Distal_delta_front_(prograding)"                                                                                                           
2937.5 "6407_7-3"  93.5800 "Limestone" -999.25   -999.25   100.0000      0.0      0.0 "vf/f"     "c/vc"     "Low_sedimentation_rate_in_fully_marine_setting"                                                                                              "Distal_delta_front_(prograding)"                                                                                                           
2937.6 "6407_7-3"  91.2100 "Limestone" -999.25   -999.25   100.0000      0.0      0.0 "vf/f"     "c/vc"     "Low_sedimentation_rate_in_fully_marine_setting"                                                                                              "Distal_delta_front_(prograding)"                                                                                                           
2937.7 "6407_7-3"  90.3300 "Limestone" -999.25   -999.25   100.0000      0.0      0.0 "vf/f"     "c/vc"     "Low_sedimentation_rate_in_fully_marine_setting"                                                                                              "Distal_delta_front_(prograding)"                                                                                                           
2937.8 "6407_7-3"  91.0500 "Limestone" -999.25   -999.25   100.0000      0.0      0.0 "vf/f"     "c/vc"     "Low_sedimentation_rate_in_fully_marine_setting"                                                                                              "Distal_delta_front_(prograding)"                                                                                                           
2937.9 "6407_7-3"  92.2100 "Sandstone" "Claystone" -999.25    46.0000 54.00000      0.0 "m/c"      "vf"       "Low_sedimentation_rate_in_fully_marine_setting"                                                                                              "Distal_delta_front_(prograding)"                                                                                                           
2938.0 "6407_7-3"  94.8100 "Sandstone" "Claystone" -999.25    46.0000 54.00000      0.0 "m/c"      "vf"       "Low_sedimentation_rate_in_fully_marine_setting"                                                                                              "Distal_delta_front_(prograding)"                                                                                                           
