~Version
VERS  .                                 3.0 : CWLS LAS ASCII Standard - Version 3.0
WRAP  . NO                                  : One line per depth step
DLM   . SPACE                               : Column data section delimiter
SOURCE. Converted to LAS by Log Studio 4.76 : GeoProvider

~Well
STRT.         2852.0 : Start depth
STOP.         3100.5 : Stop depth
STEP.              1 : Step
NULL.        -999.25 : No-value
COMP.                : Company
WELL. 6407/7-3       : Well
FLD .                : Field
LOC .                : Location
LATI.                : Latitude
LONG.                : Longitude
GDAT.                : Geodetic datum
CNTY.                : County
STAT.                : State
CTRY.                : Country
SRVC. GeoProvider AS : Service company
DATE.                : Date
API .                : API number
RUN .                : Run number

~Parameters
WellboreName.  : Wellbore name
RigName     .  : Rig name
StartDate   .  : Start date

~Curves
DEPTH.m            .  : null {F}Depth mMD
Hole_ID.-          .  : null {S}Hole ID
GR.API             .  : null {F}Gamma Ray
Lithology1.-       .  : null {S}Lithology 1
Lithology2.-       .  : null {S}Lithology 2
Lithology3.-       .  : null {S}Lithology 3
Lithology1.%       .  : null {F}Lithology 1 percentage
Lithology2.%       .  : null {F}Lithology 2 percentage
Lithology3.%       .  : null {F}Lithology 3 percentage
Grain_size_Top.-   .  : null {S}Grain size at the top 
Grain_size_Base.-  .  : null {S}Grain size at the bottom
Sub_Environment.-  .  : null {S}Sub Environment
Gross_Environment.-.  : null {S}Gross Environment

~Ascii
# ...
3030.5 "6407_7-3"  70.3600 "Sandstone" "Claystone" -999.25    20.0000 80.00000      0.0 "vf/f"     "clay/silt" "Sequence_of_rapidly_alternating_subaqueous_and_subaerial_floodplain_deposits"                                                                "Lower_delta_plain_dominated_by_poorly_drained_flood_plain_deposits."                                                                       
3030.6 "6407_7-3"  70.5200 "Sandstone" "Claystone" -999.25    20.0000 80.00000      0.0 "vf/f"     "clay/silt" "Sequence_of_rapidly_alternating_subaqueous_and_subaerial_floodplain_deposits"                                                                "Lower_delta_plain_dominated_by_poorly_drained_flood_plain_deposits."                                                                       
3030.7 "6407_7-3"  70.2600 "Sandstone" "Claystone" -999.25    20.0000 80.00000      0.0 "vf/f"     "clay/silt" "Sequence_of_rapidly_alternating_subaqueous_and_subaerial_floodplain_deposits"                                                                "Lower_delta_plain_dominated_by_poorly_drained_flood_plain_deposits."                                                                       
3030.8 "6407_7-3"  69.0500 "Sandstone" "Claystone" -999.25    20.0000 80.00000      0.0 "vf/f"     "clay/silt" "Sequence_of_rapidly_alternating_subaqueous_and_subaerial_floodplain_deposits"                                                                "Lower_delta_plain_dominated_by_poorly_drained_flood_plain_deposits."                                                                       
3030.9 "6407_7-3"  67.6700 "Sandstone" "Claystone" -999.25    20.0000 80.00000      0.0 "vf/f"     "clay/silt" "Sequence_of_rapidly_alternating_subaqueous_and_subaerial_floodplain_deposits"                                                                "Lower_delta_plain_dominated_by_poorly_drained_flood_plain_deposits."                                                                       
3031.0 "6407_7-3"  66.4100 "Sandstone" "Claystone" -999.25    20.0000 80.00000      0.0 "vf/f"     "clay/silt" "Sequence_of_rapidly_alternating_subaqueous_and_subaerial_floodplain_deposits"                                                                "Lower_delta_plain_dominated_by_poorly_drained_flood_plain_deposits."                                                                       
3031.1 "6407_7-3"  65.2800 "Sandstone" "Claystone" -999.25    20.0000 80.00000      0.0 "vf/f"     "clay/silt" "Sequence_of_rapidly_alternating_subaqueous_and_subaerial_floodplain_deposits"                                                                "Lower_delta_plain_dominated_by_poorly_drained_flood_plain_deposits."                                                                       
3031.2 "6407_7-3"  64.1400 "Sandstone" "Claystone" -999.25    20.0000 80.00000      0.0 "vf/f"     "clay/silt" "Sequence_of_rapidly_alternating_subaqueous_and_subaerial_floodplain_deposits"                                                                "Lower_delta_plain_dominated_by_poorly_drained_flood_plain_deposits."                                                                       
3031.3 "6407_7-3"  63.0500 "Sandstone" "Claystone" -999.25    20.0000 80.00000      0.0 "vf/f"     "clay/silt" "Sequence_of_rapidly_alternating_subaqueous_and_subaerial_floodplain_deposits"                                                                "Lower_delta_plain_dominated_by_poorly_drained_flood_plain_deposits."                                                                       
3031.4 "6407_7-3"  62.8000 "Sandstone" "Claystone" -999.25    20.0000 80.00000      0.0 "vf/f"     "clay/silt" "Sequence_of_rapidly_alternating_subaqueous_and_subaerial_floodplain_deposits"                                                                "Lower_delta_plain_dominated_by_poorly_drained_flood_plain_deposits."                                                                       
3031.5 "6407_7-3"  62.5400 "Sandstone" "Claystone" -999.25    20.0000 80.00000      0.0 "vf/f"     "clay/silt" "Sequence_of_rapidly_alternating_subaqueous_and_subaerial_floodplain_deposits"                                                                "Lower_delta_plain_dominated_by_poorly_drained_flood_plain_deposits."                                                                       
3031.6 "6407_7-3"  62.5400 "Sandstone" "Claystone" -999.25    20.0000 80.00000      0.0 "vf/f"     "clay/silt" "Sequence_of_rapidly_alternating_subaqueous_and_subaerial_floodplain_deposits"                                                                "Lower_delta_plain_dominated_by_poorly_drained_flood_plain_deposits."                                                                       
3031.7 "6407_7-3"  62.6300 "Sandstone" "Claystone" -999.25    20.0000 80.00000      0.0 "vf/f"     "clay/silt" "Sequence_of_rapidly_alternating_subaqueous_and_subaerial_floodplain_deposits"                                                                "Lower_delta_plain_dominated_by_poorly_drained_flood_plain_deposits."                                                                       
3031.8 "6407_7-3"  62.7100 "Sandstone" "Claystone" -999.25    20.0000 80.00000      0.0 "vf/f"     "clay/silt" "Sequence_of_rapidly_alternating_subaqueous_and_subaerial_floodplain_deposits"                                                                "Lower_delta_plain_dominated_by_poorly_drained_flood_plain_deposits."                                                                       
3031.9 "6407_7-3"  63.0700 "Sandstone" "Claystone" -999.25    20.0000 80.00000      0.0 "vf/f"     "clay/silt" "Sequence_of_rapidly_alternating_subaqueous_and_subaerial_floodplain_deposits"                                                                "Lower_delta_plain_dominated_by_poorly_drained_flood_plain_deposits."                                                                       
3032.0 "6407_7-3"  64.0800 "Sandstone" "Claystone" -999.25    20.0000 80.00000      0.0 "vf/f"     "clay/silt" "Sequence_of_rapidly_alternating_subaqueous_and_subaerial_floodplain_deposits"                                                                "Lower_delta_plain_dominated_by_poorly_drained_flood_plain_deposits."                                                                       
3032.1 "6407_7-3"  65.0900 "Sandstone" "Claystone" -999.25    20.0000 80.00000      0.0 "vf/f"     "clay/silt" "Sequence_of_rapidly_alternating_subaqueous_and_subaerial_floodplain_deposits"                                                                "Lower_delta_plain_dominated_by_poorly_drained_flood_plain_deposits."                                                                       
3032.2 "6407_7-3"  65.3800 "Sandstone" "Claystone" -999.25    20.0000 80.00000      0.0 "vf/f"     "clay/silt" "Sequence_of_rapidly_alternating_subaqueous_and_subaerial_floodplain_deposits"                                                                "Lower_delta_plain_dominated_by_poorly_drained_flood_plain_deposits."                                                                       
3032.3 "6407_7-3"  65.0500 "Sandstone" "Claystone" -999.25    20.0000 80.00000      0.0 "vf/f"     "clay/silt" "Sequence_of_rapidly_alternating_subaqueous_and_subaerial_floodplain_deposits"                                                                "Lower_delta_plain_dominated_by_poorly_drained_flood_plain_deposits."                                                                       
3032.4 "6407_7-3"  64.0000 "Sandstone" "Claystone" -999.25    20.0000 80.00000      0.0 "vf/f"     "clay/silt" "Sequence_of_rapidly_alternating_subaqueous_and_subaerial_floodplain_deposits"                                                                "Lower_delta_plain_dominated_by_poorly_drained_flood_plain_deposits."                                                                       
3032.5 "6407_7-3"  62.9400 "Sandstone" "Claystone" -999.25    20.0000 80.00000      0.0 "vf/f"     "clay/silt" "Sequence_of_rapidly_alternating_subaqueous_and_subaerial_floodplain_deposits"                                                                "Lower_delta_plain_dominated_by_poorly_drained_flood_plain_deposits."                                                                       
