~Version
VERS  .                                 3.0 : CWLS LAS ASCII Standard - Version 3.0
WRAP  . NO                                  : One line per depth step
DLM   . SPACE                               : Column data section delimiter
SOURCE. Converted to LAS by Log Studio 4.76 : GeoProvider

~Well
STRT.         2852.0 : Start depth
STOP.         3100.5 : Stop depth
STEP.              1 : Step
NULL.        -999.25 : No-value
COMP.                : Company
WELL. 6407/7-3       : Well
FLD .                : Field
LOC .                : Location
LATI.                : Latitude
LONG.                : Longitude
GDAT.                : Geodetic datum
CNTY.                : County
STAT.                : State
CTRY.                : Country
SRVC. GeoProvider AS : Service company
DATE.                : Date
API .                : API number
RUN .                : Run number

~Parameters
WellboreName.  : Wellbore name
RigName     .  : Rig name
StartDate   .  : Start date

~Curves
DEPTH.m            .  : null {F}Depth mMD
Hole_ID.-          .  : null {S}Hole ID
GR.API             .  : null {F}Gamma Ray
Lithology1.-       .  : null {S}Lithology 1
Lithology2.-       .  : null {S}Lithology 2
Lithology3.-       .  : null {S}Lithology 3
Lithology1.%       .  : null {F}Lithology 1 percentage
Lithology2.%       .  : null {F}Lithology 2 percentage
Lithology3.%       .  : null {F}Lithology 3 percentage
Grain_size_Top.-   .  : null {S}Grain size at the top 
Grain_size_Base.-  .  : null {S}Grain size at the bottom
Sub_Environment.-  .  : null {S}Sub Environment
Gross_Environment.-.  : null {S}Gross Environment

~Ascii
# ...
3097.7 "6407_7-3" 100.6400 "Sandstone" -999.25   -999.25   100.0000      0.0      0.0 "granule"  "vc"       "Braied_streams_frequent_channel_shifts,_fluct,_discharge."                                                                                   "Alluvial_plain_to_upper_delta_plain_deposits._The_braided_system_accumulated_near_the_source_area_under_humid/temperate_climatic_conditions."
3097.8 "6407_7-3"  97.0400 "Sandstone" -999.25   -999.25   100.0000      0.0      0.0 "vc/granule" "vc/granule" "Braied_streams_frequent_channel_shifts,_fluct,_discharge."                                                                                   "Alluvial_plain_to_upper_delta_plain_deposits._The_braided_system_accumulated_near_the_source_area_under_humid/temperate_climatic_conditions."
3097.9 "6407_7-3"  94.2500 "Sandstone" -999.25   -999.25   100.0000      0.0      0.0 "vc/granule" "vc/granule" "Braied_streams_frequent_channel_shifts,_fluct,_discharge."                                                                                   "Alluvial_plain_to_upper_delta_plain_deposits._The_braided_system_accumulated_near_the_source_area_under_humid/temperate_climatic_conditions."
3098.0 "6407_7-3"  93.2800 "Sandstone" -999.25   -999.25   100.0000      0.0      0.0 "vc/granule" "vc/granule" "Braied_streams_frequent_channel_shifts,_fluct,_discharge."                                                                                   "Alluvial_plain_to_upper_delta_plain_deposits._The_braided_system_accumulated_near_the_source_area_under_humid/temperate_climatic_conditions."
3098.1 "6407_7-3"  90.5100 "Sandstone" -999.25   -999.25   100.0000      0.0      0.0 "vc/granule" "vc/granule" "Braied_streams_frequent_channel_shifts,_fluct,_discharge."                                                                                   "Alluvial_plain_to_upper_delta_plain_deposits._The_braided_system_accumulated_near_the_source_area_under_humid/temperate_climatic_conditions."
3098.2 "6407_7-3"  87.0700 "Sandstone" -999.25   -999.25   100.0000      0.0      0.0 "vc/granule" "vc/granule" "Braied_streams_frequent_channel_shifts,_fluct,_discharge."                                                                                   "Alluvial_plain_to_upper_delta_plain_deposits._The_braided_system_accumulated_near_the_source_area_under_humid/temperate_climatic_conditions."
3098.3 "6407_7-3"  83.6200 "Sandstone" -999.25   -999.25   100.0000      0.0      0.0 "vc/granule" "vc/granule" "Braied_streams_frequent_channel_shifts,_fluct,_discharge."                                                                                   "Alluvial_plain_to_upper_delta_plain_deposits._The_braided_system_accumulated_near_the_source_area_under_humid/temperate_climatic_conditions."
3098.4 "6407_7-3"  80.1800 "Sandstone" -999.25   -999.25   100.0000      0.0      0.0 "vc/granule" "vc/granule" "Braied_streams_frequent_channel_shifts,_fluct,_discharge."                                                                                   "Alluvial_plain_to_upper_delta_plain_deposits._The_braided_system_accumulated_near_the_source_area_under_humid/temperate_climatic_conditions."
3098.5 "6407_7-3"  77.9000 "Sandstone" -999.25   -999.25   100.0000      0.0      0.0 "vc/granule" "vc/granule" "Braied_streams_frequent_channel_shifts,_fluct,_discharge."                                                                                   "Alluvial_plain_to_upper_delta_plain_deposits._The_braided_system_accumulated_near_the_source_area_under_humid/temperate_climatic_conditions."
3098.6 "6407_7-3"  77.2600 "Sandstone" -999.25   -999.25   100.0000      0.0      0.0 "vc/granule" "vc/granule" "Braied_streams_frequent_channel_shifts,_fluct,_discharge."                                                                                   "Alluvial_plain_to_upper_delta_plain_deposits._The_braided_system_accumulated_near_the_source_area_under_humid/temperate_climatic_conditions."
3098.7 "6407_7-3"  77.5100 "Sandstone" -999.25   -999.25   100.0000      0.0      0.0 "vc/granule" "vc/granule" "Braied_streams_frequent_channel_shifts,_fluct,_discharge."                                                                                   "Alluvial_plain_to_upper_delta_plain_deposits._The_braided_system_accumulated_near_the_source_area_under_humid/temperate_climatic_conditions."
3098.8 "6407_7-3"  81.0600 "Sandstone" -999.25   -999.25   100.0000      0.0      0.0 "vc/granule" "vc/granule" "Braied_streams_frequent_channel_shifts,_fluct,_discharge."                                                                                   "Alluvial_plain_to_upper_delta_plain_deposits._The_braided_system_accumulated_near_the_source_area_under_humid/temperate_climatic_conditions."
3098.9 "6407_7-3"  87.3200 "Sandstone" -999.25   -999.25   100.0000      0.0      0.0 "vc/granule" "vc/granule" "Braied_streams_frequent_channel_shifts,_fluct,_discharge."                                                                                   "Alluvial_plain_to_upper_delta_plain_deposits._The_braided_system_accumulated_near_the_source_area_under_humid/temperate_climatic_conditions."
3099.0 "6407_7-3"  93.6900 "Sandstone" -999.25   -999.25   100.0000      0.0      0.0 "vc/granule" "vc/granule" "Braied_streams_frequent_channel_shifts,_fluct,_discharge."                                                                                   "Alluvial_plain_to_upper_delta_plain_deposits._The_braided_system_accumulated_near_the_source_area_under_humid/temperate_climatic_conditions."
3099.1 "6407_7-3" 100.0700 "Sandstone" -999.25   -999.25   100.0000      0.0      0.0 "vc/granule" "vc"       "Braied_streams_frequent_channel_shifts,_fluct,_discharge."                                                                                   "Alluvial_plain_to_upper_delta_plain_deposits._The_braided_system_accumulated_near_the_source_area_under_humid/temperate_climatic_conditions."
3099.2 "6407_7-3" 107.0600 "Sandstone" -999.25   -999.25   100.0000      0.0      0.0 "vc/granule" "vc"       "Braied_streams_frequent_channel_shifts,_fluct,_discharge."                                                                                   "Alluvial_plain_to_upper_delta_plain_deposits._The_braided_system_accumulated_near_the_source_area_under_humid/temperate_climatic_conditions."
3099.3 "6407_7-3" 113.9800 "Sandstone" -999.25   -999.25   100.0000      0.0      0.0 "vc/granule" "vc"       "Braied_streams_frequent_channel_shifts,_fluct,_discharge."                                                                                   "Alluvial_plain_to_upper_delta_plain_deposits._The_braided_system_accumulated_near_the_source_area_under_humid/temperate_climatic_conditions."
3099.4 "6407_7-3" 114.3600 "Sandstone" -999.25   -999.25   100.0000      0.0      0.0 "vc/granule" "vc"       "Braied_streams_frequent_channel_shifts,_fluct,_discharge."                                                                                   "Alluvial_plain_to_upper_delta_plain_deposits._The_braided_system_accumulated_near_the_source_area_under_humid/temperate_climatic_conditions."
3099.5 "6407_7-3" 114.2100 "Sandstone" -999.25   -999.25   100.0000      0.0      0.0 "vc/granule" "vc"       "Braied_streams_frequent_channel_shifts,_fluct,_discharge."                                                                                   "Alluvial_plain_to_upper_delta_plain_deposits._The_braided_system_accumulated_near_the_source_area_under_humid/temperate_climatic_conditions."
3099.6 "6407_7-3" 113.5900 "Sandstone" -999.25   -999.25   100.0000      0.0      0.0 "vc/granule" "vc"       "Braied_streams_frequent_channel_shifts,_fluct,_discharge."                                                                                   "Alluvial_plain_to_upper_delta_plain_deposits._The_braided_system_accumulated_near_the_source_area_under_humid/temperate_climatic_conditions."
3099.7 "6407_7-3" 112.5000 "Sandstone" -999.25   -999.25   100.0000      0.0      0.0 "vc/granule" "vc"       "Braied_streams_frequent_channel_shifts,_fluct,_discharge."                                                                                   "Alluvial_plain_to_upper_delta_plain_deposits._The_braided_system_accumulated_near_the_source_area_under_humid/temperate_climatic_conditions."
