~Version
VERS  .                                 3.0 : CWLS LAS ASCII Standard - Version 3.0
WRAP  . NO                                  : One line per depth step
DLM   . SPACE                               : Column data section delimiter
SOURCE. Converted to LAS by Log Studio 4.76 : GeoProvider

~Well
STRT.         2852.0 : Start depth
STOP.         3100.5 : Stop depth
STEP.              1 : Step
NULL.        -999.25 : No-value
COMP.                : Company
WELL. 6407/7-3       : Well
FLD .                : Field
LOC .                : Location
LATI.                : Latitude
LONG.                : Longitude
GDAT.                : Geodetic datum
CNTY.                : County
STAT.                : State
CTRY.                : Country
SRVC. GeoProvider AS : Service company
DATE.                : Date
API .                : API number
RUN .                : Run number

~Parameters
WellboreName.  : Wellbore name
RigName     .  : Rig name
StartDate   .  : Start date

~Curves
DEPTH.m            .  : null {F}Depth mMD
Hole_ID.-          .  : null {S}Hole ID
GR.API             .  : null {F}Gamma Ray
Lithology1.-       .  : null {S}Lithology 1
Lithology2.-       .  : null {S}Lithology 2
Lithology3.-       .  : null {S}Lithology 3
Lithology1.%       .  : null {F}Lithology 1 percentage
Lithology2.%       .  : null {F}Lithology 2 percentage
Lithology3.%       .  : null {F}Lithology 3 percentage
Grain_size_Top.-   .  : null {S}Grain size at the top 
Grain_size_Base.-  .  : null {S}Grain size at the bottom
Sub_Environment.-  .  : null {S}Sub Environment
Gross_Environment.-.  : null {S}Gross Environment

~Ascii
# ...
3085.1 "6407_7-3"  75.0700 "Sandstone" -999.25   -999.25   100.0000      0.0      0.0 "vc/granule" "vc/granule" "Poorly_drained_floodplain."                                                                                                                  "Alluvial_plain_to_upper_delta_plain_deposits._The_braided_system_accumulated_near_the_source_area_under_humid/temperate_climatic_conditions."
3085.2 "6407_7-3"  77.2100 "Sandstone" -999.25   -999.25   100.0000      0.0      0.0 "vc/granule" "vc/granule" "Poorly_drained_floodplain."                                                                                                                  "Alluvial_plain_to_upper_delta_plain_deposits._The_braided_system_accumulated_near_the_source_area_under_humid/temperate_climatic_conditions."
3085.3 "6407_7-3"  79.7600 "Shale"   -999.25   -999.25   100.0000      0.0      0.0 "clay/silt" "clay/silt" "Poorly_drained_floodplain."                                                                                                                  "Alluvial_plain_to_upper_delta_plain_deposits._The_braided_system_accumulated_near_the_source_area_under_humid/temperate_climatic_conditions."
3085.4 "6407_7-3"  81.9300 "Shale"   -999.25   -999.25   100.0000      0.0      0.0 "clay/silt" "clay/silt" "Poorly_drained_floodplain."                                                                                                                  "Alluvial_plain_to_upper_delta_plain_deposits._The_braided_system_accumulated_near_the_source_area_under_humid/temperate_climatic_conditions."
3085.5 "6407_7-3"  81.8200 "Shale"   -999.25   -999.25   100.0000      0.0      0.0 "clay/silt" "clay/silt" "Poorly_drained_floodplain."                                                                                                                  "Alluvial_plain_to_upper_delta_plain_deposits._The_braided_system_accumulated_near_the_source_area_under_humid/temperate_climatic_conditions."
3085.6 "6407_7-3"  81.3100 "Shale"   -999.25   -999.25   100.0000      0.0      0.0 "clay/silt" "clay/silt" "Poorly_drained_floodplain."                                                                                                                  "Alluvial_plain_to_upper_delta_plain_deposits._The_braided_system_accumulated_near_the_source_area_under_humid/temperate_climatic_conditions."
3085.7 "6407_7-3"  80.5400 "Shale"   -999.25   -999.25   100.0000      0.0      0.0 "clay/silt" "clay/silt" "Poorly_drained_floodplain."                                                                                                                  "Alluvial_plain_to_upper_delta_plain_deposits._The_braided_system_accumulated_near_the_source_area_under_humid/temperate_climatic_conditions."
3085.8 "6407_7-3"  80.9700 -999.25   -999.25   -999.25   100.0000      0.0      0.0 -999.25    -999.25    "Poorly_drained_floodplain."                                                                                                                  "Alluvial_plain_to_upper_delta_plain_deposits._The_braided_system_accumulated_near_the_source_area_under_humid/temperate_climatic_conditions."
3085.9 "6407_7-3"  81.4000 -999.25   -999.25   -999.25   100.0000      0.0      0.0 -999.25    -999.25    "Poorly_drained_floodplain."                                                                                                                  "Alluvial_plain_to_upper_delta_plain_deposits._The_braided_system_accumulated_near_the_source_area_under_humid/temperate_climatic_conditions."
3086.0 "6407_7-3"  81.9600 -999.25   -999.25   -999.25   100.0000      0.0      0.0 -999.25    -999.25    "Poorly_drained_floodplain."                                                                                                                  "Alluvial_plain_to_upper_delta_plain_deposits._The_braided_system_accumulated_near_the_source_area_under_humid/temperate_climatic_conditions."
3086.1 "6407_7-3"  82.0000 -999.25   -999.25   -999.25   100.0000      0.0      0.0 -999.25    -999.25    "Poorly_drained_floodplain."                                                                                                                  "Alluvial_plain_to_upper_delta_plain_deposits._The_braided_system_accumulated_near_the_source_area_under_humid/temperate_climatic_conditions."
3086.2 "6407_7-3"  81.0200 "Sandstone" "Siltstone" "Limestone"   5.0000 85.00000 10.00000 "vf"       "silt/vf"  "Poorly_drained_floodplain."                                                                                                                  "Alluvial_plain_to_upper_delta_plain_deposits._The_braided_system_accumulated_near_the_source_area_under_humid/temperate_climatic_conditions."
3086.3 "6407_7-3"  79.5700 "Sandstone" "Siltstone" "Limestone"   5.0000 85.00000 10.00000 "vf"       "silt/vf"  "Poorly_drained_floodplain."                                                                                                                  "Alluvial_plain_to_upper_delta_plain_deposits._The_braided_system_accumulated_near_the_source_area_under_humid/temperate_climatic_conditions."
3086.4 "6407_7-3"  77.6800 "Sandstone" "Siltstone" "Limestone"   5.0000 85.00000 10.00000 "vf"       "silt/vf"  "Poorly_drained_floodplain."                                                                                                                  "Alluvial_plain_to_upper_delta_plain_deposits._The_braided_system_accumulated_near_the_source_area_under_humid/temperate_climatic_conditions."
3086.5 "6407_7-3"  75.8000 "Sandstone" "Siltstone" "Limestone"   5.0000 85.00000 10.00000 "vf"       "silt/vf"  "Poorly_drained_floodplain."                                                                                                                  "Alluvial_plain_to_upper_delta_plain_deposits._The_braided_system_accumulated_near_the_source_area_under_humid/temperate_climatic_conditions."
3086.6 "6407_7-3"  73.9200 "Sandstone" "Siltstone" "Limestone"   5.0000 85.00000 10.00000 "vf"       "silt/vf"  "Poorly_drained_floodplain."                                                                                                                  "Alluvial_plain_to_upper_delta_plain_deposits._The_braided_system_accumulated_near_the_source_area_under_humid/temperate_climatic_conditions."
3086.7 "6407_7-3"  72.0400 "Sandstone" "Siltstone" "Limestone"   5.0000 85.00000 10.00000 "vf"       "silt/vf"  "Poorly_drained_floodplain."                                                                                                                  "Alluvial_plain_to_upper_delta_plain_deposits._The_braided_system_accumulated_near_the_source_area_under_humid/temperate_climatic_conditions."
3086.8 "6407_7-3"  70.1500 "Sandstone" "Siltstone" "Limestone"   5.0000 85.00000 10.00000 "vf"       "silt/vf"  "Poorly_drained_floodplain."                                                                                                                  "Alluvial_plain_to_upper_delta_plain_deposits._The_braided_system_accumulated_near_the_source_area_under_humid/temperate_climatic_conditions."
3086.9 "6407_7-3"  69.4700 "Sandstone" "Siltstone" "Limestone"   5.0000 85.00000 10.00000 "vf"       "silt/vf"  "Poorly_drained_floodplain."                                                                                                                  "Alluvial_plain_to_upper_delta_plain_deposits._The_braided_system_accumulated_near_the_source_area_under_humid/temperate_climatic_conditions."
3087.0 "6407_7-3"  69.7800 "Sandstone" "Siltstone" "Limestone"   5.0000 85.00000 10.00000 "vf"       "silt/vf"  "Poorly_drained_floodplain."                                                                                                                  "Alluvial_plain_to_upper_delta_plain_deposits._The_braided_system_accumulated_near_the_source_area_under_humid/temperate_climatic_conditions."
3087.1 "6407_7-3"  71.0800 "Sandstone" "Siltstone" "Limestone"   5.0000 85.00000 10.00000 "vf"       "silt/vf"  "Shallow_braided_streams,_high_level_of_current_energy."                                                                                      "Alluvial_plain_to_upper_delta_plain_deposits._The_braided_system_accumulated_near_the_source_area_under_humid/temperate_climatic_conditions."
