~Version
VERS  .                                 3.0 : CWLS LAS ASCII Standard - Version 3.0
WRAP  . NO                                  : One line per depth step
DLM   . SPACE                               : Column data section delimiter
SOURCE. Converted to LAS by Log Studio 4.76 : GeoProvider

~Well
STRT.         2852.0 : Start depth
STOP.         3100.5 : Stop depth
STEP.              1 : Step
NULL.        -999.25 : No-value
COMP.                : Company
WELL. 6407/7-3       : Well
FLD .                : Field
LOC .                : Location
LATI.                : Latitude
LONG.                : Longitude
GDAT.                : Geodetic datum
CNTY.                : County
STAT.                : State
CTRY.                : Country
SRVC. GeoProvider AS : Service company
DATE.                : Date
API .                : API number
RUN .                : Run number

~Parameters
WellboreName.  : Wellbore name
RigName     .  : Rig name
StartDate   .  : Start date

~Curves
DEPTH.m            .  : null {F}Depth mMD
Hole_ID.-          .  : null {S}Hole ID
GR.API             .  : null {F}Gamma Ray
Lithology1.-       .  : null {S}Lithology 1
Lithology2.-       .  : null {S}Lithology 2
Lithology3.-       .  : null {S}Lithology 3
Lithology1.%       .  : null {F}Lithology 1 percentage
Lithology2.%       .  : null {F}Lithology 2 percentage
Lithology3.%       .  : null {F}Lithology 3 percentage
Grain_size_Top.-   .  : null {S}Grain size at the top 
Grain_size_Base.-  .  : null {S}Grain size at the bottom
Sub_Environment.-  .  : null {S}Sub Environment
Gross_Environment.-.  : null {S}Gross Environment

~Ascii
# ...
2864.6 "6407_7-3"  62.1700 "Sandstone" "Limestone" -999.25    65.0000 35.00000      0.0 "vf/f"     "f/m"      "Lower_shoreface._Transgressive_sheetsand"                                                                                                    "Stacked,_punctuated_progradational_sequences_of_shoreline_or_delta_front"                                                                  
2864.7 "6407_7-3"  60.8000 "Sandstone" "Limestone" -999.25    65.0000 35.00000      0.0 "vf/f"     "f/m"      "Lower_shoreface._Transgressive_sheetsand"                                                                                                    "Stacked,_punctuated_progradational_sequences_of_shoreline_or_delta_front"                                                                  
2864.8 "6407_7-3"  59.4400 "Sandstone" "Limestone" -999.25    65.0000 35.00000      0.0 "vf/f"     "f/m"      "Lower_shoreface._Transgressive_sheetsand"                                                                                                    "Stacked,_punctuated_progradational_sequences_of_shoreline_or_delta_front"                                                                  
2864.9 "6407_7-3"  57.6100 "Sandstone" "Limestone" -999.25    65.0000 35.00000      0.0 "vf/f"     "f/m"      "Lower_shoreface._Transgressive_sheetsand"                                                                                                    "Stacked,_punctuated_progradational_sequences_of_shoreline_or_delta_front"                                                                  
2865.0 "6407_7-3"  55.6200 "Sandstone" "Limestone" -999.25    65.0000 35.00000      0.0 "vf/f"     "f/m"      "Lower_shoreface._Transgressive_sheetsand"                                                                                                    "Stacked,_punctuated_progradational_sequences_of_shoreline_or_delta_front"                                                                  
2865.1 "6407_7-3"  53.5100 "Sandstone" "Limestone" -999.25    65.0000 35.00000      0.0 "vf/f"     "f/m"      "Lower_shoreface._Transgressive_sheetsand"                                                                                                    "Stacked,_punctuated_progradational_sequences_of_shoreline_or_delta_front"                                                                  
2865.2 "6407_7-3"  52.3600 "Sandstone" "Limestone" -999.25    65.0000 35.00000      0.0 "vf/f"     "f/m"      "Lower_shoreface._Transgressive_sheetsand"                                                                                                    "Stacked,_punctuated_progradational_sequences_of_shoreline_or_delta_front"                                                                  
2865.3 "6407_7-3"  52.8700 "Sandstone" "Limestone" -999.25    65.0000 35.00000      0.0 "vf/f"     "f/m"      "Lower_shoreface._Transgressive_sheetsand"                                                                                                    "Stacked,_punctuated_progradational_sequences_of_shoreline_or_delta_front"                                                                  
2865.4 "6407_7-3"  54.6900 "Sandstone" "Limestone" -999.25    65.0000 35.00000      0.0 "vf/f"     "f/m"      "Lower_shoreface._Transgressive_sheetsand"                                                                                                    "Stacked,_punctuated_progradational_sequences_of_shoreline_or_delta_front"                                                                  
2865.5 "6407_7-3"  56.8700 "Sandstone" "Limestone" -999.25    65.0000 35.00000      0.0 "vf/f"     "f/m"      "Lower_shoreface._Transgressive_sheetsand"                                                                                                    "Stacked,_punctuated_progradational_sequences_of_shoreline_or_delta_front"                                                                  
2865.6 "6407_7-3"  59.0600 "Sandstone" "Limestone" -999.25    65.0000 35.00000      0.0 "vf/f"     "f/m"      "Lower_shoreface._Transgressive_sheetsand"                                                                                                    "Stacked,_punctuated_progradational_sequences_of_shoreline_or_delta_front"                                                                  
2865.7 "6407_7-3"  61.2500 "Sandstone" "Limestone" -999.25    65.0000 35.00000      0.0 "vf/f"     "f/m"      "Lower_shoreface._Transgressive_sheetsand"                                                                                                    "Stacked,_punctuated_progradational_sequences_of_shoreline_or_delta_front"                                                                  
2865.8 "6407_7-3"  61.9200 "Sandstone" "Limestone" -999.25    65.0000 35.00000      0.0 "vf/f"     "f/m"      "Transgression"                                                                                                                               "Stacked,_punctuated_progradational_sequences_of_shoreline_or_delta_front"                                                                  
2865.9 "6407_7-3"  62.2400 "Sandstone" "Limestone" -999.25    65.0000 35.00000      0.0 "vf/f"     "f/m"      "Transgression"                                                                                                                               "Stacked,_punctuated_progradational_sequences_of_shoreline_or_delta_front"                                                                  
2866.0 "6407_7-3"  62.2900 "Sandstone" "Limestone" -999.25    65.0000 35.00000      0.0 "vf/f"     "f/m"      "Transgression"                                                                                                                               "Stacked,_punctuated_progradational_sequences_of_shoreline_or_delta_front"                                                                  
2866.1 "6407_7-3"  62.3100 "Sandstone" "Limestone" -999.25    65.0000 35.00000      0.0 "vf/f"     "f/m"      "Transgression"                                                                                                                               "Stacked,_punctuated_progradational_sequences_of_shoreline_or_delta_front"                                                                  
2866.2 "6407_7-3"  62.3300 "Sandstone" -999.25   -999.25   100.0000      0.0      0.0 "vc/granule" "vc/granule" "Transgression"                                                                                                                               "Stacked,_punctuated_progradational_sequences_of_shoreline_or_delta_front"                                                                  
2866.3 "6407_7-3"  62.3400 "Sandstone" -999.25   -999.25   100.0000      0.0      0.0 "vc/granule" "vc/granule" "Transgression"                                                                                                                               "Stacked,_punctuated_progradational_sequences_of_shoreline_or_delta_front"                                                                  
2866.4 "6407_7-3"  62.3600 "Sandstone" -999.25   -999.25   100.0000      0.0      0.0 "vc/granule" "vc/granule" "Transgression"                                                                                                                               "Stacked,_punctuated_progradational_sequences_of_shoreline_or_delta_front"                                                                  
2866.5 "6407_7-3"  62.3800 "Sandstone" -999.25   -999.25   100.0000      0.0      0.0 "vc/granule" "vc/granule" "Transgression"                                                                                                                               "Stacked,_punctuated_progradational_sequences_of_shoreline_or_delta_front"                                                                  
2866.6 "6407_7-3"  62.8700 "Sandstone" -999.25   -999.25   100.0000      0.0      0.0 "vc/granule" "vc/granule" "Transgression"                                                                                                                               "Stacked,_punctuated_progradational_sequences_of_shoreline_or_delta_front"                                                                  
