~Version
VERS  .                                 3.0 : CWLS LAS ASCII Standard - Version 3.0
WRAP  . NO                                  : One line per depth step
DLM   . SPACE                               : Column data section delimiter
SOURCE. Converted to LAS by Log Studio 4.76 : GeoProvider

~Well
STRT.         2852.0 : Start depth
STOP.         3100.5 : Stop depth
STEP.              1 : Step
NULL.        -999.25 : No-value
COMP.                : Company
WELL. 6407/7-3       : Well
FLD .                : Field
LOC .                : Location
LATI.                : Latitude
LONG.                : Longitude
GDAT.                : Geodetic datum
CNTY.                : County
STAT.                : State
CTRY.                : Country
SRVC. GeoProvider AS : Service company
DATE.                : Date
API .                : API number
RUN .                : Run number

~Parameters
WellboreName.  : Wellbore name
RigName     .  : Rig name
StartDate   .  : Start date

~Curves
DEPTH.m            .  : null {F}Depth mMD
Hole_ID.-          .  : null {S}Hole ID
GR.API             .  : null {F}Gamma Ray
Lithology1.-       .  : null {S}Lithology 1
Lithology2.-       .  : null {S}Lithology 2
Lithology3.-       .  : null {S}Lithology 3
Lithology1.%       .  : null {F}Lithology 1 percentage
Lithology2.%       .  : null {F}Lithology 2 percentage
Lithology3.%       .  : null {F}Lithology 3 percentage
Grain_size_Top.-   .  : null {S}Grain size at the top 
Grain_size_Base.-  .  : null {S}Grain size at the bottom
Sub_Environment.-  .  : null {S}Sub Environment
Gross_Environment.-.  : null {S}Gross Environment

~Ascii
# ...
3003.2 "6407_7-3"  69.0900 "Sandstone" -999.25   -999.25   100.0000      0.0      0.0 "vf/f"     "f"        "Sedimentation_characterized_by_fluvial_input_reworked_by_waves_in_shallow_water."                                                            "Proximal_delta_front,_high_rate_of_vertical_aggradation._Fluvial_wave-dominated."                                                          
3003.3 "6407_7-3"  68.1900 "Sandstone" -999.25   -999.25   100.0000      0.0      0.0 "vf/f"     "f"        "Sedimentation_characterized_by_fluvial_input_reworked_by_waves_in_shallow_water."                                                            "Proximal_delta_front,_high_rate_of_vertical_aggradation._Fluvial_wave-dominated."                                                          
3003.4 "6407_7-3"  69.8100 "Sandstone" -999.25   -999.25   100.0000      0.0      0.0 "vf/f"     "f"        "Sedimentation_characterized_by_fluvial_input_reworked_by_waves_in_shallow_water."                                                            "Proximal_delta_front,_high_rate_of_vertical_aggradation._Fluvial_wave-dominated."                                                          
3003.5 "6407_7-3"  71.9200 "Sandstone" -999.25   -999.25   100.0000      0.0      0.0 "vf/f"     "f"        "Sedimentation_characterized_by_fluvial_input_reworked_by_waves_in_shallow_water."                                                            "Proximal_delta_front,_high_rate_of_vertical_aggradation._Fluvial_wave-dominated."                                                          
3003.6 "6407_7-3"  74.0300 "Sandstone" -999.25   -999.25   100.0000      0.0      0.0 "vf/f"     "f"        "Sedimentation_characterized_by_fluvial_input_reworked_by_waves_in_shallow_water."                                                            "Proximal_delta_front,_high_rate_of_vertical_aggradation._Fluvial_wave-dominated."                                                          
3003.7 "6407_7-3"  75.9800 "Sandstone" -999.25   -999.25   100.0000      0.0      0.0 "vf/f"     "f"        "Sedimentation_characterized_by_fluvial_input_reworked_by_waves_in_shallow_water."                                                            "Proximal_delta_front,_high_rate_of_vertical_aggradation._Fluvial_wave-dominated."                                                          
3003.8 "6407_7-3"  76.5800 "Sandstone" -999.25   -999.25   100.0000      0.0      0.0 "vf/f"     "f"        "Sedimentation_characterized_by_fluvial_input_reworked_by_waves_in_shallow_water."                                                            "Proximal_delta_front,_high_rate_of_vertical_aggradation._Fluvial_wave-dominated."                                                          
3003.9 "6407_7-3"  76.1500 "Sandstone" -999.25   -999.25   100.0000      0.0      0.0 "vf/f"     "f"        "Sedimentation_characterized_by_fluvial_input_reworked_by_waves_in_shallow_water."                                                            "Proximal_delta_front,_high_rate_of_vertical_aggradation._Fluvial_wave-dominated."                                                          
3004.0 "6407_7-3"  74.8800 "Sandstone" -999.25   -999.25   100.0000      0.0      0.0 "vf/f"     "f"        "Sedimentation_characterized_by_fluvial_input_reworked_by_waves_in_shallow_water."                                                            "Proximal_delta_front,_high_rate_of_vertical_aggradation._Fluvial_wave-dominated."                                                          
3004.1 "6407_7-3"  73.6200 "Sandstone" -999.25   -999.25   100.0000      0.0      0.0 "vf/f"     "f"        "Sedimentation_characterized_by_fluvial_input_reworked_by_waves_in_shallow_water."                                                            "Proximal_delta_front,_high_rate_of_vertical_aggradation._Fluvial_wave-dominated."                                                          
3004.2 "6407_7-3"  72.3600 "Sandstone" -999.25   -999.25   100.0000      0.0      0.0 "vf/f"     "f"        "Sedimentation_characterized_by_fluvial_input_reworked_by_waves_in_shallow_water."                                                            "Proximal_delta_front,_high_rate_of_vertical_aggradation._Fluvial_wave-dominated."                                                          
3004.3 "6407_7-3"  71.5300 "Sandstone" -999.25   -999.25   100.0000      0.0      0.0 "vf/f"     "f"        "Sedimentation_characterized_by_fluvial_input_reworked_by_waves_in_shallow_water."                                                            "Proximal_delta_front,_high_rate_of_vertical_aggradation._Fluvial_wave-dominated."                                                          
3004.4 "6407_7-3"  71.6500 "Sandstone" -999.25   -999.25   100.0000      0.0      0.0 "vf/f"     "f"        "Sedimentation_characterized_by_fluvial_input_reworked_by_waves_in_shallow_water."                                                            "Proximal_delta_front,_high_rate_of_vertical_aggradation._Fluvial_wave-dominated."                                                          
3004.5 "6407_7-3"  71.7700 "Sandstone" -999.25   -999.25   100.0000      0.0      0.0 "vf/f"     "f"        "Sedimentation_characterized_by_fluvial_input_reworked_by_waves_in_shallow_water."                                                            "Proximal_delta_front,_high_rate_of_vertical_aggradation._Fluvial_wave-dominated."                                                          
3004.6 "6407_7-3"  71.8900 "Sandstone" -999.25   -999.25   100.0000      0.0      0.0 "vf/f"     "f"        "Sedimentation_characterized_by_fluvial_input_reworked_by_waves_in_shallow_water."                                                            "Proximal_delta_front,_high_rate_of_vertical_aggradation._Fluvial_wave-dominated."                                                          
3004.7 "6407_7-3"  71.6900 "Sandstone" -999.25   -999.25   100.0000      0.0      0.0 "vf/f"     "f"        "Sedimentation_characterized_by_fluvial_input_reworked_by_waves_in_shallow_water."                                                            "Proximal_delta_front,_high_rate_of_vertical_aggradation._Fluvial_wave-dominated."                                                          
3004.8 "6407_7-3"  71.3300 "Sandstone" -999.25   -999.25   100.0000      0.0      0.0 "vf/f"     "f"        "Sedimentation_characterized_by_fluvial_input_reworked_by_waves_in_shallow_water."                                                            "Proximal_delta_front,_high_rate_of_vertical_aggradation._Fluvial_wave-dominated."                                                          
3004.9 "6407_7-3"  70.9800 "Sandstone" -999.25   -999.25   100.0000      0.0      0.0 "vf/f"     "f"        "Sedimentation_characterized_by_fluvial_input_reworked_by_waves_in_shallow_water."                                                            "Proximal_delta_front,_high_rate_of_vertical_aggradation._Fluvial_wave-dominated."                                                          
3005.0 "6407_7-3"  70.9200 "Sandstone" -999.25   -999.25   100.0000      0.0      0.0 "vf/f"     "f"        "Sedimentation_characterized_by_fluvial_input_reworked_by_waves_in_shallow_water."                                                            "Proximal_delta_front,_high_rate_of_vertical_aggradation._Fluvial_wave-dominated."                                                          
3005.1 "6407_7-3"  71.4700 "Sandstone" -999.25   -999.25   100.0000      0.0      0.0 "vf/f"     "f"        "Sedimentation_characterized_by_fluvial_input_reworked_by_waves_in_shallow_water."                                                            "Proximal_delta_front,_high_rate_of_vertical_aggradation._Fluvial_wave-dominated."                                                          
3005.2 "6407_7-3"  72.4800 "Sandstone" -999.25   -999.25   100.0000      0.0      0.0 "vf/f"     "f"        "Sedimentation_characterized_by_fluvial_input_reworked_by_waves_in_shallow_water."                                                            "Proximal_delta_front,_high_rate_of_vertical_aggradation._Fluvial_wave-dominated."                                                          
