~Version
VERS  .                                 3.0 : CWLS LAS ASCII Standard - Version 3.0
WRAP  . NO                                  : One line per depth step
DLM   . SPACE                               : Column data section delimiter
SOURCE. Converted to LAS by Log Studio 4.76 : GeoProvider

~Well
STRT.        2417.00 : Start depth
STOP.        3497.00 : Stop depth
STEP.              1 : Step
NULL.        -999.25 : No-value
COMP.                : Company
WELL. 6407/2-1       : Well
FLD .                : Field
LOC .                : Location
LATI.                : Latitude
LONG.                : Longitude
GDAT.                : Geodetic datum
CNTY.                : County
STAT.                : State
CTRY.                : Country
SRVC. GeoProvider AS : Service company
DATE.                : Date
API .                : API number
RUN .                : Run number

~Parameters
WellboreName.  : Wellbore name
RigName     .  : Rig name
StartDate   .  : Start date

~Curves
DEPTH.m            .  : null {F}Depth mMD
Hole_ID.-          .  : null {S}Hole ID
GR.API             .  : null {F}Gamma Ray
Lithology1.-       .  : null {S}Lithology 1
Lithology2.-       .  : null {S}Lithology 2
Lithology3.-       .  : null {S}Lithology 3
Lithology1.%       .  : null {F}Lithology 1 percentage
Lithology2.%       .  : null {F}Lithology 2 percentage
Lithology3.%       .  : null {F}Lithology 3 percentage
Grain_size_Top.-   .  : null {S}Grain size at the top 
Grain_size_Base.-  .  : null {S}Grain size at the bottom
Sub_Environment.-  .  : null {S}Sub Environment
Gross_Environment.-.  : null {S}Gross Environment

~Ascii
# ...
3091.90 "6407_2-1" 102.7100 "Sandstone" "Coal"        0.0  80.0000 20.00000      0.0 "f"       "f/m"     "Strongly_ bioturbated_ upper/lower_ shorece_ sed._ Prograding_ delta_ front"                                                          "DISTAL_ DELTA_ FRONT"          
3092.00 "6407_2-1" 101.3700 "Sandstone" "Coal"        0.0  80.0000 20.00000      0.0 "f"       "f/m"     "Strongly_ bioturbated_ upper/lower_ shorece_ sed._ Prograding_ delta_ front"                                                          "DISTAL_ DELTA_ FRONT"          
3092.10 "6407_2-1" 101.9600 "Sandstone" "Coal"        0.0  80.0000 20.00000      0.0 "f"       "f/m"     "Strongly_ bioturbated_ upper/lower_ shorece_ sed._ Prograding_ delta_ front"                                                          "DISTAL_ DELTA_ FRONT"          
3092.20 "6407_2-1" 102.5400 "Sandstone" "Coal"        0.0  80.0000 20.00000      0.0 "f"       "f/m"     "Strongly_ bioturbated_ upper/lower_ shorece_ sed._ Prograding_ delta_ front"                                                          "DISTAL_ DELTA_ FRONT"          
3092.30 "6407_2-1" 106.2000 "Sandstone" "Coal"        0.0  80.0000 20.00000      0.0 "f"       "f/m"     "Strongly_ bioturbated_ upper/lower_ shorece_ sed._ Prograding_ delta_ front"                                                          "DISTAL_ DELTA_ FRONT"          
3092.40 "6407_2-1" 113.1700 "Sandstone" "Coal"        0.0  80.0000 20.00000      0.0 "f"       "f/m"     "Strongly_ bioturbated_ upper/lower_ shorece_ sed._ Prograding_ delta_ front"                                                          "DISTAL_ DELTA_ FRONT"          
3092.50 "6407_2-1" 119.0400 "Sandstone" "Coal"        0.0  80.0000 20.00000      0.0 "f"       "f/m"     "Strongly_ bioturbated_ upper/lower_ shorece_ sed._ Prograding_ delta_ front"                                                          "DISTAL_ DELTA_ FRONT"          
3092.60 "6407_2-1" 121.5000 "Sandstone" "Coal"        0.0  80.0000 20.00000      0.0 "f"       "f/m"     "Strongly_ bioturbated_ upper/lower_ shorece_ sed._ Prograding_ delta_ front"                                                          "DISTAL_ DELTA_ FRONT"          
3092.70 "6407_2-1" 123.9600 "Sandstone" "Coal"        0.0  80.0000 20.00000      0.0 "f"       "f/m"     "Strongly_ bioturbated_ upper/lower_ shorece_ sed._ Prograding_ delta_ front"                                                          "DISTAL_ DELTA_ FRONT"          
3092.80 "6407_2-1" 126.4200 "Sandstone" "Coal"        0.0  80.0000 20.00000      0.0 "f"       "f/m"     "Strongly_ bioturbated_ upper/lower_ shorece_ sed._ Prograding_ delta_ front"                                                          "DISTAL_ DELTA_ FRONT"          
3092.90 "6407_2-1" 126.5600 "Sandstone" "Coal"        0.0  80.0000 20.00000      0.0 "f"       "f/m"     "Strongly_ bioturbated_ upper/lower_ shorece_ sed._ Prograding_ delta_ front"                                                          "DISTAL_ DELTA_ FRONT"          
3093.00 "6407_2-1" 124.5700 "Sandstone" "Coal"        0.0  80.0000 20.00000      0.0 "f"       "f/m"     "Strongly_ bioturbated_ upper/lower_ shorece_ sed._ Prograding_ delta_ front"                                                          "DISTAL_ DELTA_ FRONT"          
3093.10 "6407_2-1" 122.5700 "Sandstone" "Coal"        0.0  80.0000 20.00000      0.0 "f"       "f/m"     "Strongly_ bioturbated_ upper/lower_ shorece_ sed._ Prograding_ delta_ front"                                                          "DISTAL_ DELTA_ FRONT"          
3093.20 "6407_2-1" 119.4000 "Sandstone" "Coal"        0.0  80.0000 20.00000      0.0 "f"       "f/m"     "Strongly_ bioturbated_ upper/lower_ shorece_ sed._ Prograding_ delta_ front"                                                          "DISTAL_ DELTA_ FRONT"          
3093.30 "6407_2-1" 116.1200 "Sandstone" "Coal"        0.0  80.0000 20.00000      0.0 "f"       "f/m"     "Strongly_ bioturbated_ upper/lower_ shorece_ sed._ Prograding_ delta_ front"                                                          "DISTAL_ DELTA_ FRONT"          
3093.40 "6407_2-1" 112.8300 "Sandstone" "Coal"        0.0  80.0000 20.00000      0.0 "f"       "f/m"     "Strongly_ bioturbated_ upper/lower_ shorece_ sed._ Prograding_ delta_ front"                                                          "DISTAL_ DELTA_ FRONT"          
3093.50 "6407_2-1" 112.6300 "Sandstone" "Coal"        0.0  80.0000 20.00000      0.0 "f"       "f/m"     "Strongly_ bioturbated_ upper/lower_ shorece_ sed._ Prograding_ delta_ front"                                                          "DISTAL_ DELTA_ FRONT"          
3093.60 "6407_2-1" 112.6800 "Sandstone" "Coal"        0.0  80.0000 20.00000      0.0 "f"       "f/m"     "Strongly_ bioturbated_ upper/lower_ shorece_ sed._ Prograding_ delta_ front"                                                          "DISTAL_ DELTA_ FRONT"          
3093.70 "6407_2-1" 113.4100 "Sandstone" "Coal"        0.0  80.0000 20.00000      0.0 "f"       "f/m"     "Strongly_ bioturbated_ upper/lower_ shorece_ sed._ Prograding_ delta_ front"                                                          "DISTAL_ DELTA_ FRONT"          
3093.80 "6407_2-1" 114.1400 "Sandstone" "Coal"        0.0  80.0000 20.00000      0.0 "f"       "f/m"     "Strongly_ bioturbated_ upper/lower_ shorece_ sed._ Prograding_ delta_ front"                                                          "DISTAL_ DELTA_ FRONT"          
3093.90 "6407_2-1" 114.8700 "Sandstone" "Coal"        0.0  80.0000 20.00000      0.0 "f"       "f/m"     "Strongly_ bioturbated_ upper/lower_ shorece_ sed._ Prograding_ delta_ front"                                                          "DISTAL_ DELTA_ FRONT"          
3094.00 "6407_2-1" 113.5500 "Sandstone" "Coal"        0.0  80.0000 20.00000      0.0 "f"       "f/m"     "Strongly_ bioturbated_ upper/lower_ shorece_ sed._ Prograding_ delta_ front"                                                          "DISTAL_ DELTA_ FRONT"          
3094.10 "6407_2-1" 111.4600 "Sandstone" "Coal"        0.0  80.0000 20.00000      0.0 "f"       "f/m"     "Strongly_ bioturbated_ upper/lower_ shorece_ sed._ Prograding_ delta_ front"                                                          "DISTAL_ DELTA_ FRONT"          
3094.20 "6407_2-1" 109.3600 "Sandstone" "Coal"        0.0  80.0000 20.00000      0.0 "f"       "f/m"     "Strongly_ bioturbated_ upper/lower_ shorece_ sed._ Prograding_ delta_ front"                                                          "DISTAL_ DELTA_ FRONT"          
3094.30 "6407_2-1" 108.1400 "Sandstone" "Coal"        0.0  80.0000 20.00000      0.0 "f"       "f/m"     "Strongly_ bioturbated_ upper/lower_ shorece_ sed._ Prograding_ delta_ front"                                                          "DISTAL_ DELTA_ FRONT"          
3094.40 "6407_2-1" 108.4200 "Sandstone" "Coal"        0.0  80.0000 20.00000      0.0 "f"       "f/m"     "Strongly_ bioturbated_ upper/lower_ shorece_ sed._ Prograding_ delta_ front"                                                          "DISTAL_ DELTA_ FRONT"          
3094.50 "6407_2-1" 108.6100 "Sandstone" "Coal"        0.0  80.0000 20.00000      0.0 "f"       "f/m"     "Strongly_ bioturbated_ upper/lower_ shorece_ sed._ Prograding_ delta_ front"                                                          "DISTAL_ DELTA_ FRONT"          
3094.60 "6407_2-1" 108.3300 "Sandstone" "Coal"        0.0  80.0000 20.00000      0.0 "f"       "f/m"     "Strongly_ bioturbated_ upper/lower_ shorece_ sed._ Prograding_ delta_ front"                                                          "DISTAL_ DELTA_ FRONT"          
3094.70 "6407_2-1" 108.0400 "Sandstone" "Coal"        0.0  80.0000 20.00000      0.0 "f"       "f/m"     "Strongly_ bioturbated_ upper/lower_ shorece_ sed._ Prograding_ delta_ front"                                                          "DISTAL_ DELTA_ FRONT"          
3094.80 "6407_2-1" 107.7500 "Sandstone" "Coal"        0.0  80.0000 20.00000      0.0 "f"       "f/m"     "Strongly_ bioturbated_ upper/lower_ shorece_ sed._ Prograding_ delta_ front"                                                          "DISTAL_ DELTA_ FRONT"          
