~Version
VERS  .                                 3.0 : CWLS LAS ASCII Standard - Version 3.0
WRAP  . NO                                  : One line per depth step
DLM   . SPACE                               : Column data section delimiter
SOURCE. Converted to LAS by Log Studio 4.76 : GeoProvider

~Well
STRT.        2417.00 : Start depth
STOP.        3497.00 : Stop depth
STEP.              1 : Step
NULL.        -999.25 : No-value
COMP.                : Company
WELL. 6407/2-1       : Well
FLD .                : Field
LOC .                : Location
LATI.                : Latitude
LONG.                : Longitude
GDAT.                : Geodetic datum
CNTY.                : County
STAT.                : State
CTRY.                : Country
SRVC. GeoProvider AS : Service company
DATE.                : Date
API .                : API number
RUN .                : Run number

~Parameters
WellboreName.  : Wellbore name
RigName     .  : Rig name
StartDate   .  : Start date

~Curves
DEPTH.m            .  : null {F}Depth mMD
Hole_ID.-          .  : null {S}Hole ID
GR.API             .  : null {F}Gamma Ray
Lithology1.-       .  : null {S}Lithology 1
Lithology2.-       .  : null {S}Lithology 2
Lithology3.-       .  : null {S}Lithology 3
Lithology1.%       .  : null {F}Lithology 1 percentage
Lithology2.%       .  : null {F}Lithology 2 percentage
Lithology3.%       .  : null {F}Lithology 3 percentage
Grain_size_Top.-   .  : null {S}Grain size at the top 
Grain_size_Base.-  .  : null {S}Grain size at the bottom
Sub_Environment.-  .  : null {S}Sub Environment
Gross_Environment.-.  : null {S}Gross Environment

~Ascii
# ...
3493.90 "6407_2-1" 109.6400 "Sandstone" "Coal"    -999.25   2.0000 98.00000      0.0 "silt/vf" "silt/vf" "Overbank_ deposit_ on_ lower_ delta_ plain"                                                                                           "UPPER_ DELTA_ PLAIN"           
3494.00 "6407_2-1" 106.8300 "Sandstone" "Coal"    -999.25   2.0000 98.00000      0.0 "silt/vf" "silt/vf" "Overbank_ deposit_ on_ lower_ delta_ plain"                                                                                           "UPPER_ DELTA_ PLAIN"           
3494.10 "6407_2-1" 104.0200 "Sandstone" "Coal"    -999.25   2.0000 98.00000      0.0 "silt/vf" "silt/vf" "Overbank_ deposit_ on_ lower_ delta_ plain"                                                                                           "UPPER_ DELTA_ PLAIN"           
3494.20 "6407_2-1" 101.2000 "Sandstone" "Coal"    -999.25   2.0000 98.00000      0.0 "silt/vf" "silt/vf" "Overbank_ deposit_ on_ lower_ delta_ plain"                                                                                           "UPPER_ DELTA_ PLAIN"           
3494.30 "6407_2-1"  98.3900 "Sandstone" "Coal"    -999.25   2.0000 98.00000      0.0 "silt/vf" "silt/vf" "Overbank_ deposit_ on_ lower_ delta_ plain"                                                                                           "UPPER_ DELTA_ PLAIN"           
3494.40 "6407_2-1"  95.5800 "Sandstone" "Coal"    -999.25   2.0000 98.00000      0.0 "silt/vf" "silt/vf" "Overbank_ deposit_ on_ lower_ delta_ plain"                                                                                           "UPPER_ DELTA_ PLAIN"           
3494.50 "6407_2-1"  97.6700 "Sandstone" "Coal"    -999.25   2.0000 98.00000      0.0 "silt/vf" "silt/vf" "Overbank_ deposit_ on_ lower_ delta_ plain"                                                                                           "UPPER_ DELTA_ PLAIN"           
3494.60 "6407_2-1" 100.4500 "Sandstone" "Coal"    -999.25   2.0000 98.00000      0.0 "silt/vf" "silt/vf" "Overbank_ deposit_ on_ lower_ delta_ plain"                                                                                           "UPPER_ DELTA_ PLAIN"           
3494.70 "6407_2-1" 103.2300 "Sandstone" "Coal"    -999.25   2.0000 98.00000      0.0 "silt/vf" "silt/vf" "Overbank_ deposit_ on_ lower_ delta_ plain"                                                                                           "UPPER_ DELTA_ PLAIN"           
3494.80 "6407_2-1" 109.2800 "Sandstone" "Coal"    -999.25   2.0000 98.00000      0.0 "silt/vf" "silt/vf" "Overbank_ deposit_ on_ lower_ delta_ plain"                                                                                           "UPPER_ DELTA_ PLAIN"           
3494.90 "6407_2-1" 113.2700 "Sandstone" "Coal"    -999.25   2.0000 98.00000      0.0 "silt/vf" "silt/vf" "Overbank_ deposit_ on_ lower_ delta_ plain"                                                                                           "UPPER_ DELTA_ PLAIN"           
3495.00 "6407_2-1" 114.0600 "Sandstone" "Coal"    -999.25   2.0000 98.00000      0.0 "silt/vf" "silt/vf" "Overbank_ deposit_ on_ lower_ delta_ plain"                                                                                           "UPPER_ DELTA_ PLAIN"           
3495.10 "6407_2-1" 112.7700 "Sandstone" "Coal"    -999.25   2.0000 98.00000      0.0 "silt/vf" "silt/vf" "Overbank_ deposit_ on_ lower_ delta_ plain"                                                                                           "UPPER_ DELTA_ PLAIN"           
3495.20 "6407_2-1" 111.3400 "Sandstone" -999.25   -999.25 100.0000      0.0      0.0 "c"       "c"       "Overbank_ deposit_ on_ lower_ delta_ plain"                                                                                           "UPPER_ DELTA_ PLAIN"           
3495.30 "6407_2-1" 109.9100 "Sandstone" -999.25   -999.25 100.0000      0.0      0.0 "c"       "c"       "Overbank_ dep."                                                                                                                       "UPPER_ DELTA_ PLAIN"           
3495.40 "6407_2-1" 108.4800 "Sandstone" -999.25   -999.25 100.0000      0.0      0.0 "c"       "c"       "Overbank_ dep."                                                                                                                       "UPPER_ DELTA_ PLAIN"           
3495.50 "6407_2-1" 107.6600 "Sandstone" -999.25   -999.25 100.0000      0.0      0.0 "c"       "c"       "Overbank_ dep."                                                                                                                       "UPPER_ DELTA_ PLAIN"           
3495.60 "6407_2-1" 107.1000 "Sandstone" -999.25   -999.25 100.0000      0.0      0.0 "vc"      "vc"      "Overbank_ dep."                                                                                                                       "UPPER_ DELTA_ PLAIN"           
3495.70 "6407_2-1" 106.5400 "Sandstone" -999.25   -999.25 100.0000      0.0      0.0 "vc"      "vc"      "Overbank_ dep."                                                                                                                       "UPPER_ DELTA_ PLAIN"           
3495.80 "6407_2-1" 105.9900 "Sandstone" -999.25   -999.25 100.0000      0.0      0.0 "vc"      "vc"      "Overbank_ dep."                                                                                                                       "UPPER_ DELTA_ PLAIN"           
3495.90 "6407_2-1" 106.5900 "Sandstone" -999.25   -999.25 100.0000      0.0      0.0 "vc"      "vc"      "Overbank_ dep."                                                                                                                       "UPPER_ DELTA_ PLAIN"           
3496.00 "6407_2-1" 108.5800 "Sandstone" "Clay"    -999.25  10.0000 80.00000 10.00000 "m"       "silt/vf" "Overbank_ dep."                                                                                                                       "UPPER_ DELTA_ PLAIN"           
3496.10 "6407_2-1" 110.5600 "Sandstone" "Clay"    -999.25  10.0000 80.00000 10.00000 "m"       "silt/vf" "Overbank_ dep."                                                                                                                       "UPPER_ DELTA_ PLAIN"           
3496.20 "6407_2-1" 112.5500 "Sandstone" "Clay"    -999.25  10.0000 80.00000 10.00000 "m"       "silt/vf" "Overbank_ dep."                                                                                                                       "UPPER_ DELTA_ PLAIN"           
3496.30 "6407_2-1" 114.7600 "Sandstone" "Clay"    -999.25  10.0000 80.00000 10.00000 "m"       "silt/vf" "Overbank_ dep."                                                                                                                       "UPPER_ DELTA_ PLAIN"           
3496.40 "6407_2-1" 117.8100 "Sandstone" "Clay"    -999.25  10.0000 80.00000 10.00000 "m"       "silt/vf" "Overbank_ dep."                                                                                                                       "UPPER_ DELTA_ PLAIN"           
3496.50 "6407_2-1" 120.8600 "Sandstone" "Clay"    -999.25  10.0000 80.00000 10.00000 "m"       "silt/vf" "Overbank_ dep."                                                                                                                       "UPPER_ DELTA_ PLAIN"           
3496.60 "6407_2-1" 121.8700 "Sandstone" "Clay"    -999.25  10.0000 80.00000 10.00000 "m"       "silt/vf" "Overbank_ dep."                                                                                                                       "UPPER_ DELTA_ PLAIN"           
3496.70 "6407_2-1" 121.8700 "Sandstone" "Clay"    -999.25  10.0000 80.00000 10.00000 "m"       "silt/vf" "Overbank_ dep."                                                                                                                       "UPPER_ DELTA_ PLAIN"           
3496.80 "6407_2-1" 121.8700 "Sandstone" "Clay"    -999.25  10.0000 80.00000 10.00000 "m"       "silt/vf" "Overbank_ dep."                                                                                                                       "UPPER_ DELTA_ PLAIN"           
