~Version
VERS  .                                 3.0 : CWLS LAS ASCII Standard - Version 3.0
WRAP  . NO                                  : One line per depth step
DLM   . SPACE                               : Column data section delimiter
SOURCE. Converted to LAS by Log Studio 4.76 : GeoProvider

~Well
STRT.        2417.00 : Start depth
STOP.        3497.00 : Stop depth
STEP.              1 : Step
NULL.        -999.25 : No-value
COMP.                : Company
WELL. 6407/2-1       : Well
FLD .                : Field
LOC .                : Location
LATI.                : Latitude
LONG.                : Longitude
GDAT.                : Geodetic datum
CNTY.                : County
STAT.                : State
CTRY.                : Country
SRVC. GeoProvider AS : Service company
DATE.                : Date
API .                : API number
RUN .                : Run number

~Parameters
WellboreName.  : Wellbore name
RigName     .  : Rig name
StartDate   .  : Start date

~Curves
DEPTH.m            .  : null {F}Depth mMD
Hole_ID.-          .  : null {S}Hole ID
GR.API             .  : null {F}Gamma Ray
Lithology1.-       .  : null {S}Lithology 1
Lithology2.-       .  : null {S}Lithology 2
Lithology3.-       .  : null {S}Lithology 3
Lithology1.%       .  : null {F}Lithology 1 percentage
Lithology2.%       .  : null {F}Lithology 2 percentage
Lithology3.%       .  : null {F}Lithology 3 percentage
Grain_size_Top.-   .  : null {S}Grain size at the top 
Grain_size_Base.-  .  : null {S}Grain size at the bottom
Sub_Environment.-  .  : null {S}Sub Environment
Gross_Environment.-.  : null {S}Gross Environment

~Ascii
# ...
3094.90 "6407_2-1" 107.4700 "Sandstone" "Coal"        0.0  80.0000 20.00000      0.0 "f"       "f/m"     "Strongly_ bioturbated_ upper/lower_ shorece_ sed._ Prograding_ delta_ front"                                                          "DISTAL_ DELTA_ FRONT"          
3095.00 "6407_2-1" 107.1800 "Sandstone" "Coal"        0.0  80.0000 20.00000      0.0 "f"       "f/m"     "Strongly_ bioturbated_ upper/lower_ shorece_ sed._ Prograding_ delta_ front"                                                          "DISTAL_ DELTA_ FRONT"          
3095.10 "6407_2-1" 106.8900 "Sandstone" "Coal"        0.0  80.0000 20.00000      0.0 "f"       "f/m"     "Strongly_ bioturbated_ upper/lower_ shorece_ sed._ Prograding_ delta_ front"                                                          "DISTAL_ DELTA_ FRONT"          
3095.20 "6407_2-1" 106.6000 "Sandstone" "Coal"        0.0  80.0000 20.00000      0.0 "f"       "f/m"     "Strongly_ bioturbated_ upper/lower_ shorece_ sed._ Prograding_ delta_ front"                                                          "DISTAL_ DELTA_ FRONT"          
3095.30 "6407_2-1" 106.8100 "Sandstone" "Coal"        0.0  80.0000 20.00000      0.0 "f"       "f/m"     "Strongly_ bioturbated_ upper/lower_ shorece_ sed._ Prograding_ delta_ front"                                                          "DISTAL_ DELTA_ FRONT"          
3095.40 "6407_2-1" 107.2500 "Sandstone" "Coal"        0.0  80.0000 20.00000      0.0 "f"       "f/m"     "Strongly_ bioturbated_ upper/lower_ shorece_ sed._ Prograding_ delta_ front"                                                          "DISTAL_ DELTA_ FRONT"          
3095.50 "6407_2-1" 107.6800 "Sandstone" "Coal"        0.0  80.0000 20.00000      0.0 "f"       "f/m"     "Strongly_ bioturbated_ upper/lower_ shorece_ sed._ Prograding_ delta_ front"                                                          "DISTAL_ DELTA_ FRONT"          
3095.60 "6407_2-1" 108.1100 "Sandstone" "Coal"        0.0  80.0000 20.00000      0.0 "f"       "f/m"     "Strongly_ bioturbated_ upper/lower_ shorece_ sed._ Prograding_ delta_ front"                                                          "DISTAL_ DELTA_ FRONT"          
3095.70 "6407_2-1" 108.5400 "Sandstone" -999.25       0.0 100.0000      0.0      0.0 "f"       "f"       "Strongly_ bioturbated_ upper/lower_ shorece_ sed._ Prograding_ delta_ front"                                                          "DISTAL_ DELTA_ FRONT"          
3095.80 "6407_2-1" 108.9700 "Sandstone" -999.25       0.0 100.0000      0.0      0.0 "f"       "f"       "Strongly_ bioturbated_ upper/lower_ shorece_ sed._ Prograding_ delta_ front"                                                          "DISTAL_ DELTA_ FRONT"          
3095.90 "6407_2-1" 109.4000 "Sandstone" -999.25       0.0 100.0000      0.0      0.0 "f"       "f"       "Strongly_ bioturbated_ upper/lower_ shorece_ sed._ Prograding_ delta_ front"                                                          "DISTAL_ DELTA_ FRONT"          
3096.00 "6407_2-1" 110.6400 "Sandstone" "Coal"        0.0  62.0000 38.00000      0.0 "vf"      "f"       "Strongly_ bioturbated_ upper/lower_ shorece_ sed._ Prograding_ delta_ front"                                                          "DISTAL_ DELTA_ FRONT"          
3096.10 "6407_2-1" 112.3900 "Sandstone" "Coal"        0.0  62.0000 38.00000      0.0 "vf"      "f"       "Strongly_ bioturbated_ upper/lower_ shorece_ sed._ Prograding_ delta_ front"                                                          "DISTAL_ DELTA_ FRONT"          
3096.20 "6407_2-1" 114.1300 "Sandstone" "Coal"        0.0  62.0000 38.00000      0.0 "vf"      "f"       "Strongly_ bioturbated_ upper/lower_ shorece_ sed._ Prograding_ delta_ front"                                                          "DISTAL_ DELTA_ FRONT"          
3096.30 "6407_2-1" 113.9800 "Sandstone" "Coal"        0.0  62.0000 38.00000      0.0 "vf"      "f"       "Strongly_ bioturbated_ upper/lower_ shorece_ sed._ Prograding_ delta_ front"                                                          "DISTAL_ DELTA_ FRONT"          
3096.40 "6407_2-1" 112.7500 "Sandstone" "Coal"        0.0  62.0000 38.00000      0.0 "vf"      "f"       "Strongly_ bioturbated_ upper/lower_ shorece_ sed._ Prograding_ delta_ front"                                                          "DISTAL_ DELTA_ FRONT"          
3096.50 "6407_2-1" 111.5200 "Sandstone" "Coal"        0.0  62.0000 38.00000      0.0 "vf"      "f"       "Strongly_ bioturbated_ upper/lower_ shorece_ sed._ Prograding_ delta_ front"                                                          "DISTAL_ DELTA_ FRONT"          
3096.60 "6407_2-1" 110.2900 "Sandstone" "Coal"        0.0  62.0000 38.00000      0.0 "vf"      "f"       "Strongly_ bioturbated_ upper/lower_ shorece_ sed._ Prograding_ delta_ front"                                                          "DISTAL_ DELTA_ FRONT"          
3096.70 "6407_2-1" 108.9400 "Sandstone" "Coal"        0.0  62.0000 38.00000      0.0 "vf"      "f"       "Strongly_ bioturbated_ upper/lower_ shorece_ sed._ Prograding_ delta_ front"                                                          "DISTAL_ DELTA_ FRONT"          
3096.80 "6407_2-1" 106.9700 "Sandstone" "Coal"        0.0  62.0000 38.00000      0.0 "vf"      "f"       "Strongly_ bioturbated_ upper/lower_ shorece_ sed._ Prograding_ delta_ front"                                                          "DISTAL_ DELTA_ FRONT"          
3096.90 "6407_2-1" 105.5000 "Sandstone" "Coal"        0.0  62.0000 38.00000      0.0 "vf"      "f"       "Strongly_ bioturbated_ upper/lower_ shorece_ sed._ Prograding_ delta_ front"                                                          "DISTAL_ DELTA_ FRONT"          
3097.00 "6407_2-1" 105.1700 "Sandstone" "Coal"        0.0  62.0000 38.00000      0.0 "vf"      "f"       "Strongly_ bioturbated_ upper/lower_ shorece_ sed._ Prograding_ delta_ front"                                                          "DISTAL_ DELTA_ FRONT"          
3097.10 "6407_2-1" 105.3100 "Sandstone" "Coal"        0.0  62.0000 38.00000      0.0 "vf"      "f"       "Strongly_ bioturbated_ upper/lower_ shorece_ sed._ Prograding_ delta_ front"                                                          "DISTAL_ DELTA_ FRONT"          
3097.20 "6407_2-1" 106.0400 "Sandstone" "Coal"        0.0  62.0000 38.00000      0.0 "vf"      "f"       "Strongly_ bioturbated_ upper/lower_ shorece_ sed._ Prograding_ delta_ front"                                                          "DISTAL_ DELTA_ FRONT"          
3097.30 "6407_2-1" 106.7700 "Sandstone" "Coal"        0.0  62.0000 38.00000      0.0 "vf"      "f"       "Strongly_ bioturbated_ upper/lower_ shorece_ sed._ Prograding_ delta_ front"                                                          "DISTAL_ DELTA_ FRONT"          
3097.40 "6407_2-1" 107.7500 "Sandstone" "Coal"        0.0  62.0000 38.00000      0.0 "vf"      "f"       "Strongly_ bioturbated_ upper/lower_ shorece_ sed._ Prograding_ delta_ front"                                                          "DISTAL_ DELTA_ FRONT"          
3097.50 "6407_2-1" 111.1500 "Sandstone" "Coal"        0.0  62.0000 38.00000      0.0 "vf"      "f"       "Strongly_ bioturbated_ upper/lower_ shorece_ sed._ Prograding_ delta_ front"                                                          "DISTAL_ DELTA_ FRONT"          
3097.60 "6407_2-1" 114.5500 "Sandstone" "Coal"        0.0  62.0000 38.00000      0.0 "vf"      "f"       "Strongly_ bioturbated_ upper/lower_ shorece_ sed._ Prograding_ delta_ front"                                                          "DISTAL_ DELTA_ FRONT"          
3097.70 "6407_2-1" 117.9500 "Sandstone" "Coal"        0.0  62.0000 38.00000      0.0 "vf"      "f"       "Strongly_ bioturbated_ upper/lower_ shorece_ sed._ Prograding_ delta_ front"                                                          "DISTAL_ DELTA_ FRONT"          
3097.80 "6407_2-1" 121.3400 "Sandstone" "Coal"        0.0  62.0000 38.00000      0.0 "vf"      "f"       "Strongly_ bioturbated_ upper/lower_ shorece_ sed._ Prograding_ delta_ front"                                                          "DISTAL_ DELTA_ FRONT"          
