~Version
VERS  .                                 3.0 : CWLS LAS ASCII Standard - Version 3.0
WRAP  . NO                                  : One line per depth step
DLM   . SPACE                               : Column data section delimiter
SOURCE. Converted to LAS by Log Studio 4.76 : GeoProvider

~Well
STRT.        2417.00 : Start depth
STOP.        3497.00 : Stop depth
STEP.              1 : Step
NULL.        -999.25 : No-value
COMP.                : Company
WELL. 6407/2-1       : Well
FLD .                : Field
LOC .                : Location
LATI.                : Latitude
LONG.                : Longitude
GDAT.                : Geodetic datum
CNTY.                : County
STAT.                : State
CTRY.                : Country
SRVC. GeoProvider AS : Service company
DATE.                : Date
API .                : API number
RUN .                : Run number

~Parameters
WellboreName.  : Wellbore name
RigName     .  : Rig name
StartDate   .  : Start date

~Curves
DEPTH.m            .  : null {F}Depth mMD
Hole_ID.-          .  : null {S}Hole ID
GR.API             .  : null {F}Gamma Ray
Lithology1.-       .  : null {S}Lithology 1
Lithology2.-       .  : null {S}Lithology 2
Lithology3.-       .  : null {S}Lithology 3
Lithology1.%       .  : null {F}Lithology 1 percentage
Lithology2.%       .  : null {F}Lithology 2 percentage
Lithology3.%       .  : null {F}Lithology 3 percentage
Grain_size_Top.-   .  : null {S}Grain size at the top 
Grain_size_Base.-  .  : null {S}Grain size at the bottom
Sub_Environment.-  .  : null {S}Sub Environment
Gross_Environment.-.  : null {S}Gross Environment

~Ascii
2417.00 "6407_2-1"  95.8300 "Sandstone" "Shale"   -999.25  10.0000 90.00000      0.0 "silt"    "silt"    "Distal_ 'shelf'_ deposits._ Deep_ water_ (?probably_ restricted_ basin)"                                                              "DISTAL_ BASIN_ OFFSHORE/PRODELTA"
2417.10 "6407_2-1"  95.3800 "Sandstone" "Shale"   -999.25  10.0000 90.00000      0.0 "silt"    "silt"    "Distal_ 'shelf'_ deposits._ Deep_ water_ (?probably_ restricted_ basin)"                                                              "DISTAL_ BASIN_ OFFSHORE/PRODELTA"
2417.20 "6407_2-1"  94.8700 "Sandstone" "Shale"   -999.25  10.0000 90.00000      0.0 "silt"    "silt"    "Distal_ 'shelf'_ deposits._ Deep_ water_ (?probably_ restricted_ basin)"                                                              "DISTAL_ BASIN_ OFFSHORE/PRODELTA"
2417.30 "6407_2-1"  93.3300 "Sandstone" "Shale"   -999.25  10.0000 90.00000      0.0 "silt"    "silt"    "Distal_ 'shelf'_ deposits._ Deep_ water_ (?probably_ restricted_ basin)"                                                              "DISTAL_ BASIN_ OFFSHORE/PRODELTA"
2417.40 "6407_2-1"  91.7800 "Sandstone" "Shale"   -999.25  10.0000 90.00000      0.0 "silt"    "silt"    "Distal_ 'shelf'_ deposits._ Deep_ water_ (?probably_ restricted_ basin)"                                                              "DISTAL_ BASIN_ OFFSHORE/PRODELTA"
2417.50 "6407_2-1"  90.2400 "Sandstone" "Shale"   -999.25  10.0000 90.00000      0.0 "silt"    "silt"    "Distal_ 'shelf'_ deposits._ Deep_ water_ (?probably_ restricted_ basin)"                                                              "DISTAL_ BASIN_ OFFSHORE/PRODELTA"
2417.60 "6407_2-1"  89.3100 "Sandstone" "Shale"   -999.25  10.0000 90.00000      0.0 "silt"    "silt"    "Distal_ 'shelf'_ deposits._ Deep_ water_ (?probably_ restricted_ basin)"                                                              "DISTAL_ BASIN_ OFFSHORE/PRODELTA"
2417.70 "6407_2-1"  89.3100 "Sandstone" "Shale"   -999.25  10.0000 90.00000      0.0 "silt"    "silt"    "Distal_ 'shelf'_ deposits._ Deep_ water_ (?probably_ restricted_ basin)"                                                              "DISTAL_ BASIN_ OFFSHORE/PRODELTA"
2417.80 "6407_2-1"  89.9500 "Sandstone" "Shale"   -999.25  10.0000 90.00000      0.0 "silt"    "silt"    "Distal_ 'shelf'_ deposits._ Deep_ water_ (?probably_ restricted_ basin)"                                                              "DISTAL_ BASIN_ OFFSHORE/PRODELTA"
2417.90 "6407_2-1"  89.3700 "Sandstone" "Shale"   -999.25  10.0000 90.00000      0.0 "silt"    "silt"    "Distal_ 'shelf'_ deposits._ Deep_ water_ (?probably_ restricted_ basin)"                                                              "DISTAL_ BASIN_ OFFSHORE/PRODELTA"
2418.00 "6407_2-1"  88.5800 "Sandstone" "Shale"   -999.25  10.0000 90.00000      0.0 "silt"    "silt"    "Distal_ 'shelf'_ deposits._ Deep_ water_ (?probably_ restricted_ basin)"                                                              "DISTAL_ BASIN_ OFFSHORE/PRODELTA"
2418.10 "6407_2-1"  89.1400 "Sandstone" "Shale"   -999.25  10.0000 90.00000      0.0 "silt"    "silt"    "Distal_ 'shelf'_ deposits._ Deep_ water_ (?probably_ restricted_ basin)"                                                              "DISTAL_ BASIN_ OFFSHORE/PRODELTA"
2418.20 "6407_2-1"  89.6900 "Sandstone" "Shale"   -999.25  10.0000 90.00000      0.0 "silt"    "silt"    "Distal_ 'shelf'_ deposits._ Deep_ water_ (?probably_ restricted_ basin)"                                                              "DISTAL_ BASIN_ OFFSHORE/PRODELTA"
2418.30 "6407_2-1"  90.2500 "Sandstone" "Shale"   -999.25  10.0000 90.00000      0.0 "silt"    "silt"    "Distal_ 'shelf'_ deposits._ Deep_ water_ (?probably_ restricted_ basin)"                                                              "DISTAL_ BASIN_ OFFSHORE/PRODELTA"
2418.40 "6407_2-1"  90.9300 "Sandstone" "Shale"   -999.25  10.0000 90.00000      0.0 "silt"    "silt"    "Distal_ 'shelf'_ deposits._ Deep_ water_ (?probably_ restricted_ basin)"                                                              "DISTAL_ BASIN_ OFFSHORE/PRODELTA"
2418.50 "6407_2-1"  91.7300 "Sandstone" "Shale"   -999.25  10.0000 90.00000      0.0 "silt"    "silt"    "Distal_ 'shelf'_ deposits._ Deep_ water_ (?probably_ restricted_ basin)"                                                              "DISTAL_ BASIN_ OFFSHORE/PRODELTA"
2418.60 "6407_2-1"  92.5300 "Sandstone" "Shale"   -999.25  10.0000 90.00000      0.0 "silt"    "silt"    "Distal_ 'shelf'_ deposits._ Deep_ water_ (?probably_ restricted_ basin)"                                                              "DISTAL_ BASIN_ OFFSHORE/PRODELTA"
2418.70 "6407_2-1"  93.3200 "Sandstone" "Shale"   -999.25  10.0000 90.00000      0.0 "silt"    "silt"    "Distal_ 'shelf'_ deposits._ Deep_ water_ (?probably_ restricted_ basin)"                                                              "DISTAL_ BASIN_ OFFSHORE/PRODELTA"
2418.80 "6407_2-1"  94.1200 "Sandstone" "Shale"   -999.25  10.0000 90.00000      0.0 "silt"    "silt"    "Distal_ 'shelf'_ deposits._ Deep_ water_ (?probably_ restricted_ basin)"                                                              "DISTAL_ BASIN_ OFFSHORE/PRODELTA"
2418.90 "6407_2-1"  94.9200 "Sandstone" "Shale"   -999.25  10.0000 90.00000      0.0 "silt"    "silt"    "Distal_ 'shelf'_ deposits._ Deep_ water_ (?probably_ restricted_ basin)"                                                              "DISTAL_ BASIN_ OFFSHORE/PRODELTA"
2419.00 "6407_2-1"  95.7200 "Sandstone" "Shale"   -999.25  10.0000 90.00000      0.0 "silt"    "silt"    "Distal_ 'shelf'_ deposits._ Deep_ water_ (?probably_ restricted_ basin)"                                                              "DISTAL_ BASIN_ OFFSHORE/PRODELTA"
2419.10 "6407_2-1"  96.5100 "Sandstone" "Shale"   -999.25  10.0000 90.00000      0.0 "silt"    "silt"    "Distal_ 'shelf'_ deposits._ Deep_ water_ (?probably_ restricted_ basin)"                                                              "DISTAL_ BASIN_ OFFSHORE/PRODELTA"
2419.20 "6407_2-1"  97.3100 "Sandstone" "Shale"   -999.25  10.0000 90.00000      0.0 "silt"    "silt"    "Distal_ 'shelf'_ deposits._ Deep_ water_ (?probably_ restricted_ basin)"                                                              "DISTAL_ BASIN_ OFFSHORE/PRODELTA"
2419.30 "6407_2-1"  97.2600 "Sandstone" "Shale"   -999.25  10.0000 90.00000      0.0 "silt"    "silt"    "Distal_ 'shelf'_ deposits._ Deep_ water_ (?probably_ restricted_ basin)"                                                              "DISTAL_ BASIN_ OFFSHORE/PRODELTA"
2419.40 "6407_2-1"  96.6000 "Sandstone" "Shale"   -999.25  10.0000 90.00000      0.0 "silt"    "silt"    "Distal_ 'shelf'_ deposits._ Deep_ water_ (?probably_ restricted_ basin)"                                                              "DISTAL_ BASIN_ OFFSHORE/PRODELTA"
2419.50 "6407_2-1"  95.9400 "Sandstone" "Shale"   -999.25  10.0000 90.00000      0.0 "silt"    "silt"    "Distal_ 'shelf'_ deposits._ Deep_ water_ (?probably_ restricted_ basin)"                                                              "DISTAL_ BASIN_ OFFSHORE/PRODELTA"
2419.60 "6407_2-1"  95.2800 "Sandstone" "Shale"   -999.25  10.0000 90.00000      0.0 "silt"    "silt"    "Distal_ 'shelf'_ deposits._ Deep_ water_ (?probably_ restricted_ basin)"                                                              "DISTAL_ BASIN_ OFFSHORE/PRODELTA"
2419.70 "6407_2-1"  94.6200 "Sandstone" "Shale"   -999.25  10.0000 90.00000      0.0 "silt"    "silt"    "Distal_ 'shelf'_ deposits._ Deep_ water_ (?probably_ restricted_ basin)"                                                              "DISTAL_ BASIN_ OFFSHORE/PRODELTA"
2419.80 "6407_2-1"  93.9600 "Sandstone" "Shale"   -999.25  10.0000 90.00000      0.0 "silt"    "silt"    "Distal_ 'shelf'_ deposits._ Deep_ water_ (?probably_ restricted_ basin)"                                                              "DISTAL_ BASIN_ OFFSHORE/PRODELTA"
2419.90 "6407_2-1"  93.1100 "Sandstone" "Shale"   -999.25  10.0000 90.00000      0.0 "silt"    "silt"    "Distal_ 'shelf'_ deposits._ Deep_ water_ (?probably_ restricted_ basin)"                                                              "DISTAL_ BASIN_ OFFSHORE/PRODELTA"
