~Version
VERS  .                                 3.0 : CWLS LAS ASCII Standard - Version 3.0
WRAP  . NO                                  : One line per depth step
DLM   . SPACE                               : Column data section delimiter
SOURCE. Converted to LAS by Log Studio 4.76 : GeoProvider

~Well
STRT.        2417.00 : Start depth
STOP.        3497.00 : Stop depth
STEP.              1 : Step
NULL.        -999.25 : No-value
COMP.                : Company
WELL. 6407/2-1       : Well
FLD .                : Field
LOC .                : Location
LATI.                : Latitude
LONG.                : Longitude
GDAT.                : Geodetic datum
CNTY.                : County
STAT.                : State
CTRY.                : Country
SRVC. GeoProvider AS : Service company
DATE.                : Date
API .                : API number
RUN .                : Run number

~Parameters
WellboreName.  : Wellbore name
RigName     .  : Rig name
StartDate   .  : Start date

~Curves
DEPTH.m            .  : null {F}Depth mMD
Hole_ID.-          .  : null {S}Hole ID
GR.API             .  : null {F}Gamma Ray
Lithology1.-       .  : null {S}Lithology 1
Lithology2.-       .  : null {S}Lithology 2
Lithology3.-       .  : null {S}Lithology 3
Lithology1.%       .  : null {F}Lithology 1 percentage
Lithology2.%       .  : null {F}Lithology 2 percentage
Lithology3.%       .  : null {F}Lithology 3 percentage
Grain_size_Top.-   .  : null {S}Grain size at the top 
Grain_size_Base.-  .  : null {S}Grain size at the bottom
Sub_Environment.-  .  : null {S}Sub Environment
Gross_Environment.-.  : null {S}Gross Environment

~Ascii
# ...
2942.00 "6407_2-1"  67.6600 -999.25   -999.25   -999.25 100.0000      0.0      0.0 -999.25   -999.25   -999.25                                                                                                                                -999.25                         
2942.10 "6407_2-1"  69.6600 -999.25   -999.25   -999.25 100.0000      0.0      0.0 -999.25   -999.25   -999.25                                                                                                                                -999.25                         
2942.20 "6407_2-1"  71.6700 -999.25   -999.25   -999.25 100.0000      0.0      0.0 -999.25   -999.25   -999.25                                                                                                                                -999.25                         
2942.30 "6407_2-1"  74.3700 -999.25   -999.25   -999.25 100.0000      0.0      0.0 -999.25   -999.25   -999.25                                                                                                                                -999.25                         
2942.40 "6407_2-1"  77.3400 -999.25   -999.25   -999.25 100.0000      0.0      0.0 -999.25   -999.25   -999.25                                                                                                                                -999.25                         
2942.50 "6407_2-1"  78.8600 -999.25   -999.25   -999.25 100.0000      0.0      0.0 -999.25   -999.25   -999.25                                                                                                                                -999.25                         
2942.60 "6407_2-1"  79.1300 -999.25   -999.25   -999.25 100.0000      0.0      0.0 -999.25   -999.25   -999.25                                                                                                                                -999.25                         
2942.70 "6407_2-1"  78.1100 -999.25   -999.25   -999.25 100.0000      0.0      0.0 -999.25   -999.25   -999.25                                                                                                                                -999.25                         
2942.80 "6407_2-1"  77.0900 -999.25   -999.25   -999.25 100.0000      0.0      0.0 -999.25   -999.25   -999.25                                                                                                                                -999.25                         
2942.90 "6407_2-1"  76.0700 -999.25   -999.25   -999.25 100.0000      0.0      0.0 -999.25   -999.25   -999.25                                                                                                                                -999.25                         
2943.00 "6407_2-1"  75.0500 -999.25   -999.25   -999.25 100.0000      0.0      0.0 -999.25   -999.25   "Strongly_ fluvial_ influenced_ foreshore_ and_ upper_ shoreface_ sediments._ _ _ _ _ _ _ Some_ tidal_ influence_ in_ the_ lower_ part." "PROXIMAL_ DELTA_ FRONT"        
2943.10 "6407_2-1"  74.0300 "Sandstone" -999.25   -999.25 100.0000      0.0      0.0 "c"       "c/vc"    "Strongly_ fluvial_ influenced_ foreshore_ and_ upper_ shoreface_ sediments._ _ _ _ _ _ _ Some_ tidal_ influence_ in_ the_ lower_ part." "PROXIMAL_ DELTA_ FRONT"        
2943.20 "6407_2-1"  73.0100 "Sandstone" -999.25   -999.25 100.0000      0.0      0.0 "c"       "c/vc"    "Strongly_ fluvial_ influenced_ foreshore_ and_ upper_ shoreface_ sediments._ _ _ _ _ _ _ Some_ tidal_ influence_ in_ the_ lower_ part." "PROXIMAL_ DELTA_ FRONT"        
2943.30 "6407_2-1"  71.9900 "Sandstone" -999.25   -999.25 100.0000      0.0      0.0 "c"       "c/vc"    "Strongly_ fluvial_ influenced_ foreshore_ and_ upper_ shoreface_ sediments._ _ _ _ _ _ _ Some_ tidal_ influence_ in_ the_ lower_ part." "PROXIMAL_ DELTA_ FRONT"        
2943.40 "6407_2-1"  70.9700 "Sandstone" -999.25   -999.25 100.0000      0.0      0.0 "c"       "c/vc"    "Strongly_ fluvial_ influenced_ foreshore_ and_ upper_ shoreface_ sediments._ _ _ _ _ _ _ Some_ tidal_ influence_ in_ the_ lower_ part." "PROXIMAL_ DELTA_ FRONT"        
2943.50 "6407_2-1"  69.9500 "Sandstone" -999.25   -999.25 100.0000      0.0      0.0 "c"       "c/vc"    "Strongly_ fluvial_ influenced_ foreshore_ and_ upper_ shoreface_ sediments._ _ _ _ _ _ _ Some_ tidal_ influence_ in_ the_ lower_ part." "PROXIMAL_ DELTA_ FRONT"        
2943.60 "6407_2-1"  69.0200 "Sandstone" -999.25   -999.25 100.0000      0.0      0.0 "c"       "c/vc"    "Strongly_ fluvial_ influenced_ foreshore_ and_ upper_ shoreface_ sediments._ _ _ _ _ _ _ Some_ tidal_ influence_ in_ the_ lower_ part." "PROXIMAL_ DELTA_ FRONT"        
2943.70 "6407_2-1"  68.1200 "Sandstone" -999.25   -999.25 100.0000      0.0      0.0 "c"       "c/vc"    "Strongly_ fluvial_ influenced_ foreshore_ and_ upper_ shoreface_ sediments._ _ _ _ _ _ _ Some_ tidal_ influence_ in_ the_ lower_ part." "PROXIMAL_ DELTA_ FRONT"        
2943.80 "6407_2-1"  67.2200 "Sandstone" -999.25   -999.25 100.0000      0.0      0.0 "c"       "c/vc"    "Strongly_ fluvial_ influenced_ foreshore_ and_ upper_ shoreface_ sediments._ _ _ _ _ _ _ Some_ tidal_ influence_ in_ the_ lower_ part." "PROXIMAL_ DELTA_ FRONT"        
2943.90 "6407_2-1"  66.8500 "Sandstone" -999.25   -999.25 100.0000      0.0      0.0 "c"       "c/vc"    "Strongly_ fluvial_ influenced_ foreshore_ and_ upper_ shoreface_ sediments._ _ _ _ _ _ _ Some_ tidal_ influence_ in_ the_ lower_ part." "PROXIMAL_ DELTA_ FRONT"        
2944.00 "6407_2-1"  66.8500 "Sandstone" -999.25   -999.25 100.0000      0.0      0.0 "c"       "c/vc"    "Strongly_ fluvial_ influenced_ foreshore_ and_ upper_ shoreface_ sediments._ _ _ _ _ _ _ Some_ tidal_ influence_ in_ the_ lower_ part." "PROXIMAL_ DELTA_ FRONT"        
2944.10 "6407_2-1"  66.8500 "Sandstone" -999.25   -999.25 100.0000      0.0      0.0 "c"       "c/vc"    "Strongly_ fluvial_ influenced_ foreshore_ and_ upper_ shoreface_ sediments._ _ _ _ _ _ _ Some_ tidal_ influence_ in_ the_ lower_ part." "PROXIMAL_ DELTA_ FRONT"        
2944.20 "6407_2-1"  66.8500 "Sandstone" -999.25   -999.25 100.0000      0.0      0.0 "c"       "c/vc"    "Strongly_ fluvial_ influenced_ foreshore_ and_ upper_ shoreface_ sediments._ _ _ _ _ _ _ Some_ tidal_ influence_ in_ the_ lower_ part." "PROXIMAL_ DELTA_ FRONT"        
2944.30 "6407_2-1"  65.2700 "Sandstone" -999.25   -999.25 100.0000      0.0      0.0 "c"       "c/vc"    "Strongly_ fluvial_ influenced_ foreshore_ and_ upper_ shoreface_ sediments._ _ _ _ _ _ _ Some_ tidal_ influence_ in_ the_ lower_ part." "PROXIMAL_ DELTA_ FRONT"        
2944.40 "6407_2-1"  63.1100 "Sandstone" -999.25   -999.25 100.0000      0.0      0.0 "c"       "c/vc"    "Strongly_ fluvial_ influenced_ foreshore_ and_ upper_ shoreface_ sediments._ _ _ _ _ _ _ Some_ tidal_ influence_ in_ the_ lower_ part." "PROXIMAL_ DELTA_ FRONT"        
2944.50 "6407_2-1"  60.9500 "Sandstone" -999.25   -999.25 100.0000      0.0      0.0 "c"       "c/vc"    "Strongly_ fluvial_ influenced_ foreshore_ and_ upper_ shoreface_ sediments._ _ _ _ _ _ _ Some_ tidal_ influence_ in_ the_ lower_ part." "PROXIMAL_ DELTA_ FRONT"        
2944.60 "6407_2-1"  60.0700 "Sandstone" -999.25   -999.25 100.0000      0.0      0.0 "c"       "c/vc"    "Strongly_ fluvial_ influenced_ foreshore_ and_ upper_ shoreface_ sediments._ _ _ _ _ _ _ Some_ tidal_ influence_ in_ the_ lower_ part." "PROXIMAL_ DELTA_ FRONT"        
2944.70 "6407_2-1"  60.1600 "Sandstone" -999.25   -999.25 100.0000      0.0      0.0 "c"       "c/vc"    "Strongly_ fluvial_ influenced_ foreshore_ and_ upper_ shoreface_ sediments._ _ _ _ _ _ _ Some_ tidal_ influence_ in_ the_ lower_ part." "PROXIMAL_ DELTA_ FRONT"        
2944.80 "6407_2-1"  60.2400 "Sandstone" -999.25   -999.25 100.0000      0.0      0.0 "c"       "c/vc"    "Strongly_ fluvial_ influenced_ foreshore_ and_ upper_ shoreface_ sediments._ _ _ _ _ _ _ Some_ tidal_ influence_ in_ the_ lower_ part." "PROXIMAL_ DELTA_ FRONT"        
2944.90 "6407_2-1"  60.3400 "Sandstone" -999.25   -999.25 100.0000      0.0      0.0 "c"       "c/vc"    "Strongly_ fluvial_ influenced_ foreshore_ and_ upper_ shoreface_ sediments._ _ _ _ _ _ _ Some_ tidal_ influence_ in_ the_ lower_ part." "PROXIMAL_ DELTA_ FRONT"        
