~Version
VERS  .                                 3.0 : CWLS LAS ASCII Standard - Version 3.0
WRAP  . NO                                  : One line per depth step
DLM   . SPACE                               : Column data section delimiter
SOURCE. Converted to LAS by Log Studio 4.76 : GeoProvider

~Well
STRT.        2417.00 : Start depth
STOP.        3497.00 : Stop depth
STEP.              1 : Step
NULL.        -999.25 : No-value
COMP.                : Company
WELL. 6407/2-1       : Well
FLD .                : Field
LOC .                : Location
LATI.                : Latitude
LONG.                : Longitude
GDAT.                : Geodetic datum
CNTY.                : County
STAT.                : State
CTRY.                : Country
SRVC. GeoProvider AS : Service company
DATE.                : Date
API .                : API number
RUN .                : Run number

~Parameters
WellboreName.  : Wellbore name
RigName     .  : Rig name
StartDate   .  : Start date

~Curves
DEPTH.m            .  : null {F}Depth mMD
Hole_ID.-          .  : null {S}Hole ID
GR.API             .  : null {F}Gamma Ray
Lithology1.-       .  : null {S}Lithology 1
Lithology2.-       .  : null {S}Lithology 2
Lithology3.-       .  : null {S}Lithology 3
Lithology1.%       .  : null {F}Lithology 1 percentage
Lithology2.%       .  : null {F}Lithology 2 percentage
Lithology3.%       .  : null {F}Lithology 3 percentage
Grain_size_Top.-   .  : null {S}Grain size at the top 
Grain_size_Base.-  .  : null {S}Grain size at the bottom
Sub_Environment.-  .  : null {S}Sub Environment
Gross_Environment.-.  : null {S}Gross Environment

~Ascii
# ...
2950.90 "6407_2-1"  77.8500 "Sandstone" "Claystone" -999.25  83.0000 17.00000      0.0 "m/c"     "c"       "Strongly_ fluvial_ influenced_ foreshore_ and_ upper_ shoreface_ sediments._ _ _ _ _ _ _ Some_ tidal_ influence_ in_ the_ lower_ part." "PROXIMAL_ DELTA_ FRONT"        
2951.00 "6407_2-1"  78.3700 "Sandstone" "Claystone" -999.25  83.0000 17.00000      0.0 "m/c"     "c"       "Strongly_ fluvial_ influenced_ foreshore_ and_ upper_ shoreface_ sediments._ _ _ _ _ _ _ Some_ tidal_ influence_ in_ the_ lower_ part." "PROXIMAL_ DELTA_ FRONT"        
2951.10 "6407_2-1"  78.8800 "Sandstone" "Claystone" -999.25  83.0000 17.00000      0.0 "m/c"     "c"       "Strongly_ fluvial_ influenced_ foreshore_ and_ upper_ shoreface_ sediments._ _ _ _ _ _ _ Some_ tidal_ influence_ in_ the_ lower_ part." "PROXIMAL_ DELTA_ FRONT"        
2951.20 "6407_2-1"  79.4000 "Sandstone" "Claystone" -999.25  83.0000 17.00000      0.0 "m/c"     "c"       "Strongly_ fluvial_ influenced_ foreshore_ and_ upper_ shoreface_ sediments._ _ _ _ _ _ _ Some_ tidal_ influence_ in_ the_ lower_ part." "PROXIMAL_ DELTA_ FRONT"        
2951.30 "6407_2-1"  79.9100 "Sandstone" "Claystone" -999.25  83.0000 17.00000      0.0 "m/c"     "c"       "Strongly_ fluvial_ influenced_ foreshore_ and_ upper_ shoreface_ sediments._ _ _ _ _ _ _ Some_ tidal_ influence_ in_ the_ lower_ part." "PROXIMAL_ DELTA_ FRONT"        
2951.40 "6407_2-1"  80.4300 "Sandstone" "Claystone" -999.25  83.0000 17.00000      0.0 "m/c"     "c"       "Strongly_ fluvial_ influenced_ foreshore_ and_ upper_ shoreface_ sediments._ _ _ _ _ _ _ Some_ tidal_ influence_ in_ the_ lower_ part." "PROXIMAL_ DELTA_ FRONT"        
2951.50 "6407_2-1"  80.9400 "Sandstone" "Claystone" -999.25  83.0000 17.00000      0.0 "m/c"     "c"       "Strongly_ fluvial_ influenced_ foreshore_ and_ upper_ shoreface_ sediments._ _ _ _ _ _ _ Some_ tidal_ influence_ in_ the_ lower_ part." "PROXIMAL_ DELTA_ FRONT"        
2951.60 "6407_2-1"  79.9500 "Sandstone" "Claystone" -999.25  83.0000 17.00000      0.0 "m/c"     "c"       "Strongly_ fluvial_ influenced_ foreshore_ and_ upper_ shoreface_ sediments._ _ _ _ _ _ _ Some_ tidal_ influence_ in_ the_ lower_ part." "PROXIMAL_ DELTA_ FRONT"        
2951.70 "6407_2-1"  78.5600 "Sandstone" "Claystone" -999.25  83.0000 17.00000      0.0 "m/c"     "c"       "Strongly_ fluvial_ influenced_ foreshore_ and_ upper_ shoreface_ sediments._ _ _ _ _ _ _ Some_ tidal_ influence_ in_ the_ lower_ part." "PROXIMAL_ DELTA_ FRONT"        
2951.80 "6407_2-1"  77.6400 "Sandstone" "Claystone" -999.25  83.0000 17.00000      0.0 "m/c"     "c"       "Strongly_ fluvial_ influenced_ foreshore_ and_ upper_ shoreface_ sediments._ _ _ _ _ _ _ Some_ tidal_ influence_ in_ the_ lower_ part." "PROXIMAL_ DELTA_ FRONT"        
2951.90 "6407_2-1"  77.6400 "Sandstone" "Claystone" -999.25  83.0000 17.00000      0.0 "m/c"     "c"       "Strongly_ fluvial_ influenced_ foreshore_ and_ upper_ shoreface_ sediments._ _ _ _ _ _ _ Some_ tidal_ influence_ in_ the_ lower_ part." "PROXIMAL_ DELTA_ FRONT"        
2952.00 "6407_2-1"  78.1200 "Sandstone" "Claystone" -999.25  83.0000 17.00000      0.0 "m/c"     "c"       "Strongly_ fluvial_ influenced_ foreshore_ and_ upper_ shoreface_ sediments._ _ _ _ _ _ _ Some_ tidal_ influence_ in_ the_ lower_ part." "PROXIMAL_ DELTA_ FRONT"        
2952.10 "6407_2-1"  80.1400 "Sandstone" "Claystone" -999.25  83.0000 17.00000      0.0 "m/c"     "c"       "Strongly_ fluvial_ influenced_ foreshore_ and_ upper_ shoreface_ sediments._ _ _ _ _ _ _ Some_ tidal_ influence_ in_ the_ lower_ part." "PROXIMAL_ DELTA_ FRONT"        
2952.20 "6407_2-1"  82.1700 "Sandstone" "Claystone" -999.25  83.0000 17.00000      0.0 "m/c"     "c"       "Strongly_ fluvial_ influenced_ foreshore_ and_ upper_ shoreface_ sediments._ _ _ _ _ _ _ Some_ tidal_ influence_ in_ the_ lower_ part." "PROXIMAL_ DELTA_ FRONT"        
2952.30 "6407_2-1"  84.1900 "Sandstone" -999.25   -999.25 100.0000      0.0      0.0 "m/c"     "m/c"     "Strongly_ fluvial_ influenced_ foreshore_ and_ upper_ shoreface_ sediments._ _ _ _ _ _ _ Some_ tidal_ influence_ in_ the_ lower_ part." "PROXIMAL_ DELTA_ FRONT"        
2952.40 "6407_2-1"  86.2200 "Sandstone" -999.25   -999.25 100.0000      0.0      0.0 "m/c"     "m/c"     "Strongly_ fluvial_ influenced_ foreshore_ and_ upper_ shoreface_ sediments._ _ _ _ _ _ _ Some_ tidal_ influence_ in_ the_ lower_ part." "PROXIMAL_ DELTA_ FRONT"        
2952.50 "6407_2-1"  88.2400 "Sandstone" -999.25   -999.25 100.0000      0.0      0.0 "m/c"     "m/c"     "Strongly_ fluvial_ influenced_ foreshore_ and_ upper_ shoreface_ sediments._ _ _ _ _ _ _ Some_ tidal_ influence_ in_ the_ lower_ part." "PROXIMAL_ DELTA_ FRONT"        
2952.60 "6407_2-1" 100.3500 "Sandstone" -999.25   -999.25 100.0000      0.0      0.0 "m/c"     "m/c"     "Strongly_ fluvial_ influenced_ foreshore_ and_ upper_ shoreface_ sediments._ _ _ _ _ _ _ Some_ tidal_ influence_ in_ the_ lower_ part." "PROXIMAL_ DELTA_ FRONT"        
2952.70 "6407_2-1" 118.5000 "Sandstone" -999.25   -999.25 100.0000      0.0      0.0 "m/c"     "vf"      "Strongly_ fluvial_ influenced_ foreshore_ and_ upper_ shoreface_ sediments._ _ _ _ _ _ _ Some_ tidal_ influence_ in_ the_ lower_ part." "PROXIMAL_ DELTA_ FRONT"        
2952.80 "6407_2-1" 124.5900 "Sandstone" -999.25   -999.25 100.0000      0.0      0.0 "m/c"     "vf"      "Strongly_ fluvial_ influenced_ foreshore_ and_ upper_ shoreface_ sediments._ _ _ _ _ _ _ Some_ tidal_ influence_ in_ the_ lower_ part." "PROXIMAL_ DELTA_ FRONT"        
2952.90 "6407_2-1" 115.4700 "Sandstone" -999.25   -999.25 100.0000      0.0      0.0 "m/c"     "vf"      "Strongly_ fluvial_ influenced_ foreshore_ and_ upper_ shoreface_ sediments._ _ _ _ _ _ _ Some_ tidal_ influence_ in_ the_ lower_ part." "PROXIMAL_ DELTA_ FRONT"        
2953.00 "6407_2-1" 106.3600 "Sandstone" -999.25   -999.25 100.0000      0.0      0.0 "m/c"     "vf"      "Strongly_ fluvial_ influenced_ foreshore_ and_ upper_ shoreface_ sediments._ _ _ _ _ _ _ Some_ tidal_ influence_ in_ the_ lower_ part." "PROXIMAL_ DELTA_ FRONT"        
2953.10 "6407_2-1"  99.3800 "Sandstone" -999.25   -999.25 100.0000      0.0      0.0 "m/c"     "vf"      "Strongly_ fluvial_ influenced_ foreshore_ and_ upper_ shoreface_ sediments._ _ _ _ _ _ _ Some_ tidal_ influence_ in_ the_ lower_ part." "PROXIMAL_ DELTA_ FRONT"        
2953.20 "6407_2-1"  93.2500 "Sandstone" -999.25   -999.25 100.0000      0.0      0.0 "m/c"     "vf"      "Strongly_ fluvial_ influenced_ foreshore_ and_ upper_ shoreface_ sediments._ _ _ _ _ _ _ Some_ tidal_ influence_ in_ the_ lower_ part." "PROXIMAL_ DELTA_ FRONT"        
2953.30 "6407_2-1"  87.1100 "Sandstone" -999.25   -999.25 100.0000      0.0      0.0 "m/c"     "vf"      "Strongly_ fluvial_ influenced_ foreshore_ and_ upper_ shoreface_ sediments._ _ _ _ _ _ _ Some_ tidal_ influence_ in_ the_ lower_ part." "PROXIMAL_ DELTA_ FRONT"        
2953.40 "6407_2-1"  80.9800 "Sandstone" -999.25   -999.25 100.0000      0.0      0.0 "m/c"     "m/c"     "Strongly_ fluvial_ influenced_ foreshore_ and_ upper_ shoreface_ sediments._ _ _ _ _ _ _ Some_ tidal_ influence_ in_ the_ lower_ part." "PROXIMAL_ DELTA_ FRONT"        
2953.50 "6407_2-1"  74.8400 "Sandstone" -999.25   -999.25 100.0000      0.0      0.0 "m/c"     "m/c"     "Strongly_ fluvial_ influenced_ foreshore_ and_ upper_ shoreface_ sediments._ _ _ _ _ _ _ Some_ tidal_ influence_ in_ the_ lower_ part." "PROXIMAL_ DELTA_ FRONT"        
2953.60 "6407_2-1"  80.4700 "Sandstone" -999.25   -999.25 100.0000      0.0      0.0 "m/c"     "m/c"     "Strongly_ fluvial_ influenced_ foreshore_ and_ upper_ shoreface_ sediments._ _ _ _ _ _ _ Some_ tidal_ influence_ in_ the_ lower_ part." "PROXIMAL_ DELTA_ FRONT"        
2953.70 "6407_2-1"  88.7500 "Sandstone" -999.25   -999.25 100.0000      0.0      0.0 "m/c"     "m/c"     "Strongly_ fluvial_ influenced_ foreshore_ and_ upper_ shoreface_ sediments._ _ _ _ _ _ _ Some_ tidal_ influence_ in_ the_ lower_ part." "PROXIMAL_ DELTA_ FRONT"        
