~Version
VERS  .                                 3.0 : CWLS LAS ASCII Standard - Version 3.0
WRAP  . NO                                  : One line per depth step
DLM   . SPACE                               : Column data section delimiter
SOURCE. Converted to LAS by Log Studio 4.76 : GeoProvider

~Well
STRT.        2417.00 : Start depth
STOP.        3497.00 : Stop depth
STEP.              1 : Step
NULL.        -999.25 : No-value
COMP.                : Company
WELL. 6407/2-1       : Well
FLD .                : Field
LOC .                : Location
LATI.                : Latitude
LONG.                : Longitude
GDAT.                : Geodetic datum
CNTY.                : County
STAT.                : State
CTRY.                : Country
SRVC. GeoProvider AS : Service company
DATE.                : Date
API .                : API number
RUN .                : Run number

~Parameters
WellboreName.  : Wellbore name
RigName     .  : Rig name
StartDate   .  : Start date

~Curves
DEPTH.m            .  : null {F}Depth mMD
Hole_ID.-          .  : null {S}Hole ID
GR.API             .  : null {F}Gamma Ray
Lithology1.-       .  : null {S}Lithology 1
Lithology2.-       .  : null {S}Lithology 2
Lithology3.-       .  : null {S}Lithology 3
Lithology1.%       .  : null {F}Lithology 1 percentage
Lithology2.%       .  : null {F}Lithology 2 percentage
Lithology3.%       .  : null {F}Lithology 3 percentage
Grain_size_Top.-   .  : null {S}Grain size at the top 
Grain_size_Base.-  .  : null {S}Grain size at the bottom
Sub_Environment.-  .  : null {S}Sub Environment
Gross_Environment.-.  : null {S}Gross Environment

~Ascii
# ...
2432.00 "6407_2-1"  95.2100 "Sandstone" "Shale"   -999.25  25.0000 75.00000      0.0 "f/m"     "f/m"     "Distal_ 'shelf'_ deposits._ Deep_ water_ (?probably_ restricted_ basin)"                                                              "DISTAL_ BASIN_ OFFSHORE/PRODELTA"
2432.10 "6407_2-1"  96.2100 "Sandstone" "Shale"   -999.25  25.0000 75.00000      0.0 "f/m"     "f/m"     "Distal_ 'shelf'_ deposits._ Deep_ water_ (?probably_ restricted_ basin)"                                                              "DISTAL_ BASIN_ OFFSHORE/PRODELTA"
2432.20 "6407_2-1"  97.2200 "Sandstone" "Shale"   -999.25  25.0000 75.00000      0.0 "f/m"     "f/m"     "Distal_ 'shelf'_ deposits._ Deep_ water_ (?probably_ restricted_ basin)"                                                              "DISTAL_ BASIN_ OFFSHORE/PRODELTA"
2432.30 "6407_2-1"  98.2200 "Sandstone" "Shale"   -999.25  25.0000 75.00000      0.0 "f/m"     "f/m"     "Distal_ 'shelf'_ deposits._ Deep_ water_ (?probably_ restricted_ basin)"                                                              "DISTAL_ BASIN_ OFFSHORE/PRODELTA"
2432.40 "6407_2-1"  99.1500 "Sandstone" "Shale"   -999.25  25.0000 75.00000      0.0 "f/m"     "f/m"     "Distal_ 'shelf'_ deposits._ Deep_ water_ (?probably_ restricted_ basin)"                                                              "DISTAL_ BASIN_ OFFSHORE/PRODELTA"
2432.50 "6407_2-1"  99.3400 "Sandstone" "Shale"   -999.25  25.0000 75.00000      0.0 "f/m"     "f/m"     "Distal_ 'shelf'_ deposits._ Deep_ water_ (?probably_ restricted_ basin)"                                                              "DISTAL_ BASIN_ OFFSHORE/PRODELTA"
2432.60 "6407_2-1"  99.5300 "Sandstone" "Shale"   -999.25  25.0000 75.00000      0.0 "f/m"     "f/m"     "Distal_ 'shelf'_ deposits._ Deep_ water_ (?probably_ restricted_ basin)"                                                              "DISTAL_ BASIN_ OFFSHORE/PRODELTA"
2432.70 "6407_2-1"  99.7200 "Sandstone" "Shale"   -999.25  25.0000 75.00000      0.0 "f/m"     "f/m"     "Distal_ 'shelf'_ deposits._ Deep_ water_ (?probably_ restricted_ basin)"                                                              "DISTAL_ BASIN_ OFFSHORE/PRODELTA"
2432.80 "6407_2-1"  96.7100 "Sandstone" "Shale"   -999.25  25.0000 75.00000      0.0 "f/m"     "f/m"     "Distal_ 'shelf'_ deposits._ Deep_ water_ (?probably_ restricted_ basin)"                                                              "DISTAL_ BASIN_ OFFSHORE/PRODELTA"
2432.90 "6407_2-1"  94.6400 "Sandstone" "Shale"   -999.25  25.0000 75.00000      0.0 "f/m"     "f/m"     "Distal_ 'shelf'_ deposits._ Deep_ water_ (?probably_ restricted_ basin)"                                                              "DISTAL_ BASIN_ OFFSHORE/PRODELTA"
2433.00 "6407_2-1"  94.5400 "Sandstone" "Shale"   -999.25  25.0000 75.00000      0.0 "f/m"     "f/m"     "Distal_ 'shelf'_ deposits._ Deep_ water_ (?probably_ restricted_ basin)"                                                              "DISTAL_ BASIN_ OFFSHORE/PRODELTA"
2433.10 "6407_2-1"  94.4500 "Sandstone" "Shale"   -999.25  25.0000 75.00000      0.0 "f/m"     "f/m"     "Distal_ 'shelf'_ deposits._ Deep_ water_ (?probably_ restricted_ basin)"                                                              "DISTAL_ BASIN_ OFFSHORE/PRODELTA"
2433.20 "6407_2-1"  94.0300 "Sandstone" "Shale"   -999.25  25.0000 75.00000      0.0 "f/m"     "f/m"     "Distal_ 'shelf'_ deposits._ Deep_ water_ (?probably_ restricted_ basin)"                                                              "DISTAL_ BASIN_ OFFSHORE/PRODELTA"
2433.30 "6407_2-1"  92.5200 "Sandstone" "Shale"   -999.25  25.0000 75.00000      0.0 "f/m"     "f/m"     "Distal_ 'shelf'_ deposits._ Deep_ water_ (?probably_ restricted_ basin)"                                                              "DISTAL_ BASIN_ OFFSHORE/PRODELTA"
2433.40 "6407_2-1"  91.0200 "Sandstone" "Shale"   -999.25  25.0000 75.00000      0.0 "f/m"     "f/m"     "Distal_ 'shelf'_ deposits._ Deep_ water_ (?probably_ restricted_ basin)"                                                              "DISTAL_ BASIN_ OFFSHORE/PRODELTA"
2433.50 "6407_2-1"  89.5100 "Sandstone" "Shale"   -999.25  25.0000 75.00000      0.0 "f/m"     "f/m"     "Distal_ 'shelf'_ deposits._ Deep_ water_ (?probably_ restricted_ basin)"                                                              "DISTAL_ BASIN_ OFFSHORE/PRODELTA"
2433.60 "6407_2-1"  88.0100 "Sandstone" "Shale"   -999.25  25.0000 75.00000      0.0 "f/m"     "f/m"     "Distal_ 'shelf'_ deposits._ Deep_ water_ (?probably_ restricted_ basin)"                                                              "DISTAL_ BASIN_ OFFSHORE/PRODELTA"
2433.70 "6407_2-1"  87.8300 "Sandstone" "Shale"   -999.25  25.0000 75.00000      0.0 "f/m"     "f/m"     "Distal_ 'shelf'_ deposits._ Deep_ water_ (?probably_ restricted_ basin)"                                                              "DISTAL_ BASIN_ OFFSHORE/PRODELTA"
2433.80 "6407_2-1"  90.9400 "Sandstone" "Shale"   -999.25  25.0000 75.00000      0.0 "f/m"     "f/m"     "Distal_ 'shelf'_ deposits._ Deep_ water_ (?probably_ restricted_ basin)"                                                              "DISTAL_ BASIN_ OFFSHORE/PRODELTA"
2433.90 "6407_2-1"  94.2700 "Sandstone" "Shale"   -999.25  25.0000 75.00000      0.0 "f/m"     "f/m"     "Distal_ 'shelf'_ deposits._ Deep_ water_ (?probably_ restricted_ basin)"                                                              "DISTAL_ BASIN_ OFFSHORE/PRODELTA"
2434.00 "6407_2-1"  98.2100 "Sandstone" "Shale"   -999.25  25.0000 75.00000      0.0 "f/m"     "f/m"     "Distal_ 'shelf'_ deposits._ Deep_ water_ (?probably_ restricted_ basin)"                                                              "DISTAL_ BASIN_ OFFSHORE/PRODELTA"
2434.10 "6407_2-1" 102.1100 "Sandstone" "Shale"   -999.25  25.0000 75.00000      0.0 "f/m"     "f/m"     "Distal_ 'shelf'_ deposits._ Deep_ water_ (?probably_ restricted_ basin)"                                                              "DISTAL_ BASIN_ OFFSHORE/PRODELTA"
2434.20 "6407_2-1" 105.0800 "Sandstone" -999.25   -999.25 100.0000      0.0      0.0 "vf/f"    "vf"      "Distal_ 'shelf'_ deposits._ Deep_ water_ (?probably_ restricted_ basin)"                                                              "DISTAL_ BASIN_ OFFSHORE/PRODELTA"
2434.30 "6407_2-1" 105.2600 "Sandstone" -999.25   -999.25 100.0000      0.0      0.0 "vf/f"    "vf"      "Distal_ 'shelf'_ deposits._ Deep_ water_ (?probably_ restricted_ basin)"                                                              "DISTAL_ BASIN_ OFFSHORE/PRODELTA"
2434.40 "6407_2-1"  -999.25 -999.25   -999.25   -999.25  -999.25  -999.25  -999.25 -999.25   -999.25   -999.25                                                                                                                                -999.25                         
2434.50 "6407_2-1"  -999.25 -999.25   -999.25   -999.25  -999.25  -999.25  -999.25 -999.25   -999.25   -999.25                                                                                                                                -999.25                         
2434.60 "6407_2-1"  -999.25 -999.25   -999.25   -999.25  -999.25  -999.25  -999.25 -999.25   -999.25   -999.25                                                                                                                                -999.25                         
2434.70 "6407_2-1"  -999.25 -999.25   -999.25   -999.25  -999.25  -999.25  -999.25 -999.25   -999.25   -999.25                                                                                                                                -999.25                         
2434.80 "6407_2-1"  -999.25 -999.25   -999.25   -999.25  -999.25  -999.25  -999.25 -999.25   -999.25   -999.25                                                                                                                                -999.25                         
2434.90 "6407_2-1"  -999.25 -999.25   -999.25   -999.25  -999.25  -999.25  -999.25 -999.25   -999.25   -999.25                                                                                                                                -999.25                         
