~Version
VERS  .                                 3.0 : CWLS LAS ASCII Standard - Version 3.0
WRAP  . NO                                  : One line per depth step
DLM   . SPACE                               : Column data section delimiter
SOURCE. Converted to LAS by Log Studio 4.76 : GeoProvider

~Well
STRT.        2417.00 : Start depth
STOP.        3497.00 : Stop depth
STEP.              1 : Step
NULL.        -999.25 : No-value
COMP.                : Company
WELL. 6407/2-1       : Well
FLD .                : Field
LOC .                : Location
LATI.                : Latitude
LONG.                : Longitude
GDAT.                : Geodetic datum
CNTY.                : County
STAT.                : State
CTRY.                : Country
SRVC. GeoProvider AS : Service company
DATE.                : Date
API .                : API number
RUN .                : Run number

~Parameters
WellboreName.  : Wellbore name
RigName     .  : Rig name
StartDate   .  : Start date

~Curves
DEPTH.m            .  : null {F}Depth mMD
Hole_ID.-          .  : null {S}Hole ID
GR.API             .  : null {F}Gamma Ray
Lithology1.-       .  : null {S}Lithology 1
Lithology2.-       .  : null {S}Lithology 2
Lithology3.-       .  : null {S}Lithology 3
Lithology1.%       .  : null {F}Lithology 1 percentage
Lithology2.%       .  : null {F}Lithology 2 percentage
Lithology3.%       .  : null {F}Lithology 3 percentage
Grain_size_Top.-   .  : null {S}Grain size at the top 
Grain_size_Base.-  .  : null {S}Grain size at the bottom
Sub_Environment.-  .  : null {S}Sub Environment
Gross_Environment.-.  : null {S}Gross Environment

~Ascii
# ...
2956.80 "6407_2-1"  69.6800 "Sandstone" -999.25   -999.25 100.0000      0.0      0.0 "m/c"     "m/c"     "Strongly_ fluvial_ influenced_ foreshore_ and_ upper_ shoreface_ sediments._ _ _ _ _ _ _ Some_ tidal_ influence_ in_ the_ lower_ part." "PROXIMAL_ DELTA_ FRONT"        
2956.90 "6407_2-1"  67.6000 "Sandstone" -999.25   -999.25 100.0000      0.0      0.0 "m/c"     "m/c"     "Strongly_ fluvial_ influenced_ foreshore_ and_ upper_ shoreface_ sediments._ _ _ _ _ _ _ Some_ tidal_ influence_ in_ the_ lower_ part." "PROXIMAL_ DELTA_ FRONT"        
2957.00 "6407_2-1"  65.7400 "Sandstone" -999.25   -999.25 100.0000      0.0      0.0 "m/c"     "m/c"     "Strongly_ fluvial_ influenced_ foreshore_ and_ upper_ shoreface_ sediments._ _ _ _ _ _ _ Some_ tidal_ influence_ in_ the_ lower_ part." "PROXIMAL_ DELTA_ FRONT"        
2957.10 "6407_2-1"  66.1100 "Sandstone" -999.25   -999.25 100.0000      0.0      0.0 "m/c"     "m/c"     "Strongly_ fluvial_ influenced_ foreshore_ and_ upper_ shoreface_ sediments._ _ _ _ _ _ _ Some_ tidal_ influence_ in_ the_ lower_ part." "PROXIMAL_ DELTA_ FRONT"        
2957.20 "6407_2-1"  66.4800 "Sandstone" -999.25   -999.25 100.0000      0.0      0.0 "m/c"     "m/c"     "Strongly_ fluvial_ influenced_ foreshore_ and_ upper_ shoreface_ sediments._ _ _ _ _ _ _ Some_ tidal_ influence_ in_ the_ lower_ part." "PROXIMAL_ DELTA_ FRONT"        
2957.30 "6407_2-1"  66.8500 "Sandstone" -999.25   -999.25 100.0000      0.0      0.0 "m/c"     "m/c"     "Strongly_ fluvial_ influenced_ foreshore_ and_ upper_ shoreface_ sediments._ _ _ _ _ _ _ Some_ tidal_ influence_ in_ the_ lower_ part." "PROXIMAL_ DELTA_ FRONT"        
2957.40 "6407_2-1"  67.1300 "Sandstone" -999.25   -999.25 100.0000      0.0      0.0 "m/c"     "m/c"     "Strongly_ fluvial_ influenced_ foreshore_ and_ upper_ shoreface_ sediments._ _ _ _ _ _ _ Some_ tidal_ influence_ in_ the_ lower_ part." "PROXIMAL_ DELTA_ FRONT"        
2957.50 "6407_2-1"  67.1300 "Sandstone" -999.25   -999.25 100.0000      0.0      0.0 "m/c"     "m/c"     "Strongly_ fluvial_ influenced_ foreshore_ and_ upper_ shoreface_ sediments._ _ _ _ _ _ _ Some_ tidal_ influence_ in_ the_ lower_ part." "PROXIMAL_ DELTA_ FRONT"        
2957.60 "6407_2-1"  67.1300 "Sandstone" -999.25   -999.25 100.0000      0.0      0.0 "m/c"     "m/c"     "Strongly_ fluvial_ influenced_ foreshore_ and_ upper_ shoreface_ sediments._ _ _ _ _ _ _ Some_ tidal_ influence_ in_ the_ lower_ part." "PROXIMAL_ DELTA_ FRONT"        
2957.70 "6407_2-1"  -999.25 -999.25   -999.25   -999.25  -999.25  -999.25  -999.25 -999.25   -999.25   "Strongly_ fluvial_ influenced_ foreshore_ and_ upper_ shoreface_ sediments._ _ _ _ _ _ _ Some_ tidal_ influence_ in_ the_ lower_ part." "PROXIMAL_ DELTA_ FRONT"        
2957.80 "6407_2-1"  -999.25 -999.25   -999.25   -999.25  -999.25  -999.25  -999.25 -999.25   -999.25   -999.25                                                                                                                                -999.25                         
2957.90 "6407_2-1"  -999.25 -999.25   -999.25   -999.25  -999.25  -999.25  -999.25 -999.25   -999.25   -999.25                                                                                                                                -999.25                         
2958.00 "6407_2-1"  -999.25 -999.25   -999.25   -999.25  -999.25  -999.25  -999.25 -999.25   -999.25   -999.25                                                                                                                                -999.25                         
2958.10 "6407_2-1"  -999.25 -999.25   -999.25   -999.25  -999.25  -999.25  -999.25 -999.25   -999.25   -999.25                                                                                                                                -999.25                         
2958.20 "6407_2-1"  -999.25 -999.25   -999.25   -999.25  -999.25  -999.25  -999.25 -999.25   -999.25   -999.25                                                                                                                                -999.25                         
2958.30 "6407_2-1"  -999.25 -999.25   -999.25   -999.25  -999.25  -999.25  -999.25 -999.25   -999.25   -999.25                                                                                                                                -999.25                         
2958.40 "6407_2-1"  -999.25 -999.25   -999.25   -999.25  -999.25  -999.25  -999.25 -999.25   -999.25   -999.25                                                                                                                                -999.25                         
2958.50 "6407_2-1"  -999.25 -999.25   -999.25   -999.25  -999.25  -999.25  -999.25 -999.25   -999.25   -999.25                                                                                                                                -999.25                         
2958.60 "6407_2-1"  -999.25 -999.25   -999.25   -999.25  -999.25  -999.25  -999.25 -999.25   -999.25   -999.25                                                                                                                                -999.25                         
2958.70 "6407_2-1"  -999.25 -999.25   -999.25   -999.25  -999.25  -999.25  -999.25 -999.25   -999.25   -999.25                                                                                                                                -999.25                         
2958.80 "6407_2-1"  -999.25 -999.25   -999.25   -999.25  -999.25  -999.25  -999.25 -999.25   -999.25   -999.25                                                                                                                                -999.25                         
2958.90 "6407_2-1"  -999.25 -999.25   -999.25   -999.25  -999.25  -999.25  -999.25 -999.25   -999.25   -999.25                                                                                                                                -999.25                         
2959.00 "6407_2-1"  -999.25 -999.25   -999.25   -999.25  -999.25  -999.25  -999.25 -999.25   -999.25   -999.25                                                                                                                                -999.25                         
2959.10 "6407_2-1"  -999.25 -999.25   -999.25   -999.25  -999.25  -999.25  -999.25 -999.25   -999.25   -999.25                                                                                                                                -999.25                         
2959.20 "6407_2-1"  -999.25 -999.25   -999.25   -999.25  -999.25  -999.25  -999.25 -999.25   -999.25   -999.25                                                                                                                                -999.25                         
2959.30 "6407_2-1"  -999.25 -999.25   -999.25   -999.25  -999.25  -999.25  -999.25 -999.25   -999.25   -999.25                                                                                                                                -999.25                         
2959.40 "6407_2-1"  -999.25 -999.25   -999.25   -999.25  -999.25  -999.25  -999.25 -999.25   -999.25   -999.25                                                                                                                                -999.25                         
2959.50 "6407_2-1"  -999.25 -999.25   -999.25   -999.25  -999.25  -999.25  -999.25 -999.25   -999.25   -999.25                                                                                                                                -999.25                         
2959.60 "6407_2-1"  -999.25 -999.25   -999.25   -999.25  -999.25  -999.25  -999.25 -999.25   -999.25   -999.25                                                                                                                                -999.25                         
2959.70 "6407_2-1"  -999.25 -999.25   -999.25   -999.25  -999.25  -999.25  -999.25 -999.25   -999.25   -999.25                                                                                                                                -999.25                         
