~Version
VERS  .                                 3.0 : CWLS LAS ASCII Standard - Version 3.0
WRAP  . NO                                  : One line per depth step
DLM   . SPACE                               : Column data section delimiter
SOURCE. Converted to LAS by Log Studio 4.76 : GeoProvider

~Well
STRT.        2417.00 : Start depth
STOP.        3497.00 : Stop depth
STEP.              1 : Step
NULL.        -999.25 : No-value
COMP.                : Company
WELL. 6407/2-1       : Well
FLD .                : Field
LOC .                : Location
LATI.                : Latitude
LONG.                : Longitude
GDAT.                : Geodetic datum
CNTY.                : County
STAT.                : State
CTRY.                : Country
SRVC. GeoProvider AS : Service company
DATE.                : Date
API .                : API number
RUN .                : Run number

~Parameters
WellboreName.  : Wellbore name
RigName     .  : Rig name
StartDate   .  : Start date

~Curves
DEPTH.m            .  : null {F}Depth mMD
Hole_ID.-          .  : null {S}Hole ID
GR.API             .  : null {F}Gamma Ray
Lithology1.-       .  : null {S}Lithology 1
Lithology2.-       .  : null {S}Lithology 2
Lithology3.-       .  : null {S}Lithology 3
Lithology1.%       .  : null {F}Lithology 1 percentage
Lithology2.%       .  : null {F}Lithology 2 percentage
Lithology3.%       .  : null {F}Lithology 3 percentage
Grain_size_Top.-   .  : null {S}Grain size at the top 
Grain_size_Base.-  .  : null {S}Grain size at the bottom
Sub_Environment.-  .  : null {S}Sub Environment
Gross_Environment.-.  : null {S}Gross Environment

~Ascii
# ...
2948.00 "6407_2-1"  64.0600 "Sandstone" "Claystone" -999.25  83.0000 17.00000      0.0 "m/c"     "c"       "Strongly_ fluvial_ influenced_ foreshore_ and_ upper_ shoreface_ sediments._ _ _ _ _ _ _ Some_ tidal_ influence_ in_ the_ lower_ part." "PROXIMAL_ DELTA_ FRONT"        
2948.10 "6407_2-1"  64.5800 "Sandstone" "Claystone" -999.25  83.0000 17.00000      0.0 "m/c"     "c"       "Strongly_ fluvial_ influenced_ foreshore_ and_ upper_ shoreface_ sediments._ _ _ _ _ _ _ Some_ tidal_ influence_ in_ the_ lower_ part." "PROXIMAL_ DELTA_ FRONT"        
2948.20 "6407_2-1"  67.2600 "Sandstone" "Claystone" -999.25  83.0000 17.00000      0.0 "m/c"     "c"       "Strongly_ fluvial_ influenced_ foreshore_ and_ upper_ shoreface_ sediments._ _ _ _ _ _ _ Some_ tidal_ influence_ in_ the_ lower_ part." "PROXIMAL_ DELTA_ FRONT"        
2948.30 "6407_2-1"  72.5200 "Sandstone" "Claystone" -999.25  83.0000 17.00000      0.0 "m/c"     "c"       "Strongly_ fluvial_ influenced_ foreshore_ and_ upper_ shoreface_ sediments._ _ _ _ _ _ _ Some_ tidal_ influence_ in_ the_ lower_ part." "PROXIMAL_ DELTA_ FRONT"        
2948.40 "6407_2-1"  77.9300 "Sandstone" "Claystone" -999.25  83.0000 17.00000      0.0 "m/c"     "c"       "Strongly_ fluvial_ influenced_ foreshore_ and_ upper_ shoreface_ sediments._ _ _ _ _ _ _ Some_ tidal_ influence_ in_ the_ lower_ part." "PROXIMAL_ DELTA_ FRONT"        
2948.50 "6407_2-1"  83.6000 "Sandstone" "Claystone" -999.25  83.0000 17.00000      0.0 "m/c"     "c"       "Strongly_ fluvial_ influenced_ foreshore_ and_ upper_ shoreface_ sediments._ _ _ _ _ _ _ Some_ tidal_ influence_ in_ the_ lower_ part." "PROXIMAL_ DELTA_ FRONT"        
2948.60 "6407_2-1"  87.2500 "Sandstone" "Claystone" -999.25  83.0000 17.00000      0.0 "m/c"     "c"       "Strongly_ fluvial_ influenced_ foreshore_ and_ upper_ shoreface_ sediments._ _ _ _ _ _ _ Some_ tidal_ influence_ in_ the_ lower_ part." "PROXIMAL_ DELTA_ FRONT"        
2948.70 "6407_2-1"  84.7800 "Sandstone" "Claystone" -999.25  83.0000 17.00000      0.0 "m/c"     "c"       "Strongly_ fluvial_ influenced_ foreshore_ and_ upper_ shoreface_ sediments._ _ _ _ _ _ _ Some_ tidal_ influence_ in_ the_ lower_ part." "PROXIMAL_ DELTA_ FRONT"        
2948.80 "6407_2-1"  82.3200 "Sandstone" "Claystone" -999.25  83.0000 17.00000      0.0 "m/c"     "c"       "Strongly_ fluvial_ influenced_ foreshore_ and_ upper_ shoreface_ sediments._ _ _ _ _ _ _ Some_ tidal_ influence_ in_ the_ lower_ part." "PROXIMAL_ DELTA_ FRONT"        
2948.90 "6407_2-1"  79.8500 "Sandstone" "Claystone" -999.25  83.0000 17.00000      0.0 "m/c"     "c"       "Strongly_ fluvial_ influenced_ foreshore_ and_ upper_ shoreface_ sediments._ _ _ _ _ _ _ Some_ tidal_ influence_ in_ the_ lower_ part." "PROXIMAL_ DELTA_ FRONT"        
2949.00 "6407_2-1"  77.3800 "Sandstone" "Claystone" -999.25  83.0000 17.00000      0.0 "m/c"     "c"       "Strongly_ fluvial_ influenced_ foreshore_ and_ upper_ shoreface_ sediments._ _ _ _ _ _ _ Some_ tidal_ influence_ in_ the_ lower_ part." "PROXIMAL_ DELTA_ FRONT"        
2949.10 "6407_2-1"  74.9100 "Sandstone" "Claystone" -999.25  83.0000 17.00000      0.0 "m/c"     "c"       "Strongly_ fluvial_ influenced_ foreshore_ and_ upper_ shoreface_ sediments._ _ _ _ _ _ _ Some_ tidal_ influence_ in_ the_ lower_ part." "PROXIMAL_ DELTA_ FRONT"        
2949.20 "6407_2-1"  72.4400 "Sandstone" "Claystone" -999.25  83.0000 17.00000      0.0 "m/c"     "c"       "Strongly_ fluvial_ influenced_ foreshore_ and_ upper_ shoreface_ sediments._ _ _ _ _ _ _ Some_ tidal_ influence_ in_ the_ lower_ part." "PROXIMAL_ DELTA_ FRONT"        
2949.30 "6407_2-1"  69.9700 "Sandstone" "Claystone" -999.25  83.0000 17.00000      0.0 "m/c"     "c"       "Strongly_ fluvial_ influenced_ foreshore_ and_ upper_ shoreface_ sediments._ _ _ _ _ _ _ Some_ tidal_ influence_ in_ the_ lower_ part." "PROXIMAL_ DELTA_ FRONT"        
2949.40 "6407_2-1"  70.0400 "Sandstone" "Claystone" -999.25  83.0000 17.00000      0.0 "m/c"     "c"       "Strongly_ fluvial_ influenced_ foreshore_ and_ upper_ shoreface_ sediments._ _ _ _ _ _ _ Some_ tidal_ influence_ in_ the_ lower_ part." "PROXIMAL_ DELTA_ FRONT"        
2949.50 "6407_2-1"  70.4500 "Sandstone" "Claystone" -999.25  83.0000 17.00000      0.0 "m/c"     "c"       "Strongly_ fluvial_ influenced_ foreshore_ and_ upper_ shoreface_ sediments._ _ _ _ _ _ _ Some_ tidal_ influence_ in_ the_ lower_ part." "PROXIMAL_ DELTA_ FRONT"        
2949.60 "6407_2-1"  70.3000 "Sandstone" "Claystone" -999.25  83.0000 17.00000      0.0 "m/c"     "c"       "Strongly_ fluvial_ influenced_ foreshore_ and_ upper_ shoreface_ sediments._ _ _ _ _ _ _ Some_ tidal_ influence_ in_ the_ lower_ part." "PROXIMAL_ DELTA_ FRONT"        
2949.70 "6407_2-1"  70.0000 "Sandstone" "Claystone" -999.25  83.0000 17.00000      0.0 "m/c"     "c"       "Strongly_ fluvial_ influenced_ foreshore_ and_ upper_ shoreface_ sediments._ _ _ _ _ _ _ Some_ tidal_ influence_ in_ the_ lower_ part." "PROXIMAL_ DELTA_ FRONT"        
2949.80 "6407_2-1"  69.6900 "Sandstone" "Claystone" -999.25  83.0000 17.00000      0.0 "m/c"     "c"       "Strongly_ fluvial_ influenced_ foreshore_ and_ upper_ shoreface_ sediments._ _ _ _ _ _ _ Some_ tidal_ influence_ in_ the_ lower_ part." "PROXIMAL_ DELTA_ FRONT"        
2949.90 "6407_2-1"  72.1800 "Sandstone" "Claystone" -999.25  83.0000 17.00000      0.0 "m/c"     "c"       "Strongly_ fluvial_ influenced_ foreshore_ and_ upper_ shoreface_ sediments._ _ _ _ _ _ _ Some_ tidal_ influence_ in_ the_ lower_ part." "PROXIMAL_ DELTA_ FRONT"        
2950.00 "6407_2-1"  74.7300 "Sandstone" "Claystone" -999.25  83.0000 17.00000      0.0 "m/c"     "c"       "Strongly_ fluvial_ influenced_ foreshore_ and_ upper_ shoreface_ sediments._ _ _ _ _ _ _ Some_ tidal_ influence_ in_ the_ lower_ part." "PROXIMAL_ DELTA_ FRONT"        
2950.10 "6407_2-1"  77.2900 "Sandstone" "Claystone" -999.25  83.0000 17.00000      0.0 "m/c"     "c"       "Strongly_ fluvial_ influenced_ foreshore_ and_ upper_ shoreface_ sediments._ _ _ _ _ _ _ Some_ tidal_ influence_ in_ the_ lower_ part." "PROXIMAL_ DELTA_ FRONT"        
2950.20 "6407_2-1"  79.8400 "Sandstone" "Claystone" -999.25  83.0000 17.00000      0.0 "m/c"     "c"       "Strongly_ fluvial_ influenced_ foreshore_ and_ upper_ shoreface_ sediments._ _ _ _ _ _ _ Some_ tidal_ influence_ in_ the_ lower_ part." "PROXIMAL_ DELTA_ FRONT"        
2950.30 "6407_2-1"  80.9700 "Sandstone" "Claystone" -999.25  83.0000 17.00000      0.0 "m/c"     "c"       "Strongly_ fluvial_ influenced_ foreshore_ and_ upper_ shoreface_ sediments._ _ _ _ _ _ _ Some_ tidal_ influence_ in_ the_ lower_ part." "PROXIMAL_ DELTA_ FRONT"        
2950.40 "6407_2-1"  80.1000 "Sandstone" "Claystone" -999.25  83.0000 17.00000      0.0 "m/c"     "c"       "Strongly_ fluvial_ influenced_ foreshore_ and_ upper_ shoreface_ sediments._ _ _ _ _ _ _ Some_ tidal_ influence_ in_ the_ lower_ part." "PROXIMAL_ DELTA_ FRONT"        
2950.50 "6407_2-1"  79.2300 "Sandstone" "Claystone" -999.25  83.0000 17.00000      0.0 "m/c"     "c"       "Strongly_ fluvial_ influenced_ foreshore_ and_ upper_ shoreface_ sediments._ _ _ _ _ _ _ Some_ tidal_ influence_ in_ the_ lower_ part." "PROXIMAL_ DELTA_ FRONT"        
2950.60 "6407_2-1"  78.3700 "Sandstone" "Claystone" -999.25  83.0000 17.00000      0.0 "m/c"     "c"       "Strongly_ fluvial_ influenced_ foreshore_ and_ upper_ shoreface_ sediments._ _ _ _ _ _ _ Some_ tidal_ influence_ in_ the_ lower_ part." "PROXIMAL_ DELTA_ FRONT"        
2950.70 "6407_2-1"  77.5000 "Sandstone" "Claystone" -999.25  83.0000 17.00000      0.0 "m/c"     "c"       "Strongly_ fluvial_ influenced_ foreshore_ and_ upper_ shoreface_ sediments._ _ _ _ _ _ _ Some_ tidal_ influence_ in_ the_ lower_ part." "PROXIMAL_ DELTA_ FRONT"        
2950.80 "6407_2-1"  77.3300 "Sandstone" "Claystone" -999.25  83.0000 17.00000      0.0 "m/c"     "c"       "Strongly_ fluvial_ influenced_ foreshore_ and_ upper_ shoreface_ sediments._ _ _ _ _ _ _ Some_ tidal_ influence_ in_ the_ lower_ part." "PROXIMAL_ DELTA_ FRONT"        
