~Version
VERS  .                                 3.0 : CWLS LAS ASCII Standard - Version 3.0
WRAP  . NO                                  : One line per depth step
DLM   . SPACE                               : Column data section delimiter
SOURCE. Converted to LAS by Log Studio 4.76 : GeoProvider

~Well
STRT.        2417.00 : Start depth
STOP.        3497.00 : Stop depth
STEP.              1 : Step
NULL.        -999.25 : No-value
COMP.                : Company
WELL. 6407/2-1       : Well
FLD .                : Field
LOC .                : Location
LATI.                : Latitude
LONG.                : Longitude
GDAT.                : Geodetic datum
CNTY.                : County
STAT.                : State
CTRY.                : Country
SRVC. GeoProvider AS : Service company
DATE.                : Date
API .                : API number
RUN .                : Run number

~Parameters
WellboreName.  : Wellbore name
RigName     .  : Rig name
StartDate   .  : Start date

~Curves
DEPTH.m            .  : null {F}Depth mMD
Hole_ID.-          .  : null {S}Hole ID
GR.API             .  : null {F}Gamma Ray
Lithology1.-       .  : null {S}Lithology 1
Lithology2.-       .  : null {S}Lithology 2
Lithology3.-       .  : null {S}Lithology 3
Lithology1.%       .  : null {F}Lithology 1 percentage
Lithology2.%       .  : null {F}Lithology 2 percentage
Lithology3.%       .  : null {F}Lithology 3 percentage
Grain_size_Top.-   .  : null {S}Grain size at the top 
Grain_size_Base.-  .  : null {S}Grain size at the bottom
Sub_Environment.-  .  : null {S}Sub Environment
Gross_Environment.-.  : null {S}Gross Environment

~Ascii
# ...
2426.00 "6407_2-1"  93.4100 "Sandstone" "Shale"   -999.25   5.0000 95.00000      0.0 "silt"    "silt"    "Distal_ 'shelf'_ deposits._ Deep_ water_ (?probably_ restricted_ basin)"                                                              "DISTAL_ BASIN_ OFFSHORE/PRODELTA"
2426.10 "6407_2-1"  94.2200 "Sandstone" "Shale"   -999.25   5.0000 95.00000      0.0 "silt"    "silt"    "Distal_ 'shelf'_ deposits._ Deep_ water_ (?probably_ restricted_ basin)"                                                              "DISTAL_ BASIN_ OFFSHORE/PRODELTA"
2426.20 "6407_2-1"  97.2100 "Sandstone" "Shale"   -999.25   5.0000 95.00000      0.0 "silt"    "silt"    "Distal_ 'shelf'_ deposits._ Deep_ water_ (?probably_ restricted_ basin)"                                                              "DISTAL_ BASIN_ OFFSHORE/PRODELTA"
2426.30 "6407_2-1"  97.4600 "Sandstone" "Shale"   -999.25   5.0000 95.00000      0.0 "silt"    "silt"    "Distal_ 'shelf'_ deposits._ Deep_ water_ (?probably_ restricted_ basin)"                                                              "DISTAL_ BASIN_ OFFSHORE/PRODELTA"
2426.40 "6407_2-1"  97.4200 "Sandstone" "Shale"   -999.25   5.0000 95.00000      0.0 "silt"    "silt"    "Distal_ 'shelf'_ deposits._ Deep_ water_ (?probably_ restricted_ basin)"                                                              "DISTAL_ BASIN_ OFFSHORE/PRODELTA"
2426.50 "6407_2-1"  97.3800 "Sandstone" "Shale"   -999.25   5.0000 95.00000      0.0 "silt"    "silt"    "Distal_ 'shelf'_ deposits._ Deep_ water_ (?probably_ restricted_ basin)"                                                              "DISTAL_ BASIN_ OFFSHORE/PRODELTA"
2426.60 "6407_2-1"  97.4400 "Sandstone" "Shale"   -999.25   5.0000 95.00000      0.0 "silt"    "silt"    "Distal_ 'shelf'_ deposits._ Deep_ water_ (?probably_ restricted_ basin)"                                                              "DISTAL_ BASIN_ OFFSHORE/PRODELTA"
2426.70 "6407_2-1"  98.9400 "Sandstone" "Shale"   -999.25   5.0000 95.00000      0.0 "silt"    "silt"    "Distal_ 'shelf'_ deposits._ Deep_ water_ (?probably_ restricted_ basin)"                                                              "DISTAL_ BASIN_ OFFSHORE/PRODELTA"
2426.80 "6407_2-1" 100.4400 "Sandstone" "Shale"   -999.25   5.0000 95.00000      0.0 "silt"    "silt"    "Distal_ 'shelf'_ deposits._ Deep_ water_ (?probably_ restricted_ basin)"                                                              "DISTAL_ BASIN_ OFFSHORE/PRODELTA"
2426.90 "6407_2-1" 100.8000 "Sandstone" "Shale"   -999.25   5.0000 95.00000      0.0 "silt"    "silt"    "Distal_ 'shelf'_ deposits._ Deep_ water_ (?probably_ restricted_ basin)"                                                              "DISTAL_ BASIN_ OFFSHORE/PRODELTA"
2427.00 "6407_2-1" 100.6200 "Sandstone" "Shale"   -999.25   5.0000 95.00000      0.0 "silt"    "silt"    "Distal_ 'shelf'_ deposits._ Deep_ water_ (?probably_ restricted_ basin)"                                                              "DISTAL_ BASIN_ OFFSHORE/PRODELTA"
2427.10 "6407_2-1" 100.3900 "Sandstone" "Shale"   -999.25   5.0000 95.00000      0.0 "silt"    "silt"    "Distal_ 'shelf'_ deposits._ Deep_ water_ (?probably_ restricted_ basin)"                                                              "DISTAL_ BASIN_ OFFSHORE/PRODELTA"
2427.20 "6407_2-1"  99.7800 "Sandstone" "Shale"   -999.25   5.0000 95.00000      0.0 "silt"    "silt"    "Distal_ 'shelf'_ deposits._ Deep_ water_ (?probably_ restricted_ basin)"                                                              "DISTAL_ BASIN_ OFFSHORE/PRODELTA"
2427.30 "6407_2-1"  99.1600 "Sandstone" "Shale"   -999.25   5.0000 95.00000      0.0 "silt"    "silt"    "Distal_ 'shelf'_ deposits._ Deep_ water_ (?probably_ restricted_ basin)"                                                              "DISTAL_ BASIN_ OFFSHORE/PRODELTA"
2427.40 "6407_2-1"  98.5500 "Sandstone" "Shale"   -999.25   5.0000 95.00000      0.0 "silt"    "silt"    "Distal_ 'shelf'_ deposits._ Deep_ water_ (?probably_ restricted_ basin)"                                                              "DISTAL_ BASIN_ OFFSHORE/PRODELTA"
2427.50 "6407_2-1"  97.9300 "Sandstone" "Shale"   -999.25   5.0000 95.00000      0.0 "silt"    "silt"    "Distal_ 'shelf'_ deposits._ Deep_ water_ (?probably_ restricted_ basin)"                                                              "DISTAL_ BASIN_ OFFSHORE/PRODELTA"
2427.60 "6407_2-1"  97.3200 "Sandstone" "Shale"   -999.25   5.0000 95.00000      0.0 "silt"    "silt"    "Distal_ 'shelf'_ deposits._ Deep_ water_ (?probably_ restricted_ basin)"                                                              "DISTAL_ BASIN_ OFFSHORE/PRODELTA"
2427.70 "6407_2-1"  96.7000 "Sandstone" "Shale"   -999.25   5.0000 95.00000      0.0 "silt"    "silt"    "Distal_ 'shelf'_ deposits._ Deep_ water_ (?probably_ restricted_ basin)"                                                              "DISTAL_ BASIN_ OFFSHORE/PRODELTA"
2427.80 "6407_2-1"  96.0900 "Sandstone" "Shale"   -999.25   5.0000 95.00000      0.0 "silt"    "silt"    "Distal_ 'shelf'_ deposits._ Deep_ water_ (?probably_ restricted_ basin)"                                                              "DISTAL_ BASIN_ OFFSHORE/PRODELTA"
2427.90 "6407_2-1"  96.4300 "Sandstone" "Shale"   -999.25   5.0000 95.00000      0.0 "silt"    "silt"    "Distal_ 'shelf'_ deposits._ Deep_ water_ (?probably_ restricted_ basin)"                                                              "DISTAL_ BASIN_ OFFSHORE/PRODELTA"
2428.00 "6407_2-1"  97.3300 "Sandstone" "Shale"   -999.25   5.0000 95.00000      0.0 "silt"    "silt"    "Distal_ 'shelf'_ deposits._ Deep_ water_ (?probably_ restricted_ basin)"                                                              "DISTAL_ BASIN_ OFFSHORE/PRODELTA"
2428.10 "6407_2-1" 104.0400 "Sandstone" "Shale"   -999.25   5.0000 95.00000      0.0 "silt"    "silt"    "Distal_ 'shelf'_ deposits._ Deep_ water_ (?probably_ restricted_ basin)"                                                              "DISTAL_ BASIN_ OFFSHORE/PRODELTA"
2428.20 "6407_2-1" 104.0400 "Sandstone" "Shale"   -999.25   5.0000 95.00000      0.0 "silt"    "silt"    "Distal_ 'shelf'_ deposits._ Deep_ water_ (?probably_ restricted_ basin)"                                                              "DISTAL_ BASIN_ OFFSHORE/PRODELTA"
2428.30 "6407_2-1" 103.8300 "Sandstone" "Shale"   -999.25   5.0000 95.00000      0.0 "silt"    "silt"    "Distal_ 'shelf'_ deposits._ Deep_ water_ (?probably_ restricted_ basin)"                                                              "DISTAL_ BASIN_ OFFSHORE/PRODELTA"
2428.40 "6407_2-1" 102.9300 "Sandstone" "Shale"   -999.25   5.0000 95.00000      0.0 "silt"    "silt"    "Distal_ 'shelf'_ deposits._ Deep_ water_ (?probably_ restricted_ basin)"                                                              "DISTAL_ BASIN_ OFFSHORE/PRODELTA"
2428.50 "6407_2-1" 102.4900 "Sandstone" -999.25   -999.25 100.0000      0.0      0.0 "silt/vf" "silt/vf" "Distal_ 'shelf'_ deposits._ Deep_ water_ (?probably_ restricted_ basin)"                                                              "DISTAL_ BASIN_ OFFSHORE/PRODELTA"
2428.60 "6407_2-1" 102.8000 "Sandstone" -999.25   -999.25 100.0000      0.0      0.0 "silt/vf" "silt/vf" "Distal_ 'shelf'_ deposits._ Deep_ water_ (?probably_ restricted_ basin)"                                                              "DISTAL_ BASIN_ OFFSHORE/PRODELTA"
2428.70 "6407_2-1" 103.1500 "Sandstone" -999.25   -999.25 100.0000      0.0      0.0 "silt/vf" "silt/vf" "Distal_ 'shelf'_ deposits._ Deep_ water_ (?probably_ restricted_ basin)"                                                              "DISTAL_ BASIN_ OFFSHORE/PRODELTA"
2428.80 "6407_2-1" 103.5100 "Sandstone" "Shale"   -999.25  25.0000 75.00000      0.0 "f/m"     "f/m"     "Distal_ 'shelf'_ deposits._ Deep_ water_ (?probably_ restricted_ basin)"                                                              "DISTAL_ BASIN_ OFFSHORE/PRODELTA"
2428.90 "6407_2-1" 103.8700 "Sandstone" "Shale"   -999.25  25.0000 75.00000      0.0 "f/m"     "f/m"     "Distal_ 'shelf'_ deposits._ Deep_ water_ (?probably_ restricted_ basin)"                                                              "DISTAL_ BASIN_ OFFSHORE/PRODELTA"
