~Version
VERS  .                                 3.0 : CWLS LAS ASCII Standard - Version 3.0
WRAP  . NO                                  : One line per depth step
DLM   . SPACE                               : Column data section delimiter
SOURCE. Converted to LAS by Log Studio 4.76 : GeoProvider

~Well
STRT.        2417.00 : Start depth
STOP.        3497.00 : Stop depth
STEP.              1 : Step
NULL.        -999.25 : No-value
COMP.                : Company
WELL. 6407/2-1       : Well
FLD .                : Field
LOC .                : Location
LATI.                : Latitude
LONG.                : Longitude
GDAT.                : Geodetic datum
CNTY.                : County
STAT.                : State
CTRY.                : Country
SRVC. GeoProvider AS : Service company
DATE.                : Date
API .                : API number
RUN .                : Run number

~Parameters
WellboreName.  : Wellbore name
RigName     .  : Rig name
StartDate   .  : Start date

~Curves
DEPTH.m            .  : null {F}Depth mMD
Hole_ID.-          .  : null {S}Hole ID
GR.API             .  : null {F}Gamma Ray
Lithology1.-       .  : null {S}Lithology 1
Lithology2.-       .  : null {S}Lithology 2
Lithology3.-       .  : null {S}Lithology 3
Lithology1.%       .  : null {F}Lithology 1 percentage
Lithology2.%       .  : null {F}Lithology 2 percentage
Lithology3.%       .  : null {F}Lithology 3 percentage
Grain_size_Top.-   .  : null {S}Grain size at the top 
Grain_size_Base.-  .  : null {S}Grain size at the bottom
Sub_Environment.-  .  : null {S}Sub Environment
Gross_Environment.-.  : null {S}Gross Environment

~Ascii
# ...
3478.90 "6407_2-1" 106.6800 "Coal"    -999.25   -999.25 100.0000      0.0      0.0 "silt/vf" "silt/vf" "Mainly_ overbank_ deposits_ on_ lower_ delta_ plain_ _ _ _ _ _ _ _ _ _ _ _ _ _ _ (some_ tidal_ influence)"                            "UPPER_ DELTA_ PLAIN"           
3479.00 "6407_2-1" 105.6100 "Coal"    -999.25   -999.25 100.0000      0.0      0.0 "silt/vf" "silt/vf" "Mainly_ overbank_ deposits_ on_ lower_ delta_ plain_ _ _ _ _ _ _ _ _ _ _ _ _ _ _ (some_ tidal_ influence)"                            "UPPER_ DELTA_ PLAIN"           
3479.10 "6407_2-1" 102.8300 "Sandstone" "Coal"    -999.25  40.0000 60.00000      0.0 "vf/f"    "vf"      "Mainly_ overbank_ deposits_ on_ lower_ delta_ plain_ _ _ _ _ _ _ _ _ _ _ _ _ _ _ (some_ tidal_ influence)"                            "UPPER_ DELTA_ PLAIN"           
3479.20 "6407_2-1" 101.6400 "Sandstone" "Coal"    -999.25  40.0000 60.00000      0.0 "vf/f"    "vf"      "Mainly_ overbank_ deposits_ on_ lower_ delta_ plain_ _ _ _ _ _ _ _ _ _ _ _ _ _ _ (some_ tidal_ influence)"                            "UPPER_ DELTA_ PLAIN"           
3479.30 "6407_2-1" 101.9500 "Sandstone" "Coal"    -999.25  40.0000 60.00000      0.0 "vf/f"    "vf"      "Mainly_ overbank_ deposits_ on_ lower_ delta_ plain_ _ _ _ _ _ _ _ _ _ _ _ _ _ _ (some_ tidal_ influence)"                            "UPPER_ DELTA_ PLAIN"           
3479.40 "6407_2-1" 102.9800 "Sandstone" "Coal"    -999.25  40.0000 60.00000      0.0 "vf/f"    "vf"      "Mainly_ overbank_ deposits_ on_ lower_ delta_ plain_ _ _ _ _ _ _ _ _ _ _ _ _ _ _ (some_ tidal_ influence)"                            "UPPER_ DELTA_ PLAIN"           
3479.50 "6407_2-1" 104.0100 "Sandstone" "Coal"    -999.25  40.0000 60.00000      0.0 "vf/f"    "vf"      "Mainly_ overbank_ deposits_ on_ lower_ delta_ plain_ _ _ _ _ _ _ _ _ _ _ _ _ _ _ (some_ tidal_ influence)"                            "UPPER_ DELTA_ PLAIN"           
3479.60 "6407_2-1" 105.0500 "Sandstone" -999.25   -999.25 100.0000      0.0      0.0 "vf"      "vf"      "Mainly_ overbank_ deposits_ on_ lower_ delta_ plain_ _ _ _ _ _ _ _ _ _ _ _ _ _ _ (some_ tidal_ influence)"                            "UPPER_ DELTA_ PLAIN"           
3479.70 "6407_2-1" 105.9900 "Sandstone" -999.25   -999.25 100.0000      0.0      0.0 "vf"      "vf"      "Mainly_ overbank_ deposits_ on_ lower_ delta_ plain_ _ _ _ _ _ _ _ _ _ _ _ _ _ _ (some_ tidal_ influence)"                            "UPPER_ DELTA_ PLAIN"           
3479.80 "6407_2-1" 105.4400 "Sandstone" -999.25   -999.25 100.0000      0.0      0.0 "vf"      "vf"      "Mainly_ overbank_ deposits_ on_ lower_ delta_ plain_ _ _ _ _ _ _ _ _ _ _ _ _ _ _ (some_ tidal_ influence)"                            "UPPER_ DELTA_ PLAIN"           
3479.90 "6407_2-1" 104.8900 "Coal"    -999.25   -999.25 100.0000      0.0      0.0 "silt/vf" "silt/vf" "Mainly_ overbank_ deposits_ on_ lower_ delta_ plain_ _ _ _ _ _ _ _ _ _ _ _ _ _ _ (some_ tidal_ influence)"                            "UPPER_ DELTA_ PLAIN"           
3480.00 "6407_2-1" 104.3400 "Coal"    -999.25   -999.25 100.0000      0.0      0.0 "silt/vf" "silt/vf" "Mainly_ overbank_ deposits_ on_ lower_ delta_ plain_ _ _ _ _ _ _ _ _ _ _ _ _ _ _ (some_ tidal_ influence)"                            "UPPER_ DELTA_ PLAIN"           
3480.10 "6407_2-1" 103.7900 "Coal"    -999.25   -999.25 100.0000      0.0      0.0 "silt/vf" "silt/vf" "Mainly_ overbank_ deposits_ on_ lower_ delta_ plain_ _ _ _ _ _ _ _ _ _ _ _ _ _ _ (some_ tidal_ influence)"                            "UPPER_ DELTA_ PLAIN"           
3480.20 "6407_2-1" 103.2400 "Coal"    -999.25   -999.25 100.0000      0.0      0.0 "silt/vf" "silt/vf" "Mainly_ overbank_ deposits_ on_ lower_ delta_ plain_ _ _ _ _ _ _ _ _ _ _ _ _ _ _ (some_ tidal_ influence)"                            "UPPER_ DELTA_ PLAIN"           
3480.30 "6407_2-1"  96.3100 "Coal"    -999.25   -999.25 100.0000      0.0      0.0 "silt/vf" "silt/vf" "Mainly_ overbank_ deposits_ on_ lower_ delta_ plain_ _ _ _ _ _ _ _ _ _ _ _ _ _ _ (some_ tidal_ influence)"                            "UPPER_ DELTA_ PLAIN"           
3480.40 "6407_2-1"  95.8100 "Sandstone" "Coal"    -999.25   5.0000 95.00000      0.0 "silt/vf" "silt/vf" "Mainly_ overbank_ deposits_ on_ lower_ delta_ plain_ _ _ _ _ _ _ _ _ _ _ _ _ _ _ (some_ tidal_ influence)"                            "UPPER_ DELTA_ PLAIN"           
3480.50 "6407_2-1"  95.3100 "Sandstone" "Coal"    -999.25   5.0000 95.00000      0.0 "silt/vf" "silt/vf" "Mainly_ overbank_ deposits_ on_ lower_ delta_ plain_ _ _ _ _ _ _ _ _ _ _ _ _ _ _ (some_ tidal_ influence)"                            "UPPER_ DELTA_ PLAIN"           
3480.60 "6407_2-1"  95.2700 "Sandstone" "Coal"    -999.25   5.0000 95.00000      0.0 "silt/vf" "silt/vf" "Mainly_ overbank_ deposits_ on_ lower_ delta_ plain_ _ _ _ _ _ _ _ _ _ _ _ _ _ _ (some_ tidal_ influence)"                            "UPPER_ DELTA_ PLAIN"           
3480.70 "6407_2-1"  97.7900 "Sandstone" "Coal"    -999.25   5.0000 95.00000      0.0 "silt/vf" "silt/vf" "Mainly_ overbank_ deposits_ on_ lower_ delta_ plain_ _ _ _ _ _ _ _ _ _ _ _ _ _ _ (some_ tidal_ influence)"                            "UPPER_ DELTA_ PLAIN"           
3480.80 "6407_2-1" 100.3100 "Sandstone" "Coal"    -999.25   5.0000 95.00000      0.0 "silt/vf" "silt/vf" "Mainly_ overbank_ deposits_ on_ lower_ delta_ plain_ _ _ _ _ _ _ _ _ _ _ _ _ _ _ (some_ tidal_ influence)"                            "UPPER_ DELTA_ PLAIN"           
3480.90 "6407_2-1" 102.6900 "Sandstone" "Coal"    -999.25   5.0000 95.00000      0.0 "silt/vf" "silt/vf" "Mainly_ overbank_ deposits_ on_ lower_ delta_ plain_ _ _ _ _ _ _ _ _ _ _ _ _ _ _ (some_ tidal_ influence)"                            "UPPER_ DELTA_ PLAIN"           
3481.00 "6407_2-1" 104.9900 "Sandstone" "Coal"    -999.25   5.0000 95.00000      0.0 "silt/vf" "silt/vf" "Mainly_ overbank_ deposits_ on_ lower_ delta_ plain_ _ _ _ _ _ _ _ _ _ _ _ _ _ _ (some_ tidal_ influence)"                            "UPPER_ DELTA_ PLAIN"           
3481.10 "6407_2-1" 107.2800 "Sandstone" "Coal"    -999.25   5.0000 95.00000      0.0 "silt/vf" "silt/vf" "Mainly_ overbank_ deposits_ on_ lower_ delta_ plain_ _ _ _ _ _ _ _ _ _ _ _ _ _ _ (some_ tidal_ influence)"                            "UPPER_ DELTA_ PLAIN"           
3481.20 "6407_2-1" 109.5800 "Sandstone" "Coal"    -999.25   5.0000 95.00000      0.0 "silt/vf" "silt/vf" "Mainly_ overbank_ deposits_ on_ lower_ delta_ plain_ _ _ _ _ _ _ _ _ _ _ _ _ _ _ (some_ tidal_ influence)"                            "UPPER_ DELTA_ PLAIN"           
3481.30 "6407_2-1" 111.0100 "Sandstone" "Coal"    -999.25   5.0000 95.00000      0.0 "silt/vf" "silt/vf" "Mainly_ overbank_ deposits_ on_ lower_ delta_ plain_ _ _ _ _ _ _ _ _ _ _ _ _ _ _ (some_ tidal_ influence)"                            "UPPER_ DELTA_ PLAIN"           
3481.40 "6407_2-1" 112.2000 "Sandstone" "Coal"    -999.25   5.0000 95.00000      0.0 "silt/vf" "silt/vf" "Mainly_ overbank_ deposits_ on_ lower_ delta_ plain_ _ _ _ _ _ _ _ _ _ _ _ _ _ _ (some_ tidal_ influence)"                            "UPPER_ DELTA_ PLAIN"           
3481.50 "6407_2-1" 113.3900 "Sandstone" "Coal"    -999.25   5.0000 95.00000      0.0 "silt/vf" "silt/vf" "Mainly_ overbank_ deposits_ on_ lower_ delta_ plain_ _ _ _ _ _ _ _ _ _ _ _ _ _ _ (some_ tidal_ influence)"                            "UPPER_ DELTA_ PLAIN"           
3481.60 "6407_2-1" 114.5800 "Sandstone" "Coal"    -999.25   5.0000 95.00000      0.0 "silt/vf" "silt/vf" "Mainly_ overbank_ deposits_ on_ lower_ delta_ plain_ _ _ _ _ _ _ _ _ _ _ _ _ _ _ (some_ tidal_ influence)"                            "UPPER_ DELTA_ PLAIN"           
3481.70 "6407_2-1" 115.7800 "Sandstone" "Coal"    -999.25   5.0000 95.00000      0.0 "silt/vf" "silt/vf" "Mainly_ overbank_ deposits_ on_ lower_ delta_ plain_ _ _ _ _ _ _ _ _ _ _ _ _ _ _ (some_ tidal_ influence)"                            "UPPER_ DELTA_ PLAIN"           
3481.80 "6407_2-1" 116.9700 "Sandstone" "Coal"    -999.25   5.0000 95.00000      0.0 "silt/vf" "silt/vf" "Mainly_ overbank_ deposits_ on_ lower_ delta_ plain_ _ _ _ _ _ _ _ _ _ _ _ _ _ _ (some_ tidal_ influence)"                            "UPPER_ DELTA_ PLAIN"           
