~Version
VERS  .                                 3.0 : CWLS LAS ASCII Standard - Version 3.0
WRAP  . NO                                  : One line per depth step
DLM   . SPACE                               : Column data section delimiter
SOURCE. Converted to LAS by Log Studio 4.76 : GeoProvider

~Well
STRT.        2417.00 : Start depth
STOP.        3497.00 : Stop depth
STEP.              1 : Step
NULL.        -999.25 : No-value
COMP.                : Company
WELL. 6407/2-1       : Well
FLD .                : Field
LOC .                : Location
LATI.                : Latitude
LONG.                : Longitude
GDAT.                : Geodetic datum
CNTY.                : County
STAT.                : State
CTRY.                : Country
SRVC. GeoProvider AS : Service company
DATE.                : Date
API .                : API number
RUN .                : Run number

~Parameters
WellboreName.  : Wellbore name
RigName     .  : Rig name
StartDate   .  : Start date

~Curves
DEPTH.m            .  : null {F}Depth mMD
Hole_ID.-          .  : null {S}Hole ID
GR.API             .  : null {F}Gamma Ray
Lithology1.-       .  : null {S}Lithology 1
Lithology2.-       .  : null {S}Lithology 2
Lithology3.-       .  : null {S}Lithology 3
Lithology1.%       .  : null {F}Lithology 1 percentage
Lithology2.%       .  : null {F}Lithology 2 percentage
Lithology3.%       .  : null {F}Lithology 3 percentage
Grain_size_Top.-   .  : null {S}Grain size at the top 
Grain_size_Base.-  .  : null {S}Grain size at the bottom
Sub_Environment.-  .  : null {S}Sub Environment
Gross_Environment.-.  : null {S}Gross Environment

~Ascii
# ...
3484.90 "6407_2-1" 100.7300 "Sandstone" "Coal"    -999.25   5.0000 95.00000      0.0 "silt/vf" "silt/vf" "Mainly_ overbank_ deposits_ on_ lower_ delta_ plain_ _ _ _ _ _ _ _ _ _ _ _ _ _ _ (some_ tidal_ influence)"                            "UPPER_ DELTA_ PLAIN"           
3485.00 "6407_2-1"  98.0600 "Sandstone" "Coal"    -999.25   5.0000 95.00000      0.0 "silt/vf" "silt/vf" "Mainly_ overbank_ deposits_ on_ lower_ delta_ plain_ _ _ _ _ _ _ _ _ _ _ _ _ _ _ (some_ tidal_ influence)"                            "UPPER_ DELTA_ PLAIN"           
3485.10 "6407_2-1"  96.3300 "Sandstone" "Coal"    -999.25   5.0000 95.00000      0.0 "silt/vf" "silt/vf" "Mainly_ overbank_ deposits_ on_ lower_ delta_ plain_ _ _ _ _ _ _ _ _ _ _ _ _ _ _ (some_ tidal_ influence)"                            "UPPER_ DELTA_ PLAIN"           
3485.20 "6407_2-1"  98.5500 "Sandstone" "Coal"    -999.25   5.0000 95.00000      0.0 "silt/vf" "silt/vf" "Mainly_ overbank_ deposits_ on_ lower_ delta_ plain_ _ _ _ _ _ _ _ _ _ _ _ _ _ _ (some_ tidal_ influence)"                            "UPPER_ DELTA_ PLAIN"           
3485.30 "6407_2-1" 100.7300 "Sandstone" "Coal"    -999.25   5.0000 95.00000      0.0 "silt/vf" "silt/vf" "Mainly_ overbank_ deposits_ on_ lower_ delta_ plain_ _ _ _ _ _ _ _ _ _ _ _ _ _ _ (some_ tidal_ influence)"                            "UPPER_ DELTA_ PLAIN"           
3485.40 "6407_2-1" 102.1800 "Sandstone" "Coal"    -999.25   5.0000 95.00000      0.0 "silt/vf" "silt/vf" "Mainly_ overbank_ deposits_ on_ lower_ delta_ plain_ _ _ _ _ _ _ _ _ _ _ _ _ _ _ (some_ tidal_ influence)"                            "UPPER_ DELTA_ PLAIN"           
3485.50 "6407_2-1" 103.6400 "Sandstone" "Coal"    -999.25   5.0000 95.00000      0.0 "silt/vf" "silt/vf" "Mainly_ overbank_ deposits_ on_ lower_ delta_ plain_ _ _ _ _ _ _ _ _ _ _ _ _ _ _ (some_ tidal_ influence)"                            "UPPER_ DELTA_ PLAIN"           
3485.60 "6407_2-1" 105.0400 "Sandstone" "Coal"    -999.25   5.0000 95.00000      0.0 "silt/vf" "silt/vf" "Mainly_ overbank_ deposits_ on_ lower_ delta_ plain_ _ _ _ _ _ _ _ _ _ _ _ _ _ _ (some_ tidal_ influence)"                            "UPPER_ DELTA_ PLAIN"           
3485.70 "6407_2-1" 106.3900 "Sandstone" "Coal"    -999.25  93.0000  7.00000      0.0 "f/m"     "f/m"     "Mainly_ overbank_ deposits_ on_ lower_ delta_ plain_ _ _ _ _ _ _ _ _ _ _ _ _ _ _ (some_ tidal_ influence)"                            "UPPER_ DELTA_ PLAIN"           
3485.80 "6407_2-1" 107.7500 "Sandstone" "Coal"    -999.25  93.0000  7.00000      0.0 "f/m"     "f/m"     "Mainly_ overbank_ deposits_ on_ lower_ delta_ plain_ _ _ _ _ _ _ _ _ _ _ _ _ _ _ (some_ tidal_ influence)"                            "UPPER_ DELTA_ PLAIN"           
3485.90 "6407_2-1" 109.1000 "Sandstone" "Coal"    -999.25   3.0000 97.00000      0.0 "silt/vf" "silt/vf" "Mainly_ overbank_ deposits_ on_ lower_ delta_ plain_ _ _ _ _ _ _ _ _ _ _ _ _ _ _ (some_ tidal_ influence)"                            "UPPER_ DELTA_ PLAIN"           
3486.00 "6407_2-1" 112.6200 "Sandstone" "Coal"    -999.25   3.0000 97.00000      0.0 "silt/vf" "silt/vf" "Mainly_ overbank_ deposits_ on_ lower_ delta_ plain_ _ _ _ _ _ _ _ _ _ _ _ _ _ _ (some_ tidal_ influence)"                            "UPPER_ DELTA_ PLAIN"           
3486.10 "6407_2-1" 121.5600 "Sandstone" "Coal"    -999.25   3.0000 97.00000      0.0 "silt/vf" "silt/vf" "Mainly_ overbank_ deposits_ on_ lower_ delta_ plain_ _ _ _ _ _ _ _ _ _ _ _ _ _ _ (some_ tidal_ influence)"                            "UPPER_ DELTA_ PLAIN"           
3486.20 "6407_2-1" 124.4000 "Sandstone" "Coal"    -999.25   3.0000 97.00000      0.0 "silt/vf" "silt/vf" "Mainly_ overbank_ deposits_ on_ lower_ delta_ plain_ _ _ _ _ _ _ _ _ _ _ _ _ _ _ (some_ tidal_ influence)"                            "UPPER_ DELTA_ PLAIN"           
3486.30 "6407_2-1" 127.2400 "Sandstone" "Coal"    -999.25   3.0000 97.00000      0.0 "silt/vf" "silt/vf" "Mainly_ overbank_ deposits_ on_ lower_ delta_ plain_ _ _ _ _ _ _ _ _ _ _ _ _ _ _ (some_ tidal_ influence)"                            "UPPER_ DELTA_ PLAIN"           
3486.40 "6407_2-1" 129.9600 "Sandstone" "Coal"    -999.25   3.0000 97.00000      0.0 "silt/vf" "silt/vf" "Mainly_ overbank_ deposits_ on_ lower_ delta_ plain_ _ _ _ _ _ _ _ _ _ _ _ _ _ _ (some_ tidal_ influence)"                            "UPPER_ DELTA_ PLAIN"           
3486.50 "6407_2-1" 129.7700 "Sandstone" "Coal"    -999.25   3.0000 97.00000      0.0 "silt/vf" "silt/vf" "Mainly_ overbank_ deposits_ on_ lower_ delta_ plain_ _ _ _ _ _ _ _ _ _ _ _ _ _ _ (some_ tidal_ influence)"                            "UPPER_ DELTA_ PLAIN"           
3486.60 "6407_2-1" 129.5900 "Sandstone" "Coal"    -999.25   3.0000 97.00000      0.0 "silt/vf" "silt/vf" "Mainly_ overbank_ deposits_ on_ lower_ delta_ plain_ _ _ _ _ _ _ _ _ _ _ _ _ _ _ (some_ tidal_ influence)"                            "UPPER_ DELTA_ PLAIN"           
3486.70 "6407_2-1" 129.4100 "Sandstone" "Coal"    -999.25   3.0000 97.00000      0.0 "silt/vf" "silt/vf" "Mainly_ overbank_ deposits_ on_ lower_ delta_ plain_ _ _ _ _ _ _ _ _ _ _ _ _ _ _ (some_ tidal_ influence)"                            "UPPER_ DELTA_ PLAIN"           
3486.80 "6407_2-1" 129.2200 "Sandstone" "Coal"    -999.25   3.0000 97.00000      0.0 "silt/vf" "silt/vf" "Mainly_ overbank_ deposits_ on_ lower_ delta_ plain_ _ _ _ _ _ _ _ _ _ _ _ _ _ _ (some_ tidal_ influence)"                            "UPPER_ DELTA_ PLAIN"           
3486.90 "6407_2-1" 129.0400 "Sandstone" "Coal"    -999.25   3.0000 97.00000      0.0 "silt/vf" "silt/vf" "Mainly_ overbank_ deposits_ on_ lower_ delta_ plain_ _ _ _ _ _ _ _ _ _ _ _ _ _ _ (some_ tidal_ influence)"                            "UPPER_ DELTA_ PLAIN"           
3487.00 "6407_2-1" 126.7200 "Sandstone" "Coal"    -999.25   3.0000 97.00000      0.0 "silt/vf" "silt/vf" "Mainly_ overbank_ deposits_ on_ lower_ delta_ plain_ _ _ _ _ _ _ _ _ _ _ _ _ _ _ (some_ tidal_ influence)"                            "UPPER_ DELTA_ PLAIN"           
3487.10 "6407_2-1" 122.4800 "Sandstone" "Coal"    -999.25   3.0000 97.00000      0.0 "silt/vf" "silt/vf" "Mainly_ overbank_ deposits_ on_ lower_ delta_ plain_ _ _ _ _ _ _ _ _ _ _ _ _ _ _ (some_ tidal_ influence)"                            "UPPER_ DELTA_ PLAIN"           
3487.20 "6407_2-1" 118.2400 "Sandstone" "Coal"    -999.25   3.0000 97.00000      0.0 "silt/vf" "silt/vf" "Mainly_ overbank_ deposits_ on_ lower_ delta_ plain_ _ _ _ _ _ _ _ _ _ _ _ _ _ _ (some_ tidal_ influence)"                            "UPPER_ DELTA_ PLAIN"           
3487.30 "6407_2-1"  92.3300 "Sandstone" "Coal"    -999.25   3.0000 97.00000      0.0 "silt/vf" "silt/vf" "Mainly_ overbank_ deposits_ on_ lower_ delta_ plain_ _ _ _ _ _ _ _ _ _ _ _ _ _ _ (some_ tidal_ influence)"                            "UPPER_ DELTA_ PLAIN"           
3487.40 "6407_2-1"  88.2800 "Sandstone" "Coal"    -999.25   3.0000 97.00000      0.0 "silt/vf" "silt/vf" "Mainly_ overbank_ deposits_ on_ lower_ delta_ plain_ _ _ _ _ _ _ _ _ _ _ _ _ _ _ (some_ tidal_ influence)"                            "UPPER_ DELTA_ PLAIN"           
3487.50 "6407_2-1"  84.2300 "Sandstone" "Coal"    -999.25   3.0000 97.00000      0.0 "silt/vf" "silt/vf" "Mainly_ overbank_ deposits_ on_ lower_ delta_ plain_ _ _ _ _ _ _ _ _ _ _ _ _ _ _ (some_ tidal_ influence)"                            "UPPER_ DELTA_ PLAIN"           
3487.60 "6407_2-1"  80.1800 "Sandstone" "Coal"    -999.25   3.0000 97.00000      0.0 "silt/vf" "silt/vf" "Mainly_ overbank_ deposits_ on_ lower_ delta_ plain_ _ _ _ _ _ _ _ _ _ _ _ _ _ _ (some_ tidal_ influence)"                            "UPPER_ DELTA_ PLAIN"           
3487.70 "6407_2-1"  76.1300 "Sandstone" "Coal"    -999.25   3.0000 97.00000      0.0 "silt/vf" "silt/vf" "Mainly_ overbank_ deposits_ on_ lower_ delta_ plain_ _ _ _ _ _ _ _ _ _ _ _ _ _ _ (some_ tidal_ influence)"                            "UPPER_ DELTA_ PLAIN"           
3487.80 "6407_2-1"  75.2900 "Sandstone" "Coal"    -999.25   3.0000 97.00000      0.0 "silt/vf" "silt/vf" "Mainly_ overbank_ deposits_ on_ lower_ delta_ plain_ _ _ _ _ _ _ _ _ _ _ _ _ _ _ (some_ tidal_ influence)"                            "UPPER_ DELTA_ PLAIN"           
