~Version
VERS  .                                 3.0 : CWLS LAS ASCII Standard - Version 3.0
WRAP  . NO                                  : One line per depth step
DLM   . SPACE                               : Column data section delimiter
SOURCE. Converted to LAS by Log Studio 4.76 : GeoProvider

~Well
STRT.        2417.00 : Start depth
STOP.        3497.00 : Stop depth
STEP.              1 : Step
NULL.        -999.25 : No-value
COMP.                : Company
WELL. 6407/2-1       : Well
FLD .                : Field
LOC .                : Location
LATI.                : Latitude
LONG.                : Longitude
GDAT.                : Geodetic datum
CNTY.                : County
STAT.                : State
CTRY.                : Country
SRVC. GeoProvider AS : Service company
DATE.                : Date
API .                : API number
RUN .                : Run number

~Parameters
WellboreName.  : Wellbore name
RigName     .  : Rig name
StartDate   .  : Start date

~Curves
DEPTH.m            .  : null {F}Depth mMD
Hole_ID.-          .  : null {S}Hole ID
GR.API             .  : null {F}Gamma Ray
Lithology1.-       .  : null {S}Lithology 1
Lithology2.-       .  : null {S}Lithology 2
Lithology3.-       .  : null {S}Lithology 3
Lithology1.%       .  : null {F}Lithology 1 percentage
Lithology2.%       .  : null {F}Lithology 2 percentage
Lithology3.%       .  : null {F}Lithology 3 percentage
Grain_size_Top.-   .  : null {S}Grain size at the top 
Grain_size_Base.-  .  : null {S}Grain size at the bottom
Sub_Environment.-  .  : null {S}Sub Environment
Gross_Environment.-.  : null {S}Gross Environment

~Ascii
# ...
3487.90 "6407_2-1"  78.0700 "Sandstone" "Coal"    -999.25   3.0000 97.00000      0.0 "silt/vf" "silt/vf" "Crevasse_ splay"                                                                                                                      "UPPER_ DELTA_ PLAIN"           
3488.00 "6407_2-1"  82.8900 "Sandstone" -999.25   -999.25 100.0000      0.0      0.0 "m"       "m/c"     "Crevasse_ splay"                                                                                                                      "UPPER_ DELTA_ PLAIN"           
3488.10 "6407_2-1"  88.3100 "Sandstone" -999.25   -999.25 100.0000      0.0      0.0 "m"       "m/c"     "Crevasse_ splay"                                                                                                                      "UPPER_ DELTA_ PLAIN"           
3488.20 "6407_2-1"  93.7300 "Sandstone" -999.25   -999.25 100.0000      0.0      0.0 "m"       "m/c"     "Crevasse_ splay"                                                                                                                      "UPPER_ DELTA_ PLAIN"           
3488.30 "6407_2-1"  99.1500 "Sandstone" -999.25   -999.25 100.0000      0.0      0.0 "m"       "m/c"     "Crevasse_ splay"                                                                                                                      "UPPER_ DELTA_ PLAIN"           
3488.40 "6407_2-1" 104.1300 "Sandstone" -999.25   -999.25 100.0000      0.0      0.0 "m"       "m/c"     "Crevasse_ splay"                                                                                                                      "UPPER_ DELTA_ PLAIN"           
3488.50 "6407_2-1" 105.4200 "Sandstone" -999.25   -999.25 100.0000      0.0      0.0 "m"       "m/c"     "Crevasse_ splay"                                                                                                                      "UPPER_ DELTA_ PLAIN"           
3488.60 "6407_2-1" 106.7000 "Sandstone" -999.25   -999.25 100.0000      0.0      0.0 "m"       "m/c"     "Crevasse_ splay"                                                                                                                      "UPPER_ DELTA_ PLAIN"           
3488.70 "6407_2-1" 107.9900 "Sandstone" -999.25   -999.25 100.0000      0.0      0.0 "m"       "m/c"     "Crevasse_ splay"                                                                                                                      "UPPER_ DELTA_ PLAIN"           
3488.80 "6407_2-1" 109.2700 "Sandstone" -999.25   -999.25 100.0000      0.0      0.0 "m"       "m/c"     "Crevasse_ splay"                                                                                                                      "UPPER_ DELTA_ PLAIN"           
3488.90 "6407_2-1" 110.5500 "Sandstone" -999.25   -999.25 100.0000      0.0      0.0 "m"       "m/c"     "Crevasse_ splay"                                                                                                                      "UPPER_ DELTA_ PLAIN"           
3489.00 "6407_2-1" 113.0700 "Sandstone" -999.25   -999.25 100.0000      0.0      0.0 "m"       "m/c"     "Crevasse_ splay"                                                                                                                      "UPPER_ DELTA_ PLAIN"           
3489.10 "6407_2-1" 116.4300 "Sandstone" "Coal"    -999.25  20.0000 80.00000      0.0 "silt/vf" "silt/vf" "Crevasse_ splay"                                                                                                                      "UPPER_ DELTA_ PLAIN"           
3489.20 "6407_2-1" 119.8000 "Sandstone" "Coal"    -999.25  20.0000 80.00000      0.0 "silt/vf" "silt/vf" "Crevasse_ splay"                                                                                                                      "UPPER_ DELTA_ PLAIN"           
3489.30 "6407_2-1" 123.1600 "Sandstone" "Coal"    -999.25  20.0000 80.00000      0.0 "silt/vf" "silt/vf" "Overbank_ deposit_ on_ lower_ delta_ plain"                                                                                           "UPPER_ DELTA_ PLAIN"           
3489.40 "6407_2-1" 126.5200 "Sandstone" "Coal"    -999.25  20.0000 80.00000      0.0 "silt/vf" "silt/vf" "Overbank_ deposit_ on_ lower_ delta_ plain"                                                                                           "UPPER_ DELTA_ PLAIN"           
3489.50 "6407_2-1" 129.6300 "Sandstone" "Coal"    -999.25  20.0000 80.00000      0.0 "silt/vf" "silt/vf" "Overbank_ deposit_ on_ lower_ delta_ plain"                                                                                           "UPPER_ DELTA_ PLAIN"           
3489.60 "6407_2-1" 129.6300 "Sandstone" "Coal"    -999.25  20.0000 80.00000      0.0 "silt/vf" "silt/vf" "Overbank_ deposit_ on_ lower_ delta_ plain"                                                                                           "UPPER_ DELTA_ PLAIN"           
3489.70 "6407_2-1" 129.6300 "Sandstone" "Coal"    -999.25  20.0000 80.00000      0.0 "silt/vf" "silt/vf" "Overbank_ deposit_ on_ lower_ delta_ plain"                                                                                           "UPPER_ DELTA_ PLAIN"           
3489.80 "6407_2-1" 127.5300 "Sandstone" "Coal"    -999.25  20.0000 80.00000      0.0 "silt/vf" "silt/vf" "Overbank_ deposit_ on_ lower_ delta_ plain"                                                                                           "UPPER_ DELTA_ PLAIN"           
3489.90 "6407_2-1" 125.7100 "Sandstone" "Coal"    -999.25  20.0000 80.00000      0.0 "silt/vf" "silt/vf" "Overbank_ deposit_ on_ lower_ delta_ plain"                                                                                           "UPPER_ DELTA_ PLAIN"           
3490.00 "6407_2-1" 124.9100 "Sandstone" "Coal"    -999.25  20.0000 80.00000      0.0 "silt/vf" "silt/vf" "Overbank_ deposit_ on_ lower_ delta_ plain"                                                                                           "UPPER_ DELTA_ PLAIN"           
3490.10 "6407_2-1" 124.7500 "Sandstone" "Coal"    -999.25  20.0000 80.00000      0.0 "silt/vf" "silt/vf" "Overbank_ deposit_ on_ lower_ delta_ plain"                                                                                           "UPPER_ DELTA_ PLAIN"           
3490.20 "6407_2-1" 125.0600 "Sandstone" "Coal"    -999.25  20.0000 80.00000      0.0 "silt/vf" "silt/vf" "Overbank_ deposit_ on_ lower_ delta_ plain"                                                                                           "UPPER_ DELTA_ PLAIN"           
3490.30 "6407_2-1" 125.8800 "Sandstone" -999.25   -999.25 100.0000      0.0      0.0 "f/m"     "f/m"     "Overbank_ deposit_ on_ lower_ delta_ plain"                                                                                           "UPPER_ DELTA_ PLAIN"           
3490.40 "6407_2-1" 127.3100 "Sandstone" -999.25   -999.25 100.0000      0.0      0.0 "f/m"     "f/m"     "Overbank_ deposit_ on_ lower_ delta_ plain"                                                                                           "UPPER_ DELTA_ PLAIN"           
3490.50 "6407_2-1" 128.4900 "Sandstone" "Coal"    -999.25   5.0000 95.00000      0.0 "silt/vf" "silt/vf" "Overbank_ deposit_ on_ lower_ delta_ plain"                                                                                           "UPPER_ DELTA_ PLAIN"           
3490.60 "6407_2-1" 129.1500 "Sandstone" "Coal"    -999.25   5.0000 95.00000      0.0 "silt/vf" "silt/vf" "Overbank_ deposit_ on_ lower_ delta_ plain"                                                                                           "UPPER_ DELTA_ PLAIN"           
3490.70 "6407_2-1" 129.8200 "Sandstone" "Coal"    -999.25   5.0000 95.00000      0.0 "silt/vf" "silt/vf" "Overbank_ deposit_ on_ lower_ delta_ plain"                                                                                           "UPPER_ DELTA_ PLAIN"           
3490.80 "6407_2-1" 129.7400 "Sandstone" "Coal"    -999.25   5.0000 95.00000      0.0 "silt/vf" "silt/vf" "Overbank_ deposit_ on_ lower_ delta_ plain"                                                                                           "UPPER_ DELTA_ PLAIN"           
