~Version
VERS  .                                 3.0 : CWLS LAS ASCII Standard - Version 3.0
WRAP  . NO                                  : One line per depth step
DLM   . SPACE                               : Column data section delimiter
SOURCE. Converted to LAS by Log Studio 4.76 : GeoProvider

~Well
STRT.        2417.00 : Start depth
STOP.        3497.00 : Stop depth
STEP.              1 : Step
NULL.        -999.25 : No-value
COMP.                : Company
WELL. 6407/2-1       : Well
FLD .                : Field
LOC .                : Location
LATI.                : Latitude
LONG.                : Longitude
GDAT.                : Geodetic datum
CNTY.                : County
STAT.                : State
CTRY.                : Country
SRVC. GeoProvider AS : Service company
DATE.                : Date
API .                : API number
RUN .                : Run number

~Parameters
WellboreName.  : Wellbore name
RigName     .  : Rig name
StartDate   .  : Start date

~Curves
DEPTH.m            .  : null {F}Depth mMD
Hole_ID.-          .  : null {S}Hole ID
GR.API             .  : null {F}Gamma Ray
Lithology1.-       .  : null {S}Lithology 1
Lithology2.-       .  : null {S}Lithology 2
Lithology3.-       .  : null {S}Lithology 3
Lithology1.%       .  : null {F}Lithology 1 percentage
Lithology2.%       .  : null {F}Lithology 2 percentage
Lithology3.%       .  : null {F}Lithology 3 percentage
Grain_size_Top.-   .  : null {S}Grain size at the top 
Grain_size_Base.-  .  : null {S}Grain size at the bottom
Sub_Environment.-  .  : null {S}Sub Environment
Gross_Environment.-.  : null {S}Gross Environment

~Ascii
# ...
3475.90 "6407_2-1"  -999.25 -999.25   -999.25   -999.25  -999.25  -999.25  -999.25 -999.25   -999.25   -999.25                                                                                                                                -999.25                         
3476.00 "6407_2-1"  -999.25 -999.25   -999.25   -999.25  -999.25  -999.25  -999.25 -999.25   -999.25   -999.25                                                                                                                                -999.25                         
3476.10 "6407_2-1"  -999.25 -999.25   -999.25   -999.25  -999.25  -999.25  -999.25 -999.25   -999.25   -999.25                                                                                                                                -999.25                         
3476.20 "6407_2-1"  -999.25 -999.25   -999.25   -999.25  -999.25  -999.25  -999.25 -999.25   -999.25   -999.25                                                                                                                                -999.25                         
3476.30 "6407_2-1"  -999.25 -999.25   -999.25   -999.25  -999.25  -999.25  -999.25 -999.25   -999.25   -999.25                                                                                                                                -999.25                         
3476.40 "6407_2-1"  -999.25 -999.25   -999.25   -999.25  -999.25  -999.25  -999.25 -999.25   -999.25   -999.25                                                                                                                                -999.25                         
3476.50 "6407_2-1"  -999.25 -999.25   -999.25   -999.25  -999.25  -999.25  -999.25 -999.25   -999.25   -999.25                                                                                                                                -999.25                         
3476.60 "6407_2-1"  -999.25 -999.25   -999.25   -999.25  -999.25  -999.25  -999.25 -999.25   -999.25   -999.25                                                                                                                                -999.25                         
3476.70 "6407_2-1"  -999.25 -999.25   -999.25   -999.25  -999.25  -999.25  -999.25 -999.25   -999.25   -999.25                                                                                                                                -999.25                         
3476.80 "6407_2-1"  -999.25 -999.25   -999.25   -999.25  -999.25  -999.25  -999.25 -999.25   -999.25   -999.25                                                                                                                                -999.25                         
3476.90 "6407_2-1"  -999.25 -999.25   -999.25   -999.25  -999.25  -999.25  -999.25 -999.25   -999.25   -999.25                                                                                                                                -999.25                         
3477.00 "6407_2-1"  -999.25 -999.25   -999.25   -999.25  -999.25  -999.25  -999.25 -999.25   -999.25   -999.25                                                                                                                                -999.25                         
3477.10 "6407_2-1"  -999.25 -999.25   -999.25   -999.25  -999.25  -999.25  -999.25 -999.25   -999.25   -999.25                                                                                                                                -999.25                         
3477.20 "6407_2-1"  -999.25 -999.25   -999.25   -999.25  -999.25  -999.25  -999.25 -999.25   -999.25   -999.25                                                                                                                                -999.25                         
3477.30 "6407_2-1"  -999.25 -999.25   -999.25   -999.25  -999.25  -999.25  -999.25 -999.25   -999.25   -999.25                                                                                                                                -999.25                         
3477.40 "6407_2-1"  -999.25 -999.25   -999.25   -999.25  -999.25  -999.25  -999.25 -999.25   -999.25   -999.25                                                                                                                                -999.25                         
3477.50 "6407_2-1"  -999.25 -999.25   -999.25   -999.25  -999.25  -999.25  -999.25 -999.25   -999.25   -999.25                                                                                                                                -999.25                         
3477.60 "6407_2-1"  -999.25 -999.25   -999.25   -999.25  -999.25  -999.25  -999.25 -999.25   -999.25   -999.25                                                                                                                                -999.25                         
3477.70 "6407_2-1"  -999.25 -999.25   -999.25   -999.25  -999.25  -999.25  -999.25 -999.25   -999.25   -999.25                                                                                                                                -999.25                         
3477.80 "6407_2-1"  -999.25 -999.25   -999.25   -999.25  -999.25  -999.25  -999.25 -999.25   -999.25   -999.25                                                                                                                                -999.25                         
3477.90 "6407_2-1"  -999.25 -999.25   -999.25   -999.25  -999.25  -999.25  -999.25 -999.25   -999.25   -999.25                                                                                                                                -999.25                         
3478.00 "6407_2-1" 103.5800 "Coal"    -999.25   -999.25 100.0000      0.0      0.0 "silt/vf" "silt/vf" "Mainly_ overbank_ deposits_ on_ lower_ delta_ plain_ _ _ _ _ _ _ _ _ _ _ _ _ _ _ (some_ tidal_ influence)"                            "UPPER_ DELTA_ PLAIN"           
3478.10 "6407_2-1" 104.3300 "Coal"    -999.25   -999.25 100.0000      0.0      0.0 "silt/vf" "silt/vf" "Mainly_ overbank_ deposits_ on_ lower_ delta_ plain_ _ _ _ _ _ _ _ _ _ _ _ _ _ _ (some_ tidal_ influence)"                            "UPPER_ DELTA_ PLAIN"           
3478.20 "6407_2-1" 105.0900 "Coal"    -999.25   -999.25 100.0000      0.0      0.0 "silt/vf" "silt/vf" "Mainly_ overbank_ deposits_ on_ lower_ delta_ plain_ _ _ _ _ _ _ _ _ _ _ _ _ _ _ (some_ tidal_ influence)"                            "UPPER_ DELTA_ PLAIN"           
3478.30 "6407_2-1" 105.8400 "Coal"    -999.25   -999.25 100.0000      0.0      0.0 "silt/vf" "silt/vf" "Mainly_ overbank_ deposits_ on_ lower_ delta_ plain_ _ _ _ _ _ _ _ _ _ _ _ _ _ _ (some_ tidal_ influence)"                            "UPPER_ DELTA_ PLAIN"           
3478.40 "6407_2-1" 106.6000 "Coal"    -999.25   -999.25 100.0000      0.0      0.0 "silt/vf" "silt/vf" "Mainly_ overbank_ deposits_ on_ lower_ delta_ plain_ _ _ _ _ _ _ _ _ _ _ _ _ _ _ (some_ tidal_ influence)"                            "UPPER_ DELTA_ PLAIN"           
3478.50 "6407_2-1" 107.3500 "Coal"    -999.25   -999.25 100.0000      0.0      0.0 "silt/vf" "silt/vf" "Mainly_ overbank_ deposits_ on_ lower_ delta_ plain_ _ _ _ _ _ _ _ _ _ _ _ _ _ _ (some_ tidal_ influence)"                            "UPPER_ DELTA_ PLAIN"           
3478.60 "6407_2-1" 108.0100 "Coal"    -999.25   -999.25 100.0000      0.0      0.0 "silt/vf" "silt/vf" "Mainly_ overbank_ deposits_ on_ lower_ delta_ plain_ _ _ _ _ _ _ _ _ _ _ _ _ _ _ (some_ tidal_ influence)"                            "UPPER_ DELTA_ PLAIN"           
3478.70 "6407_2-1" 107.5600 "Coal"    -999.25   -999.25 100.0000      0.0      0.0 "silt/vf" "silt/vf" "Mainly_ overbank_ deposits_ on_ lower_ delta_ plain_ _ _ _ _ _ _ _ _ _ _ _ _ _ _ (some_ tidal_ influence)"                            "UPPER_ DELTA_ PLAIN"           
3478.80 "6407_2-1" 107.1200 "Coal"    -999.25   -999.25 100.0000      0.0      0.0 "silt/vf" "silt/vf" "Mainly_ overbank_ deposits_ on_ lower_ delta_ plain_ _ _ _ _ _ _ _ _ _ _ _ _ _ _ (some_ tidal_ influence)"                            "UPPER_ DELTA_ PLAIN"           
