~Version
VERS  .                                 3.0 : CWLS LAS ASCII Standard - Version 3.0
WRAP  . NO                                  : One line per depth step
DLM   . SPACE                               : Column data section delimiter
SOURCE. Converted to LAS by Log Studio 4.76 : GeoProvider

~Well
STRT.        2417.00 : Start depth
STOP.        3497.00 : Stop depth
STEP.              1 : Step
NULL.        -999.25 : No-value
COMP.                : Company
WELL. 6407/2-1       : Well
FLD .                : Field
LOC .                : Location
LATI.                : Latitude
LONG.                : Longitude
GDAT.                : Geodetic datum
CNTY.                : County
STAT.                : State
CTRY.                : Country
SRVC. GeoProvider AS : Service company
DATE.                : Date
API .                : API number
RUN .                : Run number

~Parameters
WellboreName.  : Wellbore name
RigName     .  : Rig name
StartDate   .  : Start date

~Curves
DEPTH.m            .  : null {F}Depth mMD
Hole_ID.-          .  : null {S}Hole ID
GR.API             .  : null {F}Gamma Ray
Lithology1.-       .  : null {S}Lithology 1
Lithology2.-       .  : null {S}Lithology 2
Lithology3.-       .  : null {S}Lithology 3
Lithology1.%       .  : null {F}Lithology 1 percentage
Lithology2.%       .  : null {F}Lithology 2 percentage
Lithology3.%       .  : null {F}Lithology 3 percentage
Grain_size_Top.-   .  : null {S}Grain size at the top 
Grain_size_Base.-  .  : null {S}Grain size at the bottom
Sub_Environment.-  .  : null {S}Sub Environment
Gross_Environment.-.  : null {S}Gross Environment

~Ascii
# ...
3085.90 "6407_2-1" 105.3700 "Sandstone" "Coal"        0.0  93.0000  7.00000      0.0 "vf"      "vf"      "Wave_ influenced_ TRANSGRESSION"                                                                                                      "DISTAL_ DELTA_ FRONT"          
3086.00 "6407_2-1" 108.9800 "Sandstone" "Coal"        0.0  93.0000  7.00000      0.0 "vf"      "vf"      "Wave_ influenced_ TRANSGRESSION"                                                                                                      "DISTAL_ DELTA_ FRONT"          
3086.10 "6407_2-1" 114.8100 "Sandstone" "Coal"        0.0  93.0000  7.00000      0.0 "vf"      "vf"      "Wave_ influenced_ TRANSGRESSION"                                                                                                      "DISTAL_ DELTA_ FRONT"          
3086.20 "6407_2-1" 114.9400 "Sandstone" "Coal"        0.0  93.0000  7.00000      0.0 "vf"      "vf"      "Wave_ influenced_ TRANSGRESSION"                                                                                                      "DISTAL_ DELTA_ FRONT"          
3086.30 "6407_2-1" 115.1400 "Sandstone" "Coal"        0.0  93.0000  7.00000      0.0 "vf"      "vf"      "Wave_ influenced_ TRANSGRESSION"                                                                                                      "DISTAL_ DELTA_ FRONT"          
3086.40 "6407_2-1" 116.3100 "Sandstone" "Coal"        0.0  93.0000  7.00000      0.0 "vf"      "vf"      "Wave_ influenced_ TRANSGRESSION"                                                                                                      "DISTAL_ DELTA_ FRONT"          
3086.50 "6407_2-1" 117.4900 "Sandstone" "Coal"        0.0  93.0000  7.00000      0.0 "vf"      "vf"      "Wave_ influenced_ TRANSGRESSION"                                                                                                      "DISTAL_ DELTA_ FRONT"          
3086.60 "6407_2-1" 118.6600 "Sandstone" "Coal"        0.0  93.0000  7.00000      0.0 "vf"      "vf"      "Wave_ influenced_ TRANSGRESSION"                                                                                                      "DISTAL_ DELTA_ FRONT"          
3086.70 "6407_2-1" 119.8300 "Sandstone" "Coal"        0.0  80.0000 20.00000      0.0 "silt/vf" "vf/f"    "Wave_ influenced_ TRANSGRESSION"                                                                                                      "DISTAL_ DELTA_ FRONT"          
3086.80 "6407_2-1" 121.0000 "Sandstone" "Coal"        0.0  80.0000 20.00000      0.0 "silt/vf" "vf/f"    "Wave_ influenced_ TRANSGRESSION"                                                                                                      "DISTAL_ DELTA_ FRONT"          
3086.90 "6407_2-1" 121.1000 "Sandstone" "Coal"        0.0  80.0000 20.00000      0.0 "silt/vf" "vf/f"    "Wave_ influenced_ TRANSGRESSION"                                                                                                      "DISTAL_ DELTA_ FRONT"          
3087.00 "6407_2-1" 120.9900 "Sandstone" "Coal"        0.0  80.0000 20.00000      0.0 "silt/vf" "vf/f"    "Wave_ influenced_ TRANSGRESSION"                                                                                                      "DISTAL_ DELTA_ FRONT"          
3087.10 "6407_2-1" 120.8900 "Sandstone" "Coal"        0.0  80.0000 20.00000      0.0 "silt/vf" "vf/f"    "Wave_ influenced_ TRANSGRESSION"                                                                                                      "DISTAL_ DELTA_ FRONT"          
3087.20 "6407_2-1" 120.2400 "Sandstone" "Coal"        0.0  80.0000 20.00000      0.0 "silt/vf" "vf/f"    "Wave_ influenced_ TRANSGRESSION"                                                                                                      "DISTAL_ DELTA_ FRONT"          
3087.30 "6407_2-1" 119.5100 "Sandstone" "Coal"        0.0  80.0000 20.00000      0.0 "silt/vf" "vf/f"    "Wave_ influenced_ TRANSGRESSION"                                                                                                      "DISTAL_ DELTA_ FRONT"          
3087.40 "6407_2-1" 118.7800 "Sandstone" "Coal"        0.0  80.0000 20.00000      0.0 "silt/vf" "vf/f"    "Wave_ influenced_ TRANSGRESSION"                                                                                                      "DISTAL_ DELTA_ FRONT"          
3087.50 "6407_2-1" 118.4300 "Sandstone" "Coal"        0.0  80.0000 20.00000      0.0 "silt/vf" "vf/f"    "Wave_ influenced_ TRANSGRESSION"                                                                                                      "DISTAL_ DELTA_ FRONT"          
3087.60 "6407_2-1" 118.4300 "Sandstone" "Coal"        0.0  80.0000 20.00000      0.0 "silt/vf" "vf/f"    "Wave_ influenced_ TRANSGRESSION"                                                                                                      "DISTAL_ DELTA_ FRONT"          
3087.70 "6407_2-1" 127.3000 "Sandstone" "Coal"        0.0  80.0000 20.00000      0.0 "silt/vf" "vf/f"    "Wave_ influenced_ TRANSGRESSION"                                                                                                      "DISTAL_ DELTA_ FRONT"          
3087.80 "6407_2-1" 129.9300 "Sandstone" "Coal"        0.0  80.0000 20.00000      0.0 "silt/vf" "vf/f"    "Wave_ influenced_ TRANSGRESSION"                                                                                                      "DISTAL_ DELTA_ FRONT"          
3087.90 "6407_2-1" 129.9700 "Sandstone" "Coal"        0.0  80.0000 20.00000      0.0 "silt/vf" "vf/f"    "Wave_ influenced_ TRANSGRESSION"                                                                                                      "DISTAL_ DELTA_ FRONT"          
3088.00 "6407_2-1" 129.8800 "Sandstone" "Coal"        0.0  80.0000 20.00000      0.0 "silt/vf" "vf/f"    "Wave_ influenced_ TRANSGRESSION"                                                                                                      "DISTAL_ DELTA_ FRONT"          
3088.10 "6407_2-1" 129.7900 "Sandstone" "Coal"        0.0  80.0000 20.00000      0.0 "silt/vf" "vf/f"    "Wave_ influenced_ TRANSGRESSION"                                                                                                      "DISTAL_ DELTA_ FRONT"          
3088.20 "6407_2-1" 126.1100 "Sandstone" "Coal"        0.0  80.0000 20.00000      0.0 "silt/vf" "vf/f"    "Wave_ influenced_ TRANSGRESSION"                                                                                                      "DISTAL_ DELTA_ FRONT"          
3088.30 "6407_2-1" 117.9100 "Sandstone" "Coal"        0.0  80.0000 20.00000      0.0 "silt/vf" "vf/f"    "Wave_ influenced_ TRANSGRESSION"                                                                                                      "DISTAL_ DELTA_ FRONT"          
3088.40 "6407_2-1" 108.9200 "Sandstone" "Coal"        0.0  80.0000 20.00000      0.0 "silt/vf" "vf/f"    "Wave_ influenced_ TRANSGRESSION"                                                                                                      "DISTAL_ DELTA_ FRONT"          
3088.50 "6407_2-1"  99.8900 "Sandstone" -999.25       0.0 100.0000      0.0      0.0 "f/m"     "vc"      "Wave_ influenced_ TRANSGRESSION"                                                                                                      "DISTAL_ DELTA_ FRONT"          
3088.60 "6407_2-1"  90.8700 "Sandstone" -999.25       0.0 100.0000      0.0      0.0 "f/m"     "vc"      "Wave_ influenced_ TRANSGRESSION"                                                                                                      "DISTAL_ DELTA_ FRONT"          
3088.70 "6407_2-1"  84.0600 "Sandstone" -999.25       0.0 100.0000      0.0      0.0 "f/m"     "vc"      "Wave_ influenced_ TRANSGRESSION"                                                                                                      "DISTAL_ DELTA_ FRONT"          
3088.80 "6407_2-1"  78.7200 "Sandstone" -999.25       0.0 100.0000      0.0      0.0 "f/m"     "vc"      "Wave_ influenced_ TRANSGRESSION"                                                                                                      "DISTAL_ DELTA_ FRONT"          
