~Version
VERS  .                                 3.0 : CWLS LAS ASCII Standard - Version 3.0
WRAP  . NO                                  : One line per depth step
DLM   . SPACE                               : Column data section delimiter
SOURCE. Converted to LAS by Log Studio 4.76 : GeoProvider

~Well
STRT.        2417.00 : Start depth
STOP.        3497.00 : Stop depth
STEP.              1 : Step
NULL.        -999.25 : No-value
COMP.                : Company
WELL. 6407/2-1       : Well
FLD .                : Field
LOC .                : Location
LATI.                : Latitude
LONG.                : Longitude
GDAT.                : Geodetic datum
CNTY.                : County
STAT.                : State
CTRY.                : Country
SRVC. GeoProvider AS : Service company
DATE.                : Date
API .                : API number
RUN .                : Run number

~Parameters
WellboreName.  : Wellbore name
RigName     .  : Rig name
StartDate   .  : Start date

~Curves
DEPTH.m            .  : null {F}Depth mMD
Hole_ID.-          .  : null {S}Hole ID
GR.API             .  : null {F}Gamma Ray
Lithology1.-       .  : null {S}Lithology 1
Lithology2.-       .  : null {S}Lithology 2
Lithology3.-       .  : null {S}Lithology 3
Lithology1.%       .  : null {F}Lithology 1 percentage
Lithology2.%       .  : null {F}Lithology 2 percentage
Lithology3.%       .  : null {F}Lithology 3 percentage
Grain_size_Top.-   .  : null {S}Grain size at the top 
Grain_size_Base.-  .  : null {S}Grain size at the bottom
Sub_Environment.-  .  : null {S}Sub Environment
Gross_Environment.-.  : null {S}Gross Environment

~Ascii
# ...
2423.00 "6407_2-1"  91.3900 "Sandstone" "Shale"   -999.25  10.0000 90.00000      0.0 "silt"    "silt"    "Distal_ 'shelf'_ deposits._ Deep_ water_ (?probably_ restricted_ basin)"                                                              "DISTAL_ BASIN_ OFFSHORE/PRODELTA"
2423.10 "6407_2-1"  92.4500 "Sandstone" "Shale"   -999.25  10.0000 90.00000      0.0 "silt"    "silt"    "Distal_ 'shelf'_ deposits._ Deep_ water_ (?probably_ restricted_ basin)"                                                              "DISTAL_ BASIN_ OFFSHORE/PRODELTA"
2423.20 "6407_2-1"  95.0700 "Sandstone" "Shale"   -999.25  10.0000 90.00000      0.0 "silt"    "silt"    "Distal_ 'shelf'_ deposits._ Deep_ water_ (?probably_ restricted_ basin)"                                                              "DISTAL_ BASIN_ OFFSHORE/PRODELTA"
2423.30 "6407_2-1"  96.3600 "Sandstone" "Shale"   -999.25  10.0000 90.00000      0.0 "silt"    "silt"    "Distal_ 'shelf'_ deposits._ Deep_ water_ (?probably_ restricted_ basin)"                                                              "DISTAL_ BASIN_ OFFSHORE/PRODELTA"
2423.40 "6407_2-1"  96.4600 "Sandstone" "Shale"   -999.25  10.0000 90.00000      0.0 "silt"    "silt"    "Distal_ 'shelf'_ deposits._ Deep_ water_ (?probably_ restricted_ basin)"                                                              "DISTAL_ BASIN_ OFFSHORE/PRODELTA"
2423.50 "6407_2-1"  96.5600 "Sandstone" "Shale"   -999.25  10.0000 90.00000      0.0 "silt"    "silt"    "Distal_ 'shelf'_ deposits._ Deep_ water_ (?probably_ restricted_ basin)"                                                              "DISTAL_ BASIN_ OFFSHORE/PRODELTA"
2423.60 "6407_2-1"  94.8900 "Sandstone" "Shale"   -999.25  10.0000 90.00000      0.0 "silt"    "silt"    "Distal_ 'shelf'_ deposits._ Deep_ water_ (?probably_ restricted_ basin)"                                                              "DISTAL_ BASIN_ OFFSHORE/PRODELTA"
2423.70 "6407_2-1"  92.8400 "Sandstone" "Shale"   -999.25   5.0000 95.00000      0.0 "silt"    "silt"    "Distal_ 'shelf'_ deposits._ Deep_ water_ (?probably_ restricted_ basin)"                                                              "DISTAL_ BASIN_ OFFSHORE/PRODELTA"
2423.80 "6407_2-1"  92.6100 "Sandstone" "Shale"   -999.25   5.0000 95.00000      0.0 "silt"    "silt"    "Distal_ 'shelf'_ deposits._ Deep_ water_ (?probably_ restricted_ basin)"                                                              "DISTAL_ BASIN_ OFFSHORE/PRODELTA"
2423.90 "6407_2-1"  94.8400 "Sandstone" "Shale"   -999.25   5.0000 95.00000      0.0 "silt"    "silt"    "Distal_ 'shelf'_ deposits._ Deep_ water_ (?probably_ restricted_ basin)"                                                              "DISTAL_ BASIN_ OFFSHORE/PRODELTA"
2424.00 "6407_2-1"  97.6500 "Sandstone" "Shale"   -999.25   5.0000 95.00000      0.0 "silt"    "silt"    "Distal_ 'shelf'_ deposits._ Deep_ water_ (?probably_ restricted_ basin)"                                                              "DISTAL_ BASIN_ OFFSHORE/PRODELTA"
2424.10 "6407_2-1" 102.5300 "Sandstone" "Shale"   -999.25   5.0000 95.00000      0.0 "silt"    "silt"    "Distal_ 'shelf'_ deposits._ Deep_ water_ (?probably_ restricted_ basin)"                                                              "DISTAL_ BASIN_ OFFSHORE/PRODELTA"
2424.20 "6407_2-1" 110.0400 "Sandstone" "Shale"   -999.25   5.0000 95.00000      0.0 "silt"    "silt"    "Distal_ 'shelf'_ deposits._ Deep_ water_ (?probably_ restricted_ basin)"                                                              "DISTAL_ BASIN_ OFFSHORE/PRODELTA"
2424.30 "6407_2-1" 111.5200 "Sandstone" "Shale"   -999.25   5.0000 95.00000      0.0 "silt"    "silt"    "Distal_ 'shelf'_ deposits._ Deep_ water_ (?probably_ restricted_ basin)"                                                              "DISTAL_ BASIN_ OFFSHORE/PRODELTA"
2424.40 "6407_2-1" 110.8900 "Sandstone" "Shale"   -999.25   5.0000 95.00000      0.0 "silt"    "silt"    "Distal_ 'shelf'_ deposits._ Deep_ water_ (?probably_ restricted_ basin)"                                                              "DISTAL_ BASIN_ OFFSHORE/PRODELTA"
2424.50 "6407_2-1" 108.8100 "Sandstone" "Shale"   -999.25   5.0000 95.00000      0.0 "silt"    "silt"    "Distal_ 'shelf'_ deposits._ Deep_ water_ (?probably_ restricted_ basin)"                                                              "DISTAL_ BASIN_ OFFSHORE/PRODELTA"
2424.60 "6407_2-1" 104.3500 "Sandstone" "Shale"   -999.25   5.0000 95.00000      0.0 "silt"    "silt"    "Distal_ 'shelf'_ deposits._ Deep_ water_ (?probably_ restricted_ basin)"                                                              "DISTAL_ BASIN_ OFFSHORE/PRODELTA"
2424.70 "6407_2-1" 101.1000 "Sandstone" "Shale"   -999.25   5.0000 95.00000      0.0 "silt"    "silt"    "Distal_ 'shelf'_ deposits._ Deep_ water_ (?probably_ restricted_ basin)"                                                              "DISTAL_ BASIN_ OFFSHORE/PRODELTA"
2424.80 "6407_2-1"  98.8700 "Sandstone" "Shale"   -999.25   5.0000 95.00000      0.0 "silt"    "silt"    "Distal_ 'shelf'_ deposits._ Deep_ water_ (?probably_ restricted_ basin)"                                                              "DISTAL_ BASIN_ OFFSHORE/PRODELTA"
2424.90 "6407_2-1"  96.8900 "Sandstone" "Shale"   -999.25   5.0000 95.00000      0.0 "silt"    "silt"    "Distal_ 'shelf'_ deposits._ Deep_ water_ (?probably_ restricted_ basin)"                                                              "DISTAL_ BASIN_ OFFSHORE/PRODELTA"
2425.00 "6407_2-1"  96.7600 "Sandstone" "Shale"   -999.25   5.0000 95.00000      0.0 "silt"    "silt"    "Distal_ 'shelf'_ deposits._ Deep_ water_ (?probably_ restricted_ basin)"                                                              "DISTAL_ BASIN_ OFFSHORE/PRODELTA"
2425.10 "6407_2-1"  96.6200 "Sandstone" "Shale"   -999.25   5.0000 95.00000      0.0 "silt"    "silt"    "Distal_ 'shelf'_ deposits._ Deep_ water_ (?probably_ restricted_ basin)"                                                              "DISTAL_ BASIN_ OFFSHORE/PRODELTA"
2425.20 "6407_2-1" 100.4000 "Sandstone" "Shale"   -999.25   5.0000 95.00000      0.0 "silt"    "silt"    "Distal_ 'shelf'_ deposits._ Deep_ water_ (?probably_ restricted_ basin)"                                                              "DISTAL_ BASIN_ OFFSHORE/PRODELTA"
2425.30 "6407_2-1" 102.7600 "Sandstone" "Shale"   -999.25   5.0000 95.00000      0.0 "silt"    "silt"    "Distal_ 'shelf'_ deposits._ Deep_ water_ (?probably_ restricted_ basin)"                                                              "DISTAL_ BASIN_ OFFSHORE/PRODELTA"
2425.40 "6407_2-1" 106.7500 "Sandstone" "Shale"   -999.25   5.0000 95.00000      0.0 "silt"    "silt"    "Distal_ 'shelf'_ deposits._ Deep_ water_ (?probably_ restricted_ basin)"                                                              "DISTAL_ BASIN_ OFFSHORE/PRODELTA"
2425.50 "6407_2-1" 107.6500 "Sandstone" "Shale"   -999.25   5.0000 95.00000      0.0 "silt"    "silt"    "Distal_ 'shelf'_ deposits._ Deep_ water_ (?probably_ restricted_ basin)"                                                              "DISTAL_ BASIN_ OFFSHORE/PRODELTA"
2425.60 "6407_2-1" 107.5000 "Sandstone" "Shale"   -999.25   5.0000 95.00000      0.0 "silt"    "silt"    "Distal_ 'shelf'_ deposits._ Deep_ water_ (?probably_ restricted_ basin)"                                                              "DISTAL_ BASIN_ OFFSHORE/PRODELTA"
2425.70 "6407_2-1" 103.4700 "Sandstone" "Shale"   -999.25   5.0000 95.00000      0.0 "silt"    "silt"    "Distal_ 'shelf'_ deposits._ Deep_ water_ (?probably_ restricted_ basin)"                                                              "DISTAL_ BASIN_ OFFSHORE/PRODELTA"
2425.80 "6407_2-1"  98.7800 "Sandstone" "Shale"   -999.25   5.0000 95.00000      0.0 "silt"    "silt"    "Distal_ 'shelf'_ deposits._ Deep_ water_ (?probably_ restricted_ basin)"                                                              "DISTAL_ BASIN_ OFFSHORE/PRODELTA"
2425.90 "6407_2-1"  95.5300 "Sandstone" "Shale"   -999.25   5.0000 95.00000      0.0 "silt"    "silt"    "Distal_ 'shelf'_ deposits._ Deep_ water_ (?probably_ restricted_ basin)"                                                              "DISTAL_ BASIN_ OFFSHORE/PRODELTA"
