~Version
VERS  .                                 3.0 : CWLS LAS ASCII Standard - Version 3.0
WRAP  . NO                                  : One line per depth step
DLM   . SPACE                               : Column data section delimiter
SOURCE. Converted to LAS by Log Studio 4.76 : GeoProvider

~Well
STRT.         2426.0 : Start depth
STOP.         2677.5 : Stop depth
STEP.              1 : Step
NULL.        -999.25 : No-value
COMP.                : Company
WELL. 6507/11-3      : Well
FLD .                : Field
LOC .                : Location
LATI.                : Latitude
LONG.                : Longitude
GDAT.                : Geodetic datum
CNTY.                : County
STAT.                : State
CTRY.                : Country
SRVC. GeoProvider AS : Service company
DATE.                : Date
API .                : API number
RUN .                : Run number

~Parameters
WellboreName.  : Wellbore name
RigName     .  : Rig name
StartDate   .  : Start date

~Curves
DEPTH.m            .  : null {F}Depth mMD
Hole_ID.-          .  : null {S}Hole ID
GR.API             .  : null {F}Gamma Ray
Lithology1.-       .  : null {S}Lithology 1
Lithology2.-       .  : null {S}Lithology 2
Lithology3.-       .  : null {S}Lithology 3
Lithology1.%       .  : null {F}Lithology 1 percentage
Lithology2.%       .  : null {F}Lithology 2 percentage
Lithology3.%       .  : null {F}Lithology 3 percentage
Grain_size_Top.-   .  : null {S}Grain size at the top 
Grain_size_Base.-  .  : null {S}Grain size at the bottom
Sub_Environment.-  .  : null {S}Sub Environment
Gross_Environment.-.  : null {S}Gross Environment

~Ascii
# ...
2508.8 "6507_11-3" 20.23000 "Sandstone"  "Shale" -999.25       90.0000 10.00000      0.0 "vf"       "vf"       "Tidevanns-dominerte_kanaler"                                                                                                                                                  "Tidevannsdeltaslette"                                             
2508.9 "6507_11-3" 21.06000 "Sandstone"  "Shale" -999.25       90.0000 10.00000      0.0 "vf"       "vf"       "Tidevanns-dominerte_kanaler"                                                                                                                                                  "Tidevannsdeltaslette"                                             
2509.0 "6507_11-3" 21.90000 "Sandstone"  "Shale" -999.25       90.0000 10.00000      0.0 "vf"       "vf"       "Tidevanns-dominerte_kanaler"                                                                                                                                                  "Tidevannsdeltaslette"                                             
2509.1 "6507_11-3" 23.15000 "Sandstone"  "Shale" -999.25       90.0000 10.00000      0.0 "vf"       "vf"       "Tidevanns-dominerte_kanaler"                                                                                                                                                  "Tidevannsdeltaslette"                                             
2509.2 "6507_11-3" 24.42000 "Sandstone"  "Shale" -999.25       90.0000 10.00000      0.0 "vf"       "vf"       "Tidevanns-dominerte_kanaler"                                                                                                                                                  "Tidevannsdeltaslette"                                             
2509.3 "6507_11-3" 25.60000 "Sandstone"  "Shale" -999.25       90.0000 10.00000      0.0 "vf"       "vf"       "Tidevanns-dominerte_kanaler"                                                                                                                                                  "Tidevannsdeltaslette"                                             
2509.4 "6507_11-3" 25.40000 "Sandstone"  "Shale" -999.25       90.0000 10.00000      0.0 "vf"       "vf"       "Tidevanns-dominerte_kanaler"                                                                                                                                                  "Tidevannsdeltaslette"                                             
2509.5 "6507_11-3" 25.21000 "Sandstone"  "Shale" -999.25       90.0000 10.00000      0.0 "vf"       "vf"       "Tidevanns-dominerte_kanaler"                                                                                                                                                  "Tidevannsdeltaslette"                                             
2509.6 "6507_11-3" 24.97000 "Sandstone"  "Shale" -999.25       90.0000 10.00000      0.0 "vf"       "vf"       "Tidevanns-dominerte_kanaler"                                                                                                                                                  "Tidevannsdeltaslette"                                             
2509.7 "6507_11-3" 24.51000 "Sandstone"  "Shale" -999.25       90.0000 10.00000      0.0 "vf"       "vf"       "Tidevanns-dominerte_kanaler"                                                                                                                                                  "Tidevannsdeltaslette"                                             
2509.8 "6507_11-3" 24.06000 "Sandstone"  "Shale" -999.25       90.0000 10.00000      0.0 "vf"       "vf"       "Tidevanns-dominerte_kanaler"                                                                                                                                                  "Tidevannsdeltaslette"                                             
2509.9 "6507_11-3" 23.60000 "Sandstone"  "Shale" -999.25       90.0000 10.00000      0.0 "granule"  "granule"  "Tidevanns-dominerte_kanaler"                                                                                                                                                  "Tidevannsdeltaslette"                                             
2510.0 "6507_11-3" 23.15000 "Sandstone"  "Shale" -999.25       90.0000 10.00000      0.0 "granule"  "granule"  "Tidevanns-dominerte_kanaler"                                                                                                                                                  "Tidevannsdeltaslette"                                             
2510.1 "6507_11-3" 22.70000 "Sandstone"  "Shale" -999.25       90.0000 10.00000      0.0 "granule"  "granule"  "Tidevanns-dominerte_kanaler"                                                                                                                                                  "Tidevannsdeltaslette"                                             
2510.2 "6507_11-3" 22.24000 "Sandstone"  "Shale" -999.25       90.0000 10.00000      0.0 "granule"  "granule"  "Tidevanns-dominerte_kanaler"                                                                                                                                                  "Tidevannsdeltaslette"                                             
2510.3 "6507_11-3" 21.79000 "Sandstone"  "Shale" -999.25       90.0000 10.00000      0.0 "granule"  "granule"  "Tidevanns-dominerte_kanaler"                                                                                                                                                  "Tidevannsdeltaslette"                                             
2510.4 "6507_11-3" 21.33000 "Sandstone"  "Shale" -999.25       90.0000 10.00000      0.0 "granule"  "granule"  "Tidevanns-dominerte_kanaler"                                                                                                                                                  "Tidevannsdeltaslette"                                             
2510.5 "6507_11-3" 21.21000 "Sandstone"  "Shale" -999.25       90.0000 10.00000      0.0 "granule"  "granule"  "Tidevanns-dominerte_kanaler"                                                                                                                                                  "Tidevannsdeltaslette"                                             
2510.6 "6507_11-3" 22.02000 "Sandstone"  "Shale" -999.25       90.0000 10.00000      0.0 "granule"  "granule"  "Tidevanns-dominerte_kanaler"                                                                                                                                                  "Tidevannsdeltaslette"                                             
2510.7 "6507_11-3" 22.83000 "Sandstone"  "Shale" -999.25       90.0000 10.00000      0.0 "granule"  "granule"  "Tidevanns-dominerte_kanaler"                                                                                                                                                  "Tidevannsdeltaslette"                                             
2510.8 "6507_11-3" 23.64000 "Sandstone"  "Shale" -999.25       90.0000 10.00000      0.0 "granule"  "granule"  "Tidevanns-dominerte_kanaler"                                                                                                                                                  "Tidevannsdeltaslette"                                             
2510.9 "6507_11-3" 24.45000 "Sandstone"  "Shale" -999.25       90.0000 10.00000      0.0 "granule"  "granule"  "Tidevanns-dominerte_kanaler"                                                                                                                                                  "Tidevannsdeltaslette"                                             
2511.0 "6507_11-3" 25.26000 "Sandstone"  "Shale" -999.25       90.0000 10.00000      0.0 "granule"  "granule"  "Tidevanns-dominerte_kanaler"                                                                                                                                                  "Tidevannsdeltaslette"                                             
