~Version
VERS  .                                 3.0 : CWLS LAS ASCII Standard - Version 3.0
WRAP  . NO                                  : One line per depth step
DLM   . SPACE                               : Column data section delimiter
SOURCE. Converted to LAS by Log Studio 4.76 : GeoProvider

~Well
STRT.         2426.0 : Start depth
STOP.         2677.5 : Stop depth
STEP.              1 : Step
NULL.        -999.25 : No-value
COMP.                : Company
WELL. 6507/11-3      : Well
FLD .                : Field
LOC .                : Location
LATI.                : Latitude
LONG.                : Longitude
GDAT.                : Geodetic datum
CNTY.                : County
STAT.                : State
CTRY.                : Country
SRVC. GeoProvider AS : Service company
DATE.                : Date
API .                : API number
RUN .                : Run number

~Parameters
WellboreName.  : Wellbore name
RigName     .  : Rig name
StartDate   .  : Start date

~Curves
DEPTH.m            .  : null {F}Depth mMD
Hole_ID.-          .  : null {S}Hole ID
GR.API             .  : null {F}Gamma Ray
Lithology1.-       .  : null {S}Lithology 1
Lithology2.-       .  : null {S}Lithology 2
Lithology3.-       .  : null {S}Lithology 3
Lithology1.%       .  : null {F}Lithology 1 percentage
Lithology2.%       .  : null {F}Lithology 2 percentage
Lithology3.%       .  : null {F}Lithology 3 percentage
Grain_size_Top.-   .  : null {S}Grain size at the top 
Grain_size_Base.-  .  : null {S}Grain size at the bottom
Sub_Environment.-  .  : null {S}Sub Environment
Gross_Environment.-.  : null {S}Gross Environment

~Ascii
# ...
2658.3 "6507_11-3" 19.11000 "Sandstone"  "Shale" -999.25       80.0000 20.00000      0.0 "vc"       "c"        "Proximale_munningsbanker,_preget_av_periodisk_sterk_fluvial_tilforsel._Ingen_tydelige_tegn_pa_tidevanns-prosesser_her._Strandbearbeiding_I_toppen."                           "Proximal_delta_front"                                             
2658.4 "6507_11-3" 19.53000 "Sandstone"  "Shale" -999.25       80.0000 20.00000      0.0 "vc"       "c"        "Proximale_munningsbanker,_preget_av_periodisk_sterk_fluvial_tilforsel._Ingen_tydelige_tegn_pa_tidevanns-prosesser_her._Strandbearbeiding_I_toppen."                           "Proximal_delta_front"                                             
2658.5 "6507_11-3" 20.22000 "Sandstone"  "Shale" -999.25       80.0000 20.00000      0.0 "vc"       "c"        "Proximale_munningsbanker,_preget_av_periodisk_sterk_fluvial_tilforsel._Ingen_tydelige_tegn_pa_tidevanns-prosesser_her._Strandbearbeiding_I_toppen."                           "Proximal_delta_front"                                             
2658.6 "6507_11-3" 21.01000 "Sandstone"  "Shale" -999.25       80.0000 20.00000      0.0 "vc"       "c"        "Proximale_munningsbanker,_preget_av_periodisk_sterk_fluvial_tilforsel._Ingen_tydelige_tegn_pa_tidevanns-prosesser_her._Strandbearbeiding_I_toppen."                           "Proximal_delta_front"                                             
2658.7 "6507_11-3" 21.23000 "Sandstone"  "Shale" -999.25       80.0000 20.00000      0.0 "vc"       "c"        "Proximale_munningsbanker,_preget_av_periodisk_sterk_fluvial_tilforsel._Ingen_tydelige_tegn_pa_tidevanns-prosesser_her._Strandbearbeiding_I_toppen."                           "Proximal_delta_front"                                             
2658.8 "6507_11-3" 21.02000 "Sandstone"  "Shale" -999.25       80.0000 20.00000      0.0 "vc"       "c"        "Proximale_munningsbanker,_preget_av_periodisk_sterk_fluvial_tilforsel._Ingen_tydelige_tegn_pa_tidevanns-prosesser_her._Strandbearbeiding_I_toppen."                           "Proximal_delta_front"                                             
2658.9 "6507_11-3" 20.12000 "Sandstone"  "Shale" -999.25       80.0000 20.00000      0.0 "vc"       "c"        "Proximale_munningsbanker,_preget_av_periodisk_sterk_fluvial_tilforsel._Ingen_tydelige_tegn_pa_tidevanns-prosesser_her._Strandbearbeiding_I_toppen."                           "Proximal_delta_front"                                             
2659.0 "6507_11-3" 19.08000 "Sandstone"  "Shale" -999.25       80.0000 20.00000      0.0 "vc"       "c"        "Proximale_munningsbanker,_preget_av_periodisk_sterk_fluvial_tilforsel._Ingen_tydelige_tegn_pa_tidevanns-prosesser_her._Strandbearbeiding_I_toppen."                           "Proximal_delta_front"                                             
2659.1 "6507_11-3" 18.03000 "Sandstone"  "Shale" -999.25       80.0000 20.00000      0.0 "vc"       "c"        "Proximale_munningsbanker,_preget_av_periodisk_sterk_fluvial_tilforsel._Ingen_tydelige_tegn_pa_tidevanns-prosesser_her._Strandbearbeiding_I_toppen."                           "Proximal_delta_front"                                             
2659.2 "6507_11-3" 17.85000 "Sandstone"  "Shale" -999.25       80.0000 20.00000      0.0 "vc"       "c"        "Proximale_munningsbanker,_preget_av_periodisk_sterk_fluvial_tilforsel._Ingen_tydelige_tegn_pa_tidevanns-prosesser_her._Strandbearbeiding_I_toppen."                           "Proximal_delta_front"                                             
2659.3 "6507_11-3" 18.21000 "Sandstone"  "Shale" -999.25       20.0000 80.00000      0.0 -999.25    -999.25    "Proximale_munningsbanker,_preget_av_periodisk_sterk_fluvial_tilforsel._Ingen_tydelige_tegn_pa_tidevanns-prosesser_her._Strandbearbeiding_I_toppen."                           "Proximal_delta_front"                                             
2659.4 "6507_11-3" 18.58000 "Sandstone"  "Shale" -999.25       20.0000 80.00000      0.0 -999.25    -999.25    "Proximale_munningsbanker,_preget_av_periodisk_sterk_fluvial_tilforsel._Ingen_tydelige_tegn_pa_tidevanns-prosesser_her._Strandbearbeiding_I_toppen."                           "Proximal_delta_front"                                             
2659.5 "6507_11-3" 18.94000 "Sandstone"  "Shale" -999.25       20.0000 80.00000      0.0 -999.25    -999.25    "Proximale_munningsbanker,_preget_av_periodisk_sterk_fluvial_tilforsel._Ingen_tydelige_tegn_pa_tidevanns-prosesser_her._Strandbearbeiding_I_toppen."                           "Proximal_delta_front"                                             
2659.6 "6507_11-3" 19.30000 "Sandstone"  "Shale" -999.25       20.0000 80.00000      0.0 -999.25    -999.25    "Proximale_munningsbanker,_preget_av_periodisk_sterk_fluvial_tilforsel._Ingen_tydelige_tegn_pa_tidevanns-prosesser_her._Strandbearbeiding_I_toppen."                           "Proximal_delta_front"                                             
2659.7 "6507_11-3" 18.90000 "Sandstone"  "Shale" -999.25       20.0000 80.00000      0.0 -999.25    -999.25    "Proximale_munningsbanker,_preget_av_periodisk_sterk_fluvial_tilforsel._Ingen_tydelige_tegn_pa_tidevanns-prosesser_her._Strandbearbeiding_I_toppen."                           "Proximal_delta_front"                                             
2659.8 "6507_11-3" 18.35000 "Sandstone"  "Shale" -999.25       20.0000 80.00000      0.0 -999.25    -999.25    "Proximale_munningsbanker,_preget_av_periodisk_sterk_fluvial_tilforsel._Ingen_tydelige_tegn_pa_tidevanns-prosesser_her._Strandbearbeiding_I_toppen."                           "Proximal_delta_front"                                             
2659.9 "6507_11-3" 17.80000 "Sandstone"  -999.25 -999.25      100.0000      0.0      0.0 "vc"       "vc"       "Proximale_munningsbanker,_preget_av_periodisk_sterk_fluvial_tilforsel._Ingen_tydelige_tegn_pa_tidevanns-prosesser_her._Strandbearbeiding_I_toppen."                           "Proximal_delta_front"                                             
2660.0 "6507_11-3" 17.25000 "Sandstone"  -999.25 -999.25      100.0000      0.0      0.0 "vc"       "vc"       "Proximale_munningsbanker,_preget_av_periodisk_sterk_fluvial_tilforsel._Ingen_tydelige_tegn_pa_tidevanns-prosesser_her._Strandbearbeiding_I_toppen."                           "Proximal_delta_front"                                             
2660.1 "6507_11-3" 16.70000 "Sandstone"  -999.25 -999.25      100.0000      0.0      0.0 "vc"       "vc"       "Proximale_munningsbanker,_preget_av_periodisk_sterk_fluvial_tilforsel._Ingen_tydelige_tegn_pa_tidevanns-prosesser_her._Strandbearbeiding_I_toppen."                           "Proximal_delta_front"                                             
2660.2 "6507_11-3" 16.73000 "Sandstone"  -999.25 -999.25      100.0000      0.0      0.0 "vc"       "vc"       "Proximale_munningsbanker,_preget_av_periodisk_sterk_fluvial_tilforsel._Ingen_tydelige_tegn_pa_tidevanns-prosesser_her._Strandbearbeiding_I_toppen."                           "Proximal_delta_front"                                             
2660.3 "6507_11-3" 16.96000 "Sandstone"  -999.25 -999.25      100.0000      0.0      0.0 "vc"       "vc"       "Proximale_munningsbanker,_preget_av_periodisk_sterk_fluvial_tilforsel._Ingen_tydelige_tegn_pa_tidevanns-prosesser_her._Strandbearbeiding_I_toppen."                           "Proximal_delta_front"                                             
2660.4 "6507_11-3" 16.83000 "Sandstone"  -999.25 -999.25      100.0000      0.0      0.0 "vc"       "vc"       "Proximale_munningsbanker,_preget_av_periodisk_sterk_fluvial_tilforsel._Ingen_tydelige_tegn_pa_tidevanns-prosesser_her._Strandbearbeiding_I_toppen."                           "Proximal_delta_front"                                             
2660.5 "6507_11-3" 16.69000 "Sandstone"  -999.25 -999.25      100.0000      0.0      0.0 "vc"       "vc"       "Proximale_munningsbanker,_preget_av_periodisk_sterk_fluvial_tilforsel._Ingen_tydelige_tegn_pa_tidevanns-prosesser_her._Strandbearbeiding_I_toppen."                           "Proximal_delta_front"                                             
