~Version
VERS  .                                 3.0 : CWLS LAS ASCII Standard - Version 3.0
WRAP  . NO                                  : One line per depth step
DLM   . SPACE                               : Column data section delimiter
SOURCE. Converted to LAS by Log Studio 4.76 : GeoProvider

~Well
STRT.         2426.0 : Start depth
STOP.         2677.5 : Stop depth
STEP.              1 : Step
NULL.        -999.25 : No-value
COMP.                : Company
WELL. 6507/11-3      : Well
FLD .                : Field
LOC .                : Location
LATI.                : Latitude
LONG.                : Longitude
GDAT.                : Geodetic datum
CNTY.                : County
STAT.                : State
CTRY.                : Country
SRVC. GeoProvider AS : Service company
DATE.                : Date
API .                : API number
RUN .                : Run number

~Parameters
WellboreName.  : Wellbore name
RigName     .  : Rig name
StartDate   .  : Start date

~Curves
DEPTH.m            .  : null {F}Depth mMD
Hole_ID.-          .  : null {S}Hole ID
GR.API             .  : null {F}Gamma Ray
Lithology1.-       .  : null {S}Lithology 1
Lithology2.-       .  : null {S}Lithology 2
Lithology3.-       .  : null {S}Lithology 3
Lithology1.%       .  : null {F}Lithology 1 percentage
Lithology2.%       .  : null {F}Lithology 2 percentage
Lithology3.%       .  : null {F}Lithology 3 percentage
Grain_size_Top.-   .  : null {S}Grain size at the top 
Grain_size_Base.-  .  : null {S}Grain size at the bottom
Sub_Environment.-  .  : null {S}Sub Environment
Gross_Environment.-.  : null {S}Gross Environment

~Ascii
# ...
2490.4 "6507_11-3" 71.36000 "Sandstone"  "Shale" -999.25       65.0000 35.00000      0.0 "c/vc"     "c"        "Mudderflate_m/'sheet_floods'"                                                                                                                                                 "Tidevannsdeltaslette"                                             
2490.5 "6507_11-3" 66.38000 "Sandstone"  "Shale" -999.25       65.0000 35.00000      0.0 "c/vc"     "c"        "Mudderflate_m/'sheet_floods'"                                                                                                                                                 "Tidevannsdeltaslette"                                             
2490.6 "6507_11-3" 61.41000 "Sandstone"  "Shale" -999.25       65.0000 35.00000      0.0 "c/vc"     "c"        "Mudderflate_m/'sheet_floods'"                                                                                                                                                 "Tidevannsdeltaslette"                                             
2490.7 "6507_11-3" 56.43000 "Sandstone"  "Shale" -999.25       65.0000 35.00000      0.0 "c/vc"     "c"        "Mudderflate_m/'sheet_floods'"                                                                                                                                                 "Tidevannsdeltaslette"                                             
2490.8 "6507_11-3" 51.45000 "Sandstone"  "Shale" -999.25       65.0000 35.00000      0.0 "c/vc"     "c"        "Mudderflate_m/'sheet_floods'"                                                                                                                                                 "Tidevannsdeltaslette"                                             
2490.9 "6507_11-3" 37.49000 "Sandstone"  "Shale" -999.25       65.0000 35.00000      0.0 "c/vc"     "c"        "Mudderflate_m/'sheet_floods'"                                                                                                                                                 "Tidevannsdeltaslette"                                             
2491.0 "6507_11-3" 35.38000 "Sandstone"  "Shale" -999.25       65.0000 35.00000      0.0 "c/vc"     "c"        "Mudderflate_m/'sheet_floods'"                                                                                                                                                 "Tidevannsdeltaslette"                                             
2491.1 "6507_11-3" 33.27000 "Sandstone"  "Shale" -999.25       65.0000 35.00000      0.0 "c/vc"     "c"        "Mudderflate_m/'sheet_floods'"                                                                                                                                                 "Tidevannsdeltaslette"                                             
2491.2 "6507_11-3" 31.16000 "Sandstone"  "Shale" -999.25       65.0000 35.00000      0.0 "c/vc"     "c"        "Mudderflate_m/'sheet_floods'"                                                                                                                                                 "Tidevannsdeltaslette"                                             
2491.3 "6507_11-3" 30.71000 "Sandstone"  "Shale" -999.25       65.0000 35.00000      0.0 "c/vc"     "c"        "Mudderflate_m/'sheet_floods'"                                                                                                                                                 "Tidevannsdeltaslette"                                             
2491.4 "6507_11-3" 31.18000 "Sandstone"  "Shale" -999.25       65.0000 35.00000      0.0 "c/vc"     "c"        "Mudderflate_m/'sheet_floods'"                                                                                                                                                 "Tidevannsdeltaslette"                                             
2491.5 "6507_11-3" 31.65000 "Sandstone"  "Shale" -999.25       65.0000 35.00000      0.0 "c/vc"     "c"        "Mudderflate_m/'sheet_floods'"                                                                                                                                                 "Tidevannsdeltaslette"                                             
2491.6 "6507_11-3" 32.12000 "Sandstone"  "Shale" -999.25       65.0000 35.00000      0.0 "c/vc"     "c"        "Mudderflate_m/'sheet_floods'"                                                                                                                                                 "Tidevannsdeltaslette"                                             
2491.7 "6507_11-3" 32.59000 "Sandstone"  "Shale" -999.25       65.0000 35.00000      0.0 "c/vc"     "c"        "Mudderflate_m/'sheet_floods'"                                                                                                                                                 "Tidevannsdeltaslette"                                             
2491.8 "6507_11-3" 33.06000 "Sandstone"  "Shale" -999.25       65.0000 35.00000      0.0 "c/vc"     "c"        "Mudderflate_m/'sheet_floods'"                                                                                                                                                 "Tidevannsdeltaslette"                                             
2491.9 "6507_11-3" 32.17000 "Sandstone"  "Shale" -999.25       65.0000 35.00000      0.0 "c/vc"     "c"        "Mudderflate_m/'sheet_floods'"                                                                                                                                                 "Tidevannsdeltaslette"                                             
2492.0 "6507_11-3" 30.48000 "Sandstone"  "Shale" -999.25       65.0000 35.00000      0.0 "c/vc"     "c"        "Mudderflate_m/'sheet_floods'"                                                                                                                                                 "Tidevannsdeltaslette"                                             
2492.1 "6507_11-3" 28.79000 "Sandstone"  "Shale" -999.25       65.0000 35.00000      0.0 "c/vc"     "c"        "Mudderflate_m/'sheet_floods'"                                                                                                                                                 "Tidevannsdeltaslette"                                             
2492.2 "6507_11-3" 27.10000 "Sandstone"  "Shale" -999.25       65.0000 35.00000      0.0 "c/vc"     "c"        "Mudderflate_m/'sheet_floods'"                                                                                                                                                 "Tidevannsdeltaslette"                                             
2492.3 "6507_11-3" 26.09000 "Sandstone"  "Shale" -999.25       65.0000 35.00000      0.0 "c/vc"     "c"        "Mudderflate_m/'sheet_floods'"                                                                                                                                                 "Tidevannsdeltaslette"                                             
2492.4 "6507_11-3" 25.07000 "Sandstone"  "Shale" -999.25       65.0000 35.00000      0.0 "c/vc"     "c"        "Mudderflate_m/'sheet_floods'"                                                                                                                                                 "Tidevannsdeltaslette"                                             
2492.5 "6507_11-3" 24.05000 "Sandstone"  "Shale" -999.25       65.0000 35.00000      0.0 "c/vc"     "c"        "Mudderflate_m/'sheet_floods'"                                                                                                                                                 "Tidevannsdeltaslette"                                             
2492.6 "6507_11-3" 24.60000 "Sandstone"  "Shale" -999.25       65.0000 35.00000      0.0 "c/vc"     "c"        "Mudderflate_m/'sheet_floods'"                                                                                                                                                 "Tidevannsdeltaslette"                                             
