~Version
VERS  .                                 3.0 : CWLS LAS ASCII Standard - Version 3.0
WRAP  . NO                                  : One line per depth step
DLM   . SPACE                               : Column data section delimiter
SOURCE. Converted to LAS by Log Studio 4.76 : GeoProvider

~Well
STRT.         2426.0 : Start depth
STOP.         2677.5 : Stop depth
STEP.              1 : Step
NULL.        -999.25 : No-value
COMP.                : Company
WELL. 6507/11-3      : Well
FLD .                : Field
LOC .                : Location
LATI.                : Latitude
LONG.                : Longitude
GDAT.                : Geodetic datum
CNTY.                : County
STAT.                : State
CTRY.                : Country
SRVC. GeoProvider AS : Service company
DATE.                : Date
API .                : API number
RUN .                : Run number

~Parameters
WellboreName.  : Wellbore name
RigName     .  : Rig name
StartDate   .  : Start date

~Curves
DEPTH.m            .  : null {F}Depth mMD
Hole_ID.-          .  : null {S}Hole ID
GR.API             .  : null {F}Gamma Ray
Lithology1.-       .  : null {S}Lithology 1
Lithology2.-       .  : null {S}Lithology 2
Lithology3.-       .  : null {S}Lithology 3
Lithology1.%       .  : null {F}Lithology 1 percentage
Lithology2.%       .  : null {F}Lithology 2 percentage
Lithology3.%       .  : null {F}Lithology 3 percentage
Grain_size_Top.-   .  : null {S}Grain size at the top 
Grain_size_Base.-  .  : null {S}Grain size at the bottom
Sub_Environment.-  .  : null {S}Sub Environment
Gross_Environment.-.  : null {S}Gross Environment

~Ascii
# ...
2472.0 "6507_11-3" 23.94000 "Sandstone"  "Shale" -999.25       40.0000 60.00000      0.0 "vf/f"     "vf/f"     "(?)_Distribusjonskanaler"                                                                                                                                                     "Delta_slette"                                                     
2472.1 "6507_11-3" 22.93000 "Sandstone"  "Shale" -999.25       40.0000 60.00000      0.0 "vf/f"     "vf/f"     "(?)_Distribusjonskanaler"                                                                                                                                                     "Delta_slette"                                                     
2472.2 "6507_11-3" 21.92000 "Sandstone"  "Shale" -999.25       40.0000 60.00000      0.0 "vf/f"     "vf/f"     "(?)_Distribusjonskanaler"                                                                                                                                                     "Delta_slette"                                                     
2472.3 "6507_11-3" 21.25000 "Sandstone"  "Shale" -999.25       40.0000 60.00000      0.0 "vf/f"     "vf/f"     "(?)_Distribusjonskanaler"                                                                                                                                                     "Delta_slette"                                                     
2472.4 "6507_11-3" 21.18000 "Sandstone"  -999.25 -999.25      100.0000      0.0      0.0 "c"        "c"        "(?)_Distribusjonskanaler"                                                                                                                                                     "Delta_slette"                                                     
2472.5 "6507_11-3" 21.11000 "Sandstone"  -999.25 -999.25      100.0000      0.0      0.0 "c"        "c"        "(?)_Distribusjonskanaler"                                                                                                                                                     "Delta_slette"                                                     
2472.6 "6507_11-3" 21.03000 "Sandstone"  -999.25 -999.25      100.0000      0.0      0.0 "c"        "c"        "(?)_Distribusjonskanaler"                                                                                                                                                     "Delta_slette"                                                     
2472.7 "6507_11-3" 20.65000 "Sandstone"  -999.25 -999.25      100.0000      0.0      0.0 "c"        "c"        "(?)_Distribusjonskanaler"                                                                                                                                                     "Delta_slette"                                                     
2472.8 "6507_11-3" 19.99000 "Sandstone"  -999.25 -999.25      100.0000      0.0      0.0 "c"        "c"        "(?)_Distribusjonskanaler"                                                                                                                                                     "Delta_slette"                                                     
2472.9 "6507_11-3" 19.32000 "Sandstone"  -999.25 -999.25      100.0000      0.0      0.0 "c"        "c"        "(?)_Distribusjonskanaler"                                                                                                                                                     "Delta_slette"                                                     
2473.0 "6507_11-3" 18.66000 "Sandstone"  -999.25 -999.25      100.0000      0.0      0.0 "c"        "c"        "(?)_Distribusjonskanaler"                                                                                                                                                     "Delta_slette"                                                     
2473.1 "6507_11-3" 18.00000 "Sandstone"  -999.25 -999.25      100.0000      0.0      0.0 "c"        "c"        "(?)_Distribusjonskanaler"                                                                                                                                                     "Delta_slette"                                                     
2473.2 "6507_11-3" 17.83000 "Sandstone"  -999.25 -999.25      100.0000      0.0      0.0 "c"        "c"        "(?)_Distribusjonskanaler"                                                                                                                                                     "Delta_slette"                                                     
2473.3 "6507_11-3" 17.86000 "Sandstone"  -999.25 -999.25      100.0000      0.0      0.0 "c"        "c"        "(?)_Distribusjonskanaler"                                                                                                                                                     "Delta_slette"                                                     
2473.4 "6507_11-3" 17.93000 "Sandstone"  -999.25 -999.25      100.0000      0.0      0.0 "c"        "c"        "(?)_Distribusjonskanaler"                                                                                                                                                     "Delta_slette"                                                     
2473.5 "6507_11-3" 18.55000 "Sandstone"  -999.25 -999.25      100.0000      0.0      0.0 "c"        "c"        "(?)_Distribusjonskanaler"                                                                                                                                                     "Delta_slette"                                                     
2473.6 "6507_11-3" 19.17000 "Sandstone"  -999.25 -999.25      100.0000      0.0      0.0 "c"        "c"        "(?)_Distribusjonskanaler"                                                                                                                                                     "Delta_slette"                                                     
2473.7 "6507_11-3" 19.74000 "Sandstone"  -999.25 -999.25      100.0000      0.0      0.0 "c"        "c"        "(?)_Distribusjonskanaler"                                                                                                                                                     "Delta_slette"                                                     
2473.8 "6507_11-3" 20.11000 "Sandstone"  -999.25 -999.25      100.0000      0.0      0.0 "c"        "c"        "(?)_Distribusjonskanaler"                                                                                                                                                     "Delta_slette"                                                     
2473.9 "6507_11-3" 20.47000 "Sandstone"  -999.25 -999.25      100.0000      0.0      0.0 "c"        "c"        "(?)_Distribusjonskanaler"                                                                                                                                                     "Delta_slette"                                                     
2474.0 "6507_11-3" 20.84000 "Sandstone"  "Shale" -999.25       40.0000 60.00000      0.0 "vf"       "vf"       "(?)_Distribusjonskanaler"                                                                                                                                                     "Delta_slette"                                                     
2474.1 "6507_11-3" 21.51000 "Sandstone"  "Shale" -999.25       40.0000 60.00000      0.0 "vf"       "vf"       "(?)_Distribusjonskanaler"                                                                                                                                                     "Delta_slette"                                                     
2474.2 "6507_11-3" 22.42000 "Sandstone"  "Shale" -999.25       40.0000 60.00000      0.0 "vf"       "vf"       "(?)_Distribusjonskanaler"                                                                                                                                                     "Delta_slette"                                                     
