~Version
VERS  .                                 3.0 : CWLS LAS ASCII Standard - Version 3.0
WRAP  . NO                                  : One line per depth step
DLM   . SPACE                               : Column data section delimiter
SOURCE. Converted to LAS by Log Studio 4.76 : GeoProvider

~Well
STRT.         2426.0 : Start depth
STOP.         2677.5 : Stop depth
STEP.              1 : Step
NULL.        -999.25 : No-value
COMP.                : Company
WELL. 6507/11-3      : Well
FLD .                : Field
LOC .                : Location
LATI.                : Latitude
LONG.                : Longitude
GDAT.                : Geodetic datum
CNTY.                : County
STAT.                : State
CTRY.                : Country
SRVC. GeoProvider AS : Service company
DATE.                : Date
API .                : API number
RUN .                : Run number

~Parameters
WellboreName.  : Wellbore name
RigName     .  : Rig name
StartDate   .  : Start date

~Curves
DEPTH.m            .  : null {F}Depth mMD
Hole_ID.-          .  : null {S}Hole ID
GR.API             .  : null {F}Gamma Ray
Lithology1.-       .  : null {S}Lithology 1
Lithology2.-       .  : null {S}Lithology 2
Lithology3.-       .  : null {S}Lithology 3
Lithology1.%       .  : null {F}Lithology 1 percentage
Lithology2.%       .  : null {F}Lithology 2 percentage
Lithology3.%       .  : null {F}Lithology 3 percentage
Grain_size_Top.-   .  : null {S}Grain size at the top 
Grain_size_Base.-  .  : null {S}Grain size at the bottom
Sub_Environment.-  .  : null {S}Sub Environment
Gross_Environment.-.  : null {S}Gross Environment

~Ascii
# ...
2649.1 "6507_11-3" 23.05000 -999.25      -999.25 -999.25      100.0000      0.0      0.0 -999.25    -999.25    -999.25                                                                                                                                                                        -999.25                                                            
2649.2 "6507_11-3" 23.35000 -999.25      -999.25 -999.25      100.0000      0.0      0.0 -999.25    -999.25    -999.25                                                                                                                                                                        -999.25                                                            
2649.3 "6507_11-3" 23.66000 -999.25      -999.25 -999.25      100.0000      0.0      0.0 -999.25    -999.25    -999.25                                                                                                                                                                        -999.25                                                            
2649.4 "6507_11-3" 24.06000 -999.25      -999.25 -999.25      100.0000      0.0      0.0 -999.25    -999.25    -999.25                                                                                                                                                                        -999.25                                                            
2649.5 "6507_11-3" 24.52000 -999.25      -999.25 -999.25      100.0000      0.0      0.0 -999.25    -999.25    -999.25                                                                                                                                                                        -999.25                                                            
2649.6 "6507_11-3" 24.97000 -999.25      -999.25 -999.25      100.0000      0.0      0.0 -999.25    -999.25    -999.25                                                                                                                                                                        -999.25                                                            
2649.7 "6507_11-3" 25.43000 -999.25      -999.25 -999.25      100.0000      0.0      0.0 -999.25    -999.25    -999.25                                                                                                                                                                        -999.25                                                            
2649.8 "6507_11-3" 25.25000 -999.25      -999.25 -999.25      100.0000      0.0      0.0 -999.25    -999.25    -999.25                                                                                                                                                                        -999.25                                                            
2649.9 "6507_11-3" 24.61000 -999.25      -999.25 -999.25      100.0000      0.0      0.0 -999.25    -999.25    -999.25                                                                                                                                                                        -999.25                                                            
2650.0 "6507_11-3" 23.96000 -999.25      -999.25 -999.25      100.0000      0.0      0.0 -999.25    -999.25    "Proximale_munningsbanker,_preget_av_periodisk_sterk_fluvial_tilforsel._Ingen_tydelige_tegn_pa_tidevanns-prosesser_her._Strandbearbeiding_I_toppen."                           "Proximal_delta_front"                                             
2650.1 "6507_11-3" 23.32000 "Sandstone"  "Shale" -999.25       80.0000 20.00000      0.0 "vc"       "c"        "Proximale_munningsbanker,_preget_av_periodisk_sterk_fluvial_tilforsel._Ingen_tydelige_tegn_pa_tidevanns-prosesser_her._Strandbearbeiding_I_toppen."                           "Proximal_delta_front"                                             
2650.2 "6507_11-3" 22.67000 "Sandstone"  "Shale" -999.25       80.0000 20.00000      0.0 "vc"       "c"        "Proximale_munningsbanker,_preget_av_periodisk_sterk_fluvial_tilforsel._Ingen_tydelige_tegn_pa_tidevanns-prosesser_her._Strandbearbeiding_I_toppen."                           "Proximal_delta_front"                                             
2650.3 "6507_11-3" 22.03000 "Sandstone"  "Shale" -999.25       80.0000 20.00000      0.0 "vc"       "c"        "Proximale_munningsbanker,_preget_av_periodisk_sterk_fluvial_tilforsel._Ingen_tydelige_tegn_pa_tidevanns-prosesser_her._Strandbearbeiding_I_toppen."                           "Proximal_delta_front"                                             
2650.4 "6507_11-3" 21.38000 "Sandstone"  "Shale" -999.25       80.0000 20.00000      0.0 "vc"       "c"        "Proximale_munningsbanker,_preget_av_periodisk_sterk_fluvial_tilforsel._Ingen_tydelige_tegn_pa_tidevanns-prosesser_her._Strandbearbeiding_I_toppen."                           "Proximal_delta_front"                                             
2650.5 "6507_11-3" 20.74000 "Sandstone"  "Shale" -999.25       80.0000 20.00000      0.0 "vc"       "c"        "Proximale_munningsbanker,_preget_av_periodisk_sterk_fluvial_tilforsel._Ingen_tydelige_tegn_pa_tidevanns-prosesser_her._Strandbearbeiding_I_toppen."                           "Proximal_delta_front"                                             
2650.6 "6507_11-3" 20.09000 "Sandstone"  "Shale" -999.25       80.0000 20.00000      0.0 "vc"       "c"        "Proximale_munningsbanker,_preget_av_periodisk_sterk_fluvial_tilforsel._Ingen_tydelige_tegn_pa_tidevanns-prosesser_her._Strandbearbeiding_I_toppen."                           "Proximal_delta_front"                                             
2650.7 "6507_11-3" 19.45000 "Sandstone"  "Shale" -999.25       80.0000 20.00000      0.0 "vc"       "c"        "Proximale_munningsbanker,_preget_av_periodisk_sterk_fluvial_tilforsel._Ingen_tydelige_tegn_pa_tidevanns-prosesser_her._Strandbearbeiding_I_toppen."                           "Proximal_delta_front"                                             
2650.8 "6507_11-3" 18.80000 "Sandstone"  "Shale" -999.25       80.0000 20.00000      0.0 "vc"       "c"        "Proximale_munningsbanker,_preget_av_periodisk_sterk_fluvial_tilforsel._Ingen_tydelige_tegn_pa_tidevanns-prosesser_her._Strandbearbeiding_I_toppen."                           "Proximal_delta_front"                                             
2650.9 "6507_11-3" 18.16000 "Sandstone"  "Shale" -999.25       80.0000 20.00000      0.0 "vc"       "c"        "Proximale_munningsbanker,_preget_av_periodisk_sterk_fluvial_tilforsel._Ingen_tydelige_tegn_pa_tidevanns-prosesser_her._Strandbearbeiding_I_toppen."                           "Proximal_delta_front"                                             
2651.0 "6507_11-3" 19.60000 "Sandstone"  "Shale" -999.25       80.0000 20.00000      0.0 "vc"       "c"        "Proximale_munningsbanker,_preget_av_periodisk_sterk_fluvial_tilforsel._Ingen_tydelige_tegn_pa_tidevanns-prosesser_her._Strandbearbeiding_I_toppen."                           "Proximal_delta_front"                                             
2651.1 "6507_11-3" 21.03000 "Sandstone"  "Shale" -999.25       80.0000 20.00000      0.0 "vc"       "c"        "Proximale_munningsbanker,_preget_av_periodisk_sterk_fluvial_tilforsel._Ingen_tydelige_tegn_pa_tidevanns-prosesser_her._Strandbearbeiding_I_toppen."                           "Proximal_delta_front"                                             
2651.2 "6507_11-3" 22.22000 "Sandstone"  "Shale" -999.25       80.0000 20.00000      0.0 "vc"       "c"        "Proximale_munningsbanker,_preget_av_periodisk_sterk_fluvial_tilforsel._Ingen_tydelige_tegn_pa_tidevanns-prosesser_her._Strandbearbeiding_I_toppen."                           "Proximal_delta_front"                                             
2651.3 "6507_11-3" 23.39000 "Sandstone"  "Shale" -999.25       80.0000 20.00000      0.0 "vc"       "c"        "Proximale_munningsbanker,_preget_av_periodisk_sterk_fluvial_tilforsel._Ingen_tydelige_tegn_pa_tidevanns-prosesser_her._Strandbearbeiding_I_toppen."                           "Proximal_delta_front"                                             
