~Version
VERS  .                                 3.0 : CWLS LAS ASCII Standard - Version 3.0
WRAP  . NO                                  : One line per depth step
DLM   . SPACE                               : Column data section delimiter
SOURCE. Converted to LAS by Log Studio 4.76 : GeoProvider

~Well
STRT.         2426.0 : Start depth
STOP.         2677.5 : Stop depth
STEP.              1 : Step
NULL.        -999.25 : No-value
COMP.                : Company
WELL. 6507/11-3      : Well
FLD .                : Field
LOC .                : Location
LATI.                : Latitude
LONG.                : Longitude
GDAT.                : Geodetic datum
CNTY.                : County
STAT.                : State
CTRY.                : Country
SRVC. GeoProvider AS : Service company
DATE.                : Date
API .                : API number
RUN .                : Run number

~Parameters
WellboreName.  : Wellbore name
RigName     .  : Rig name
StartDate   .  : Start date

~Curves
DEPTH.m            .  : null {F}Depth mMD
Hole_ID.-          .  : null {S}Hole ID
GR.API             .  : null {F}Gamma Ray
Lithology1.-       .  : null {S}Lithology 1
Lithology2.-       .  : null {S}Lithology 2
Lithology3.-       .  : null {S}Lithology 3
Lithology1.%       .  : null {F}Lithology 1 percentage
Lithology2.%       .  : null {F}Lithology 2 percentage
Lithology3.%       .  : null {F}Lithology 3 percentage
Grain_size_Top.-   .  : null {S}Grain size at the top 
Grain_size_Base.-  .  : null {S}Grain size at the bottom
Sub_Environment.-  .  : null {S}Sub Environment
Gross_Environment.-.  : null {S}Gross Environment

~Ascii
# ...
2527.2 "6507_11-3" 32.14000 "Sandstone"  "Shale" -999.25       85.0000 15.00000      0.0 "c"        "c"        "?_Estuarie"                                                                                                                                                                   "Tidevannsdeltaslette"                                             
2527.3 "6507_11-3" 31.03000 "Sandstone"  "Shale" -999.25       85.0000 15.00000      0.0 "c"        "c"        "?_Estuarie"                                                                                                                                                                   "Tidevannsdeltaslette"                                             
2527.4 "6507_11-3" 29.92000 "Sandstone"  "Shale" -999.25       85.0000 15.00000      0.0 "c"        "c"        "?_Estuarie"                                                                                                                                                                   "Tidevannsdeltaslette"                                             
2527.5 "6507_11-3" 28.51000 "Sandstone"  "Shale" -999.25       85.0000 15.00000      0.0 "c"        "c"        "?_Estuarie"                                                                                                                                                                   "Tidevannsdeltaslette"                                             
2527.6 "6507_11-3" 27.01000 "Sandstone"  "Shale" -999.25       85.0000 15.00000      0.0 "c"        "c"        "?_Estuarie"                                                                                                                                                                   "Tidevannsdeltaslette"                                             
2527.7 "6507_11-3" 25.51000 "Sandstone"  "Shale" -999.25       85.0000 15.00000      0.0 "c"        "c"        "?_Estuarie"                                                                                                                                                                   "Tidevannsdeltaslette"                                             
2527.8 "6507_11-3" 24.44000 "Sandstone"  "Shale" -999.25       85.0000 15.00000      0.0 "c"        "c"        "?_Estuarie"                                                                                                                                                                   "Tidevannsdeltaslette"                                             
2527.9 "6507_11-3" 23.64000 "Sandstone"  "Shale" -999.25       85.0000 15.00000      0.0 "c"        "c"        "?_Estuarie"                                                                                                                                                                   "Tidevannsdeltaslette"                                             
2528.0 "6507_11-3" 22.83000 "Sandstone"  "Shale" -999.25       85.0000 15.00000      0.0 "c"        "c"        "?_Estuarie"                                                                                                                                                                   "Tidevannsdeltaslette"                                             
2528.1 "6507_11-3" 22.02000 "Sandstone"  "Shale" -999.25       85.0000 15.00000      0.0 "c"        "c"        "?_Estuarie"                                                                                                                                                                   "Tidevannsdeltaslette"                                             
2528.2 "6507_11-3" 22.21000 "Sandstone"  "Shale" -999.25       85.0000 15.00000      0.0 "c"        "c"        "?_Estuarie"                                                                                                                                                                   "Tidevannsdeltaslette"                                             
2528.3 "6507_11-3" 22.67000 "Sandstone"  "Shale" -999.25       85.0000 15.00000      0.0 "c"        "c"        "?_Estuarie"                                                                                                                                                                   "Tidevannsdeltaslette"                                             
2528.4 "6507_11-3" 23.32000 "Sandstone"  "Shale" -999.25       85.0000 15.00000      0.0 "c"        "c"        "?_Estuarie"                                                                                                                                                                   "Tidevannsdeltaslette"                                             
2528.5 "6507_11-3" 24.69000 "Sandstone"  "Shale" -999.25       85.0000 15.00000      0.0 "c"        "c"        "?_Estuarie"                                                                                                                                                                   "Tidevannsdeltaslette"                                             
2528.6 "6507_11-3" 25.19000 "Sandstone"  "Shale" -999.25       85.0000 15.00000      0.0 "c"        "c"        "?_Estuarie"                                                                                                                                                                   "Tidevannsdeltaslette"                                             
2528.7 "6507_11-3" 25.15000 "Sandstone"  "Shale" -999.25       85.0000 15.00000      0.0 "c"        "c"        "?_Estuarie"                                                                                                                                                                   "Tidevannsdeltaslette"                                             
2528.8 "6507_11-3" 24.90000 "Sandstone"  "Shale" -999.25       85.0000 15.00000      0.0 "c"        "c"        "?_Estuarie"                                                                                                                                                                   "Tidevannsdeltaslette"                                             
2528.9 "6507_11-3" 24.65000 "Sandstone"  "Shale" -999.25       85.0000 15.00000      0.0 "c"        "c"        "?_Estuarie"                                                                                                                                                                   "Tidevannsdeltaslette"                                             
2529.0 "6507_11-3" 24.40000 "Sandstone"  "Shale" -999.25       85.0000 15.00000      0.0 "c"        "c"        "?_Estuarie"                                                                                                                                                                   "Tidevannsdeltaslette"                                             
2529.1 "6507_11-3" 24.15000 "Sandstone"  "Shale" -999.25       85.0000 15.00000      0.0 "c"        "c"        "?_Estuarie"                                                                                                                                                                   "Tidevannsdeltaslette"                                             
2529.2 "6507_11-3" 23.90000 "Sandstone"  "Shale" -999.25       85.0000 15.00000      0.0 "c"        "c"        "?_Estuarie"                                                                                                                                                                   "Tidevannsdeltaslette"                                             
2529.3 "6507_11-3" 23.79000 "Sandstone"  "Shale" -999.25       85.0000 15.00000      0.0 "c"        "c"        "?_Estuarie"                                                                                                                                                                   "Tidevannsdeltaslette"                                             
2529.4 "6507_11-3" 23.74000 "Sandstone"  "Shale" -999.25       85.0000 15.00000      0.0 "c"        "c"        "?_Estuarie"                                                                                                                                                                   "Tidevannsdeltaslette"                                             
