~Version
VERS  .                                 3.0 : CWLS LAS ASCII Standard - Version 3.0
WRAP  . NO                                  : One line per depth step
DLM   . SPACE                               : Column data section delimiter
SOURCE. Converted to LAS by Log Studio 4.76 : GeoProvider

~Well
STRT.         2426.0 : Start depth
STOP.         2677.5 : Stop depth
STEP.              1 : Step
NULL.        -999.25 : No-value
COMP.                : Company
WELL. 6507/11-3      : Well
FLD .                : Field
LOC .                : Location
LATI.                : Latitude
LONG.                : Longitude
GDAT.                : Geodetic datum
CNTY.                : County
STAT.                : State
CTRY.                : Country
SRVC. GeoProvider AS : Service company
DATE.                : Date
API .                : API number
RUN .                : Run number

~Parameters
WellboreName.  : Wellbore name
RigName     .  : Rig name
StartDate   .  : Start date

~Curves
DEPTH.m            .  : null {F}Depth mMD
Hole_ID.-          .  : null {S}Hole ID
GR.API             .  : null {F}Gamma Ray
Lithology1.-       .  : null {S}Lithology 1
Lithology2.-       .  : null {S}Lithology 2
Lithology3.-       .  : null {S}Lithology 3
Lithology1.%       .  : null {F}Lithology 1 percentage
Lithology2.%       .  : null {F}Lithology 2 percentage
Lithology3.%       .  : null {F}Lithology 3 percentage
Grain_size_Top.-   .  : null {S}Grain size at the top 
Grain_size_Base.-  .  : null {S}Grain size at the bottom
Sub_Environment.-  .  : null {S}Sub Environment
Gross_Environment.-.  : null {S}Gross Environment

~Ascii
# ...
2453.6 "6507_11-3" 18.67000 "Sandstone"  -999.25 -999.25      100.0000      0.0      0.0 "vc"       "vf"       "Meget_homogen_'foreshore'_-_sekvens,_dominert_av_bolgeprosesser._Sterk_komponent_av_vertikal_oppbyggning_samt_'skjult'_syklisitet_forklarer_trolig_den_ensartede_utviklingen._" "Hoy-energi_grunnmarin_sekvens_(?delta_front)"                     
2453.7 "6507_11-3" 18.34000 "Sandstone"  -999.25 -999.25      100.0000      0.0      0.0 "vc"       "vf"       "Meget_homogen_'foreshore'_-_sekvens,_dominert_av_bolgeprosesser._Sterk_komponent_av_vertikal_oppbyggning_samt_'skjult'_syklisitet_forklarer_trolig_den_ensartede_utviklingen._" "Hoy-energi_grunnmarin_sekvens_(?delta_front)"                     
2453.8 "6507_11-3" 18.01000 "Sandstone"  -999.25 -999.25      100.0000      0.0      0.0 "vc"       "vf"       "Meget_homogen_'foreshore'_-_sekvens,_dominert_av_bolgeprosesser._Sterk_komponent_av_vertikal_oppbyggning_samt_'skjult'_syklisitet_forklarer_trolig_den_ensartede_utviklingen._" "Hoy-energi_grunnmarin_sekvens_(?delta_front)"                     
2453.9 "6507_11-3" 17.66000 "Sandstone"  -999.25 -999.25      100.0000      0.0      0.0 "vc"       "vf"       "Meget_homogen_'foreshore'_-_sekvens,_dominert_av_bolgeprosesser._Sterk_komponent_av_vertikal_oppbyggning_samt_'skjult'_syklisitet_forklarer_trolig_den_ensartede_utviklingen._" "Hoy-energi_grunnmarin_sekvens_(?delta_front)"                     
2454.0 "6507_11-3" 17.17000 "Sandstone"  -999.25 -999.25      100.0000      0.0      0.0 "vc"       "vf"       "Meget_homogen_'foreshore'_-_sekvens,_dominert_av_bolgeprosesser._Sterk_komponent_av_vertikal_oppbyggning_samt_'skjult'_syklisitet_forklarer_trolig_den_ensartede_utviklingen._" "Hoy-energi_grunnmarin_sekvens_(?delta_front)"                     
2454.1 "6507_11-3" 16.67000 "Sandstone"  -999.25 -999.25      100.0000      0.0      0.0 "vc"       "vf"       "Meget_homogen_'foreshore'_-_sekvens,_dominert_av_bolgeprosesser._Sterk_komponent_av_vertikal_oppbyggning_samt_'skjult'_syklisitet_forklarer_trolig_den_ensartede_utviklingen._" "Hoy-energi_grunnmarin_sekvens_(?delta_front)"                     
2454.2 "6507_11-3" 16.18000 "Sandstone"  -999.25 -999.25      100.0000      0.0      0.0 "vc"       "vf"       "Meget_homogen_'foreshore'_-_sekvens,_dominert_av_bolgeprosesser._Sterk_komponent_av_vertikal_oppbyggning_samt_'skjult'_syklisitet_forklarer_trolig_den_ensartede_utviklingen._" "Hoy-energi_grunnmarin_sekvens_(?delta_front)"                     
2454.3 "6507_11-3" 16.32000 "Sandstone"  -999.25 -999.25      100.0000      0.0      0.0 "vc"       "vf"       "Meget_homogen_'foreshore'_-_sekvens,_dominert_av_bolgeprosesser._Sterk_komponent_av_vertikal_oppbyggning_samt_'skjult'_syklisitet_forklarer_trolig_den_ensartede_utviklingen._" "Hoy-energi_grunnmarin_sekvens_(?delta_front)"                     
2454.4 "6507_11-3" 17.17000 "Sandstone"  -999.25 -999.25      100.0000      0.0      0.0 "vc"       "vf"       "Meget_homogen_'foreshore'_-_sekvens,_dominert_av_bolgeprosesser._Sterk_komponent_av_vertikal_oppbyggning_samt_'skjult'_syklisitet_forklarer_trolig_den_ensartede_utviklingen._" "Hoy-energi_grunnmarin_sekvens_(?delta_front)"                     
2454.5 "6507_11-3" 18.01000 "Sandstone"  -999.25 -999.25      100.0000      0.0      0.0 "vc"       "vf"       "Meget_homogen_'foreshore'_-_sekvens,_dominert_av_bolgeprosesser._Sterk_komponent_av_vertikal_oppbyggning_samt_'skjult'_syklisitet_forklarer_trolig_den_ensartede_utviklingen._" "Hoy-energi_grunnmarin_sekvens_(?delta_front)"                     
2454.6 "6507_11-3" 18.51000 "Sandstone"  -999.25 -999.25      100.0000      0.0      0.0 "vc"       "vf"       "Meget_homogen_'foreshore'_-_sekvens,_dominert_av_bolgeprosesser._Sterk_komponent_av_vertikal_oppbyggning_samt_'skjult'_syklisitet_forklarer_trolig_den_ensartede_utviklingen._" "Hoy-energi_grunnmarin_sekvens_(?delta_front)"                     
2454.7 "6507_11-3" 18.76000 "Sandstone"  -999.25 -999.25      100.0000      0.0      0.0 "vc"       "vf"       "Meget_homogen_'foreshore'_-_sekvens,_dominert_av_bolgeprosesser._Sterk_komponent_av_vertikal_oppbyggning_samt_'skjult'_syklisitet_forklarer_trolig_den_ensartede_utviklingen._" "Hoy-energi_grunnmarin_sekvens_(?delta_front)"                     
2454.8 "6507_11-3" 19.01000 "Sandstone"  -999.25 -999.25      100.0000      0.0      0.0 "vc"       "vf"       "Meget_homogen_'foreshore'_-_sekvens,_dominert_av_bolgeprosesser._Sterk_komponent_av_vertikal_oppbyggning_samt_'skjult'_syklisitet_forklarer_trolig_den_ensartede_utviklingen._" "Hoy-energi_grunnmarin_sekvens_(?delta_front)"                     
2454.9 "6507_11-3" 19.13000 "Sandstone"  -999.25 -999.25      100.0000      0.0      0.0 "vc"       "vf"       "Meget_homogen_'foreshore'_-_sekvens,_dominert_av_bolgeprosesser._Sterk_komponent_av_vertikal_oppbyggning_samt_'skjult'_syklisitet_forklarer_trolig_den_ensartede_utviklingen._" "Hoy-energi_grunnmarin_sekvens_(?delta_front)"                     
2455.0 "6507_11-3" 18.72000 "Sandstone"  -999.25 -999.25      100.0000      0.0      0.0 "vc"       "vf"       "Meget_homogen_'foreshore'_-_sekvens,_dominert_av_bolgeprosesser._Sterk_komponent_av_vertikal_oppbyggning_samt_'skjult'_syklisitet_forklarer_trolig_den_ensartede_utviklingen._" "Hoy-energi_grunnmarin_sekvens_(?delta_front)"                     
2455.1 "6507_11-3" 18.31000 "Sandstone"  -999.25 -999.25      100.0000      0.0      0.0 "vc"       "vf"       "Meget_homogen_'foreshore'_-_sekvens,_dominert_av_bolgeprosesser._Sterk_komponent_av_vertikal_oppbyggning_samt_'skjult'_syklisitet_forklarer_trolig_den_ensartede_utviklingen._" "Hoy-energi_grunnmarin_sekvens_(?delta_front)"                     
2455.2 "6507_11-3" 17.90000 "Sandstone"  -999.25 -999.25      100.0000      0.0      0.0 "vc"       "vf"       "HAVNIVA_FALL"                                                                                                                                                                 "Hoy-energi_grunnmarin_sekvens_(?delta_front)"                     
2455.3 "6507_11-3" 17.50000 "Sandstone"  -999.25 -999.25      100.0000      0.0      0.0 "vc"       "vf"       "HAVNIVA_FALL"                                                                                                                                                                 "Hoy-energi_grunnmarin_sekvens_(?delta_front)"                     
2455.4 "6507_11-3" 17.09000 "Sandstone"  -999.25 -999.25      100.0000      0.0      0.0 "vc"       "vf"       "HAVNIVA_FALL"                                                                                                                                                                 "Hoy-energi_grunnmarin_sekvens_(?delta_front)"                     
2455.5 "6507_11-3" 16.71000 "Sandstone"  -999.25 -999.25      100.0000      0.0      0.0 "vc"       "vf"       "HAVNIVA_FALL"                                                                                                                                                                 "Hoy-energi_grunnmarin_sekvens_(?delta_front)"                     
2455.6 "6507_11-3" 16.36000 "Sandstone"  -999.25 -999.25      100.0000      0.0      0.0 "vc"       "vf"       "HAVNIVA_FALL"                                                                                                                                                                 "Hoy-energi_grunnmarin_sekvens_(?delta_front)"                     
2455.7 "6507_11-3" 16.01000 "Sandstone"  -999.25 -999.25      100.0000      0.0      0.0 "vc"       "vf"       "HAVNIVA_FALL"                                                                                                                                                                 "Hoy-energi_grunnmarin_sekvens_(?delta_front)"                     
2455.8 "6507_11-3" 15.67000 "Sandstone"  "Shale" -999.25       70.0000 30.00000      0.0 "vf/f"     "vf"       "Marin_oppgrunn-ingssekvens,_fra_dypmarin_suspen-sjonsutfelt_leire_til_midtre_strandskraning_med_bioturbert_muddy_sand._"                                                      "Apen_marint_miljo"                                                
