~Version
VERS  .                                 3.0 : CWLS LAS ASCII Standard - Version 3.0
WRAP  . NO                                  : One line per depth step
DLM   . SPACE                               : Column data section delimiter
SOURCE. Converted to LAS by Log Studio 4.76 : GeoProvider

~Well
STRT.         2426.0 : Start depth
STOP.         2677.5 : Stop depth
STEP.              1 : Step
NULL.        -999.25 : No-value
COMP.                : Company
WELL. 6507/11-3      : Well
FLD .                : Field
LOC .                : Location
LATI.                : Latitude
LONG.                : Longitude
GDAT.                : Geodetic datum
CNTY.                : County
STAT.                : State
CTRY.                : Country
SRVC. GeoProvider AS : Service company
DATE.                : Date
API .                : API number
RUN .                : Run number

~Parameters
WellboreName.  : Wellbore name
RigName     .  : Rig name
StartDate   .  : Start date

~Curves
DEPTH.m            .  : null {F}Depth mMD
Hole_ID.-          .  : null {S}Hole ID
GR.API             .  : null {F}Gamma Ray
Lithology1.-       .  : null {S}Lithology 1
Lithology2.-       .  : null {S}Lithology 2
Lithology3.-       .  : null {S}Lithology 3
Lithology1.%       .  : null {F}Lithology 1 percentage
Lithology2.%       .  : null {F}Lithology 2 percentage
Lithology3.%       .  : null {F}Lithology 3 percentage
Grain_size_Top.-   .  : null {S}Grain size at the top 
Grain_size_Base.-  .  : null {S}Grain size at the bottom
Sub_Environment.-  .  : null {S}Sub Environment
Gross_Environment.-.  : null {S}Gross Environment

~Ascii
# ...
2435.2 "6507_11-3" 19.89000 "Sandstone"  -999.25 -999.25      100.0000      0.0      0.0 "vc"       "vf"       "Meget_homogen_'foreshore'_-_sekvens,_dominert_av_bolgeprosesser._Sterk_komponent_av_vertikal_oppbyggning_samt_'skjult'_syklisitet_forklarer_trolig_den_ensartede_utviklingen._" "Hoy-energi_grunnmarin_sekvens_(?delta_front)"                     
2435.3 "6507_11-3" 19.93000 "Sandstone"  -999.25 -999.25      100.0000      0.0      0.0 "vc"       "vf"       "Meget_homogen_'foreshore'_-_sekvens,_dominert_av_bolgeprosesser._Sterk_komponent_av_vertikal_oppbyggning_samt_'skjult'_syklisitet_forklarer_trolig_den_ensartede_utviklingen._" "Hoy-energi_grunnmarin_sekvens_(?delta_front)"                     
2435.4 "6507_11-3" 19.96000 "Sandstone"  -999.25 -999.25      100.0000      0.0      0.0 "vc"       "vf"       "Meget_homogen_'foreshore'_-_sekvens,_dominert_av_bolgeprosesser._Sterk_komponent_av_vertikal_oppbyggning_samt_'skjult'_syklisitet_forklarer_trolig_den_ensartede_utviklingen._" "Hoy-energi_grunnmarin_sekvens_(?delta_front)"                     
2435.5 "6507_11-3" 19.89000 "Sandstone"  -999.25 -999.25      100.0000      0.0      0.0 "vc"       "vf"       "Meget_homogen_'foreshore'_-_sekvens,_dominert_av_bolgeprosesser._Sterk_komponent_av_vertikal_oppbyggning_samt_'skjult'_syklisitet_forklarer_trolig_den_ensartede_utviklingen._" "Hoy-energi_grunnmarin_sekvens_(?delta_front)"                     
2435.6 "6507_11-3" 19.82000 "Sandstone"  -999.25 -999.25      100.0000      0.0      0.0 "vc"       "vf"       "Meget_homogen_'foreshore'_-_sekvens,_dominert_av_bolgeprosesser._Sterk_komponent_av_vertikal_oppbyggning_samt_'skjult'_syklisitet_forklarer_trolig_den_ensartede_utviklingen._" "Hoy-energi_grunnmarin_sekvens_(?delta_front)"                     
2435.7 "6507_11-3" 19.61000 "Sandstone"  -999.25 -999.25      100.0000      0.0      0.0 "vc"       "vf"       "Meget_homogen_'foreshore'_-_sekvens,_dominert_av_bolgeprosesser._Sterk_komponent_av_vertikal_oppbyggning_samt_'skjult'_syklisitet_forklarer_trolig_den_ensartede_utviklingen._" "Hoy-energi_grunnmarin_sekvens_(?delta_front)"                     
2435.8 "6507_11-3" 19.15000 "Sandstone"  -999.25 -999.25      100.0000      0.0      0.0 "vc"       "vf"       "Meget_homogen_'foreshore'_-_sekvens,_dominert_av_bolgeprosesser._Sterk_komponent_av_vertikal_oppbyggning_samt_'skjult'_syklisitet_forklarer_trolig_den_ensartede_utviklingen._" "Hoy-energi_grunnmarin_sekvens_(?delta_front)"                     
2435.9 "6507_11-3" 18.69000 "Sandstone"  -999.25 -999.25      100.0000      0.0      0.0 "vc"       "vf"       "Meget_homogen_'foreshore'_-_sekvens,_dominert_av_bolgeprosesser._Sterk_komponent_av_vertikal_oppbyggning_samt_'skjult'_syklisitet_forklarer_trolig_den_ensartede_utviklingen._" "Hoy-energi_grunnmarin_sekvens_(?delta_front)"                     
2436.0 "6507_11-3" 18.13000 "Sandstone"  -999.25 -999.25      100.0000      0.0      0.0 "vc"       "vf"       "Meget_homogen_'foreshore'_-_sekvens,_dominert_av_bolgeprosesser._Sterk_komponent_av_vertikal_oppbyggning_samt_'skjult'_syklisitet_forklarer_trolig_den_ensartede_utviklingen._" "Hoy-energi_grunnmarin_sekvens_(?delta_front)"                     
2436.1 "6507_11-3" 17.52000 "Sandstone"  -999.25 -999.25      100.0000      0.0      0.0 "vc"       "vf"       "Meget_homogen_'foreshore'_-_sekvens,_dominert_av_bolgeprosesser._Sterk_komponent_av_vertikal_oppbyggning_samt_'skjult'_syklisitet_forklarer_trolig_den_ensartede_utviklingen._" "Hoy-energi_grunnmarin_sekvens_(?delta_front)"                     
2436.2 "6507_11-3" 17.13000 "Sandstone"  -999.25 -999.25      100.0000      0.0      0.0 "vc"       "vf"       "Meget_homogen_'foreshore'_-_sekvens,_dominert_av_bolgeprosesser._Sterk_komponent_av_vertikal_oppbyggning_samt_'skjult'_syklisitet_forklarer_trolig_den_ensartede_utviklingen._" "Hoy-energi_grunnmarin_sekvens_(?delta_front)"                     
2436.3 "6507_11-3" 16.94000 "Sandstone"  -999.25 -999.25      100.0000      0.0      0.0 "vc"       "vf"       "Meget_homogen_'foreshore'_-_sekvens,_dominert_av_bolgeprosesser._Sterk_komponent_av_vertikal_oppbyggning_samt_'skjult'_syklisitet_forklarer_trolig_den_ensartede_utviklingen._" "Hoy-energi_grunnmarin_sekvens_(?delta_front)"                     
2436.4 "6507_11-3" 16.74000 "Sandstone"  -999.25 -999.25      100.0000      0.0      0.0 "vc"       "vf"       "Meget_homogen_'foreshore'_-_sekvens,_dominert_av_bolgeprosesser._Sterk_komponent_av_vertikal_oppbyggning_samt_'skjult'_syklisitet_forklarer_trolig_den_ensartede_utviklingen._" "Hoy-energi_grunnmarin_sekvens_(?delta_front)"                     
2436.5 "6507_11-3" 16.54000 "Sandstone"  -999.25 -999.25      100.0000      0.0      0.0 "vc"       "vf"       "Meget_homogen_'foreshore'_-_sekvens,_dominert_av_bolgeprosesser._Sterk_komponent_av_vertikal_oppbyggning_samt_'skjult'_syklisitet_forklarer_trolig_den_ensartede_utviklingen._" "Hoy-energi_grunnmarin_sekvens_(?delta_front)"                     
2436.6 "6507_11-3" 16.95000 "Sandstone"  -999.25 -999.25      100.0000      0.0      0.0 "vc"       "vf"       "Meget_homogen_'foreshore'_-_sekvens,_dominert_av_bolgeprosesser._Sterk_komponent_av_vertikal_oppbyggning_samt_'skjult'_syklisitet_forklarer_trolig_den_ensartede_utviklingen._" "Hoy-energi_grunnmarin_sekvens_(?delta_front)"                     
2436.7 "6507_11-3" 17.65000 "Sandstone"  -999.25 -999.25      100.0000      0.0      0.0 "vc"       "vf"       "Meget_homogen_'foreshore'_-_sekvens,_dominert_av_bolgeprosesser._Sterk_komponent_av_vertikal_oppbyggning_samt_'skjult'_syklisitet_forklarer_trolig_den_ensartede_utviklingen._" "Hoy-energi_grunnmarin_sekvens_(?delta_front)"                     
2436.8 "6507_11-3" 18.34000 "Sandstone"  -999.25 -999.25      100.0000      0.0      0.0 "vc"       "vf"       "Meget_homogen_'foreshore'_-_sekvens,_dominert_av_bolgeprosesser._Sterk_komponent_av_vertikal_oppbyggning_samt_'skjult'_syklisitet_forklarer_trolig_den_ensartede_utviklingen._" "Hoy-energi_grunnmarin_sekvens_(?delta_front)"                     
2436.9 "6507_11-3" 18.60000 "Sandstone"  -999.25 -999.25      100.0000      0.0      0.0 "vc"       "vf"       "Meget_homogen_'foreshore'_-_sekvens,_dominert_av_bolgeprosesser._Sterk_komponent_av_vertikal_oppbyggning_samt_'skjult'_syklisitet_forklarer_trolig_den_ensartede_utviklingen._" "Hoy-energi_grunnmarin_sekvens_(?delta_front)"                     
2437.0 "6507_11-3" 18.51000 "Sandstone"  -999.25 -999.25      100.0000      0.0      0.0 "vc"       "vf"       "Meget_homogen_'foreshore'_-_sekvens,_dominert_av_bolgeprosesser._Sterk_komponent_av_vertikal_oppbyggning_samt_'skjult'_syklisitet_forklarer_trolig_den_ensartede_utviklingen._" "Hoy-energi_grunnmarin_sekvens_(?delta_front)"                     
2437.1 "6507_11-3" 18.42000 "Sandstone"  -999.25 -999.25      100.0000      0.0      0.0 "vc"       "vf"       "Meget_homogen_'foreshore'_-_sekvens,_dominert_av_bolgeprosesser._Sterk_komponent_av_vertikal_oppbyggning_samt_'skjult'_syklisitet_forklarer_trolig_den_ensartede_utviklingen._" "Hoy-energi_grunnmarin_sekvens_(?delta_front)"                     
2437.2 "6507_11-3" 18.42000 "Sandstone"  -999.25 -999.25      100.0000      0.0      0.0 "vc"       "vf"       "Meget_homogen_'foreshore'_-_sekvens,_dominert_av_bolgeprosesser._Sterk_komponent_av_vertikal_oppbyggning_samt_'skjult'_syklisitet_forklarer_trolig_den_ensartede_utviklingen._" "Hoy-energi_grunnmarin_sekvens_(?delta_front)"                     
2437.3 "6507_11-3" 18.54000 "Limestone"  -999.25 -999.25      100.0000      0.0      0.0 "vc"       "vc"       "Meget_homogen_'foreshore'_-_sekvens,_dominert_av_bolgeprosesser._Sterk_komponent_av_vertikal_oppbyggning_samt_'skjult'_syklisitet_forklarer_trolig_den_ensartede_utviklingen._" "Hoy-energi_grunnmarin_sekvens_(?delta_front)"                     
2437.4 "6507_11-3" 18.66000 "Limestone"  -999.25 -999.25      100.0000      0.0      0.0 "vc"       "vc"       "Meget_homogen_'foreshore'_-_sekvens,_dominert_av_bolgeprosesser._Sterk_komponent_av_vertikal_oppbyggning_samt_'skjult'_syklisitet_forklarer_trolig_den_ensartede_utviklingen._" "Hoy-energi_grunnmarin_sekvens_(?delta_front)"                     
