~Version
VERS  .                                 3.0 : CWLS LAS ASCII Standard - Version 3.0
WRAP  . NO                                  : One line per depth step
DLM   . SPACE                               : Column data section delimiter
SOURCE. Converted to LAS by Log Studio 4.76 : GeoProvider

~Well
STRT.         2426.0 : Start depth
STOP.         2677.5 : Stop depth
STEP.              1 : Step
NULL.        -999.25 : No-value
COMP.                : Company
WELL. 6507/11-3      : Well
FLD .                : Field
LOC .                : Location
LATI.                : Latitude
LONG.                : Longitude
GDAT.                : Geodetic datum
CNTY.                : County
STAT.                : State
CTRY.                : Country
SRVC. GeoProvider AS : Service company
DATE.                : Date
API .                : API number
RUN .                : Run number

~Parameters
WellboreName.  : Wellbore name
RigName     .  : Rig name
StartDate   .  : Start date

~Curves
DEPTH.m            .  : null {F}Depth mMD
Hole_ID.-          .  : null {S}Hole ID
GR.API             .  : null {F}Gamma Ray
Lithology1.-       .  : null {S}Lithology 1
Lithology2.-       .  : null {S}Lithology 2
Lithology3.-       .  : null {S}Lithology 3
Lithology1.%       .  : null {F}Lithology 1 percentage
Lithology2.%       .  : null {F}Lithology 2 percentage
Lithology3.%       .  : null {F}Lithology 3 percentage
Grain_size_Top.-   .  : null {S}Grain size at the top 
Grain_size_Base.-  .  : null {S}Grain size at the bottom
Sub_Environment.-  .  : null {S}Sub Environment
Gross_Environment.-.  : null {S}Gross Environment

~Ascii
# ...
2462.8 "6507_11-3" 40.48000 "Sandstone"  "Shale" -999.25        8.0000 92.00000      0.0 "vf/f"     "vf/f"     "Marin_oppgrunn-ingssekvens,_fra_dypmarin_suspen-sjonsutfelt_leire_til_midtre_strandskraning_med_bioturbert_muddy_sand._"                                                      "Apen_marint_miljo"                                                
2462.9 "6507_11-3" 40.48000 "Sandstone"  "Shale" -999.25        8.0000 92.00000      0.0 "vf/f"     "vf/f"     "Marin_oppgrunn-ingssekvens,_fra_dypmarin_suspen-sjonsutfelt_leire_til_midtre_strandskraning_med_bioturbert_muddy_sand._"                                                      "Apen_marint_miljo"                                                
2463.0 "6507_11-3" 39.61000 "Sandstone"  "Shale" -999.25        8.0000 92.00000      0.0 "vf/f"     "vf/f"     "Marin_oppgrunn-ingssekvens,_fra_dypmarin_suspen-sjonsutfelt_leire_til_midtre_strandskraning_med_bioturbert_muddy_sand._"                                                      "Apen_marint_miljo"                                                
2463.1 "6507_11-3" 38.51000 "Sandstone"  "Shale" -999.25        8.0000 92.00000      0.0 "vf/f"     "vf/f"     "Marin_oppgrunn-ingssekvens,_fra_dypmarin_suspen-sjonsutfelt_leire_til_midtre_strandskraning_med_bioturbert_muddy_sand._"                                                      "Apen_marint_miljo"                                                
2463.2 "6507_11-3" 37.41000 "Sandstone"  "Shale" -999.25        8.0000 92.00000      0.0 "vf/f"     "vf/f"     "Marin_oppgrunn-ingssekvens,_fra_dypmarin_suspen-sjonsutfelt_leire_til_midtre_strandskraning_med_bioturbert_muddy_sand._"                                                      "Apen_marint_miljo"                                                
2463.3 "6507_11-3" 36.31000 "Sandstone"  "Shale" -999.25        8.0000 92.00000      0.0 "vf/f"     "vf/f"     "Marin_oppgrunn-ingssekvens,_fra_dypmarin_suspen-sjonsutfelt_leire_til_midtre_strandskraning_med_bioturbert_muddy_sand._"                                                      "Apen_marint_miljo"                                                
2463.4 "6507_11-3" 35.21000 "Limestone"  -999.25 -999.25      100.0000      0.0      0.0 "vf/f"     "vf/f"     "Marin_oppgrunn-ingssekvens,_fra_dypmarin_suspen-sjonsutfelt_leire_til_midtre_strandskraning_med_bioturbert_muddy_sand._"                                                      "Apen_marint_miljo"                                                
2463.5 "6507_11-3" 34.53000 "Limestone"  -999.25 -999.25      100.0000      0.0      0.0 "vf/f"     "vf/f"     "Marin_oppgrunn-ingssekvens,_fra_dypmarin_suspen-sjonsutfelt_leire_til_midtre_strandskraning_med_bioturbert_muddy_sand._"                                                      "Apen_marint_miljo"                                                
2463.6 "6507_11-3" 35.54000 "Sandstone"  "Shale" -999.25        3.0000 97.00000      0.0 "vf/f"     "vf/f"     "Marin_oppgrunn-ingssekvens,_fra_dypmarin_suspen-sjonsutfelt_leire_til_midtre_strandskraning_med_bioturbert_muddy_sand._"                                                      "Apen_marint_miljo"                                                
2463.7 "6507_11-3" 36.55000 "Sandstone"  "Shale" -999.25        3.0000 97.00000      0.0 "vf/f"     "vf/f"     "Marin_oppgrunn-ingssekvens,_fra_dypmarin_suspen-sjonsutfelt_leire_til_midtre_strandskraning_med_bioturbert_muddy_sand._"                                                      "Apen_marint_miljo"                                                
2463.8 "6507_11-3" 37.77000 "Sandstone"  "Shale" -999.25        3.0000 97.00000      0.0 "vf/f"     "vf/f"     "Marin_oppgrunn-ingssekvens,_fra_dypmarin_suspen-sjonsutfelt_leire_til_midtre_strandskraning_med_bioturbert_muddy_sand._"                                                      "Apen_marint_miljo"                                                
2463.9 "6507_11-3" 39.36000 "Sandstone"  "Shale" -999.25        3.0000 97.00000      0.0 "vf/f"     "vf/f"     "Marin_oppgrunn-ingssekvens,_fra_dypmarin_suspen-sjonsutfelt_leire_til_midtre_strandskraning_med_bioturbert_muddy_sand._"                                                      "Apen_marint_miljo"                                                
2464.0 "6507_11-3" 40.96000 "Sandstone"  "Shale" -999.25        3.0000 97.00000      0.0 "vf/f"     "vf/f"     "Marin_oppgrunn-ingssekvens,_fra_dypmarin_suspen-sjonsutfelt_leire_til_midtre_strandskraning_med_bioturbert_muddy_sand._"                                                      "Apen_marint_miljo"                                                
2464.1 "6507_11-3" 42.11000 "Sandstone"  "Shale" -999.25        3.0000 97.00000      0.0 "vf/f"     "vf/f"     "Marin_oppgrunn-ingssekvens,_fra_dypmarin_suspen-sjonsutfelt_leire_til_midtre_strandskraning_med_bioturbert_muddy_sand._"                                                      "Apen_marint_miljo"                                                
2464.2 "6507_11-3" 41.84000 "Sandstone"  "Shale" -999.25        3.0000 97.00000      0.0 "vf/f"     "vf/f"     "Marin_oppgrunn-ingssekvens,_fra_dypmarin_suspen-sjonsutfelt_leire_til_midtre_strandskraning_med_bioturbert_muddy_sand._"                                                      "Apen_marint_miljo"                                                
2464.3 "6507_11-3" 41.57000 "Sandstone"  "Shale" -999.25        3.0000 97.00000      0.0 "vf/f"     "vf/f"     "Marin_oppgrunn-ingssekvens,_fra_dypmarin_suspen-sjonsutfelt_leire_til_midtre_strandskraning_med_bioturbert_muddy_sand._"                                                      "Apen_marint_miljo"                                                
2464.4 "6507_11-3" 41.30000 "Sandstone"  "Shale" -999.25        3.0000 97.00000      0.0 "vf/f"     "vf/f"     "Marin_oppgrunn-ingssekvens,_fra_dypmarin_suspen-sjonsutfelt_leire_til_midtre_strandskraning_med_bioturbert_muddy_sand._"                                                      "Apen_marint_miljo"                                                
2464.5 "6507_11-3" 41.03000 "Sandstone"  "Shale" -999.25        3.0000 97.00000      0.0 "vf/f"     "vf/f"     "Marin_oppgrunn-ingssekvens,_fra_dypmarin_suspen-sjonsutfelt_leire_til_midtre_strandskraning_med_bioturbert_muddy_sand._"                                                      "Apen_marint_miljo"                                                
2464.6 "6507_11-3" 40.76000 "Sandstone"  "Shale" -999.25        3.0000 97.00000      0.0 "vf/f"     "vf/f"     "Marin_oppgrunn-ingssekvens,_fra_dypmarin_suspen-sjonsutfelt_leire_til_midtre_strandskraning_med_bioturbert_muddy_sand._"                                                      "Apen_marint_miljo"                                                
2464.7 "6507_11-3" 40.48000 "Sandstone"  "Shale" -999.25        3.0000 97.00000      0.0 "vf/f"     "vf/f"     "Marin_oppgrunn-ingssekvens,_fra_dypmarin_suspen-sjonsutfelt_leire_til_midtre_strandskraning_med_bioturbert_muddy_sand._"                                                      "Apen_marint_miljo"                                                
2464.8 "6507_11-3" 40.43000 "Sandstone"  "Shale" -999.25        3.0000 97.00000      0.0 "vf/f"     "vf/f"     "Marin_oppgrunn-ingssekvens,_fra_dypmarin_suspen-sjonsutfelt_leire_til_midtre_strandskraning_med_bioturbert_muddy_sand._"                                                      "Apen_marint_miljo"                                                
2464.9 "6507_11-3" 40.38000 "Sandstone"  "Shale" -999.25        3.0000 97.00000      0.0 "vf/f"     "vf/f"     "Marin_oppgrunn-ingssekvens,_fra_dypmarin_suspen-sjonsutfelt_leire_til_midtre_strandskraning_med_bioturbert_muddy_sand._"                                                      "Apen_marint_miljo"                                                
2465.0 "6507_11-3" 40.33000 "Sandstone"  "Shale" -999.25        3.0000 97.00000      0.0 "vf/f"     "vf/f"     "Marin_oppgrunn-ingssekvens,_fra_dypmarin_suspen-sjonsutfelt_leire_til_midtre_strandskraning_med_bioturbert_muddy_sand._"                                                      "Apen_marint_miljo"                                                
