~Version
VERS  .                                 3.0 : CWLS LAS ASCII Standard - Version 3.0
WRAP  . NO                                  : One line per depth step
DLM   . SPACE                               : Column data section delimiter
SOURCE. Converted to LAS by Log Studio 4.76 : GeoProvider

~Well
STRT.         2426.0 : Start depth
STOP.         2677.5 : Stop depth
STEP.              1 : Step
NULL.        -999.25 : No-value
COMP.                : Company
WELL. 6507/11-3      : Well
FLD .                : Field
LOC .                : Location
LATI.                : Latitude
LONG.                : Longitude
GDAT.                : Geodetic datum
CNTY.                : County
STAT.                : State
CTRY.                : Country
SRVC. GeoProvider AS : Service company
DATE.                : Date
API .                : API number
RUN .                : Run number

~Parameters
WellboreName.  : Wellbore name
RigName     .  : Rig name
StartDate   .  : Start date

~Curves
DEPTH.m            .  : null {F}Depth mMD
Hole_ID.-          .  : null {S}Hole ID
GR.API             .  : null {F}Gamma Ray
Lithology1.-       .  : null {S}Lithology 1
Lithology2.-       .  : null {S}Lithology 2
Lithology3.-       .  : null {S}Lithology 3
Lithology1.%       .  : null {F}Lithology 1 percentage
Lithology2.%       .  : null {F}Lithology 2 percentage
Lithology3.%       .  : null {F}Lithology 3 percentage
Grain_size_Top.-   .  : null {S}Grain size at the top 
Grain_size_Base.-  .  : null {S}Grain size at the bottom
Sub_Environment.-  .  : null {S}Sub Environment
Gross_Environment.-.  : null {S}Gross Environment

~Ascii
2426.0 "6507_11-3" 12.19000 "Sandstone"  -999.25 -999.25      100.0000      0.0      0.0 "vc"       "vf"       "Meget_homogen_'foreshore'_-_sekvens,_dominert_av_bolgeprosesser._Sterk_komponent_av_vertikal_oppbyggning_samt_'skjult'_syklisitet_forklarer_trolig_den_ensartede_utviklingen._" "Hoy-energi_grunnmarin_sekvens_(?delta_front)"                     
2426.1 "6507_11-3" 11.87000 "Sandstone"  -999.25 -999.25      100.0000      0.0      0.0 "vc"       "vf"       "Meget_homogen_'foreshore'_-_sekvens,_dominert_av_bolgeprosesser._Sterk_komponent_av_vertikal_oppbyggning_samt_'skjult'_syklisitet_forklarer_trolig_den_ensartede_utviklingen._" "Hoy-energi_grunnmarin_sekvens_(?delta_front)"                     
2426.2 "6507_11-3" 11.90000 "Sandstone"  -999.25 -999.25      100.0000      0.0      0.0 "vc"       "vf"       "Meget_homogen_'foreshore'_-_sekvens,_dominert_av_bolgeprosesser._Sterk_komponent_av_vertikal_oppbyggning_samt_'skjult'_syklisitet_forklarer_trolig_den_ensartede_utviklingen._" "Hoy-energi_grunnmarin_sekvens_(?delta_front)"                     
2426.3 "6507_11-3" 12.08000 "Sandstone"  -999.25 -999.25      100.0000      0.0      0.0 "vc"       "vf"       "Meget_homogen_'foreshore'_-_sekvens,_dominert_av_bolgeprosesser._Sterk_komponent_av_vertikal_oppbyggning_samt_'skjult'_syklisitet_forklarer_trolig_den_ensartede_utviklingen._" "Hoy-energi_grunnmarin_sekvens_(?delta_front)"                     
2426.4 "6507_11-3" 12.26000 "Sandstone"  -999.25 -999.25      100.0000      0.0      0.0 "vc"       "vf"       "Meget_homogen_'foreshore'_-_sekvens,_dominert_av_bolgeprosesser._Sterk_komponent_av_vertikal_oppbyggning_samt_'skjult'_syklisitet_forklarer_trolig_den_ensartede_utviklingen._" "Hoy-energi_grunnmarin_sekvens_(?delta_front)"                     
2426.5 "6507_11-3" 12.43000 "Sandstone"  -999.25 -999.25      100.0000      0.0      0.0 "vc"       "vf"       "Meget_homogen_'foreshore'_-_sekvens,_dominert_av_bolgeprosesser._Sterk_komponent_av_vertikal_oppbyggning_samt_'skjult'_syklisitet_forklarer_trolig_den_ensartede_utviklingen._" "Hoy-energi_grunnmarin_sekvens_(?delta_front)"                     
2426.6 "6507_11-3" 12.61000 "Sandstone"  -999.25 -999.25      100.0000      0.0      0.0 "vc"       "vf"       "Meget_homogen_'foreshore'_-_sekvens,_dominert_av_bolgeprosesser._Sterk_komponent_av_vertikal_oppbyggning_samt_'skjult'_syklisitet_forklarer_trolig_den_ensartede_utviklingen._" "Hoy-energi_grunnmarin_sekvens_(?delta_front)"                     
2426.7 "6507_11-3" 12.64000 "Sandstone"  -999.25 -999.25      100.0000      0.0      0.0 "vc"       "vf"       "Meget_homogen_'foreshore'_-_sekvens,_dominert_av_bolgeprosesser._Sterk_komponent_av_vertikal_oppbyggning_samt_'skjult'_syklisitet_forklarer_trolig_den_ensartede_utviklingen._" "Hoy-energi_grunnmarin_sekvens_(?delta_front)"                     
2426.8 "6507_11-3" 12.45000 "Sandstone"  -999.25 -999.25      100.0000      0.0      0.0 "vc"       "vf"       "Meget_homogen_'foreshore'_-_sekvens,_dominert_av_bolgeprosesser._Sterk_komponent_av_vertikal_oppbyggning_samt_'skjult'_syklisitet_forklarer_trolig_den_ensartede_utviklingen._" "Hoy-energi_grunnmarin_sekvens_(?delta_front)"                     
2426.9 "6507_11-3" 12.25000 "Sandstone"  -999.25 -999.25      100.0000      0.0      0.0 "vc"       "vf"       "Meget_homogen_'foreshore'_-_sekvens,_dominert_av_bolgeprosesser._Sterk_komponent_av_vertikal_oppbyggning_samt_'skjult'_syklisitet_forklarer_trolig_den_ensartede_utviklingen._" "Hoy-energi_grunnmarin_sekvens_(?delta_front)"                     
2427.0 "6507_11-3" 12.05000 "Sandstone"  -999.25 -999.25      100.0000      0.0      0.0 "vc"       "vf"       "Meget_homogen_'foreshore'_-_sekvens,_dominert_av_bolgeprosesser._Sterk_komponent_av_vertikal_oppbyggning_samt_'skjult'_syklisitet_forklarer_trolig_den_ensartede_utviklingen._" "Hoy-energi_grunnmarin_sekvens_(?delta_front)"                     
2427.1 "6507_11-3" 11.89000 "Sandstone"  -999.25 -999.25      100.0000      0.0      0.0 "vc"       "vf"       "Meget_homogen_'foreshore'_-_sekvens,_dominert_av_bolgeprosesser._Sterk_komponent_av_vertikal_oppbyggning_samt_'skjult'_syklisitet_forklarer_trolig_den_ensartede_utviklingen._" "Hoy-energi_grunnmarin_sekvens_(?delta_front)"                     
2427.2 "6507_11-3" 12.22000 "Sandstone"  -999.25 -999.25      100.0000      0.0      0.0 "vc"       "vf"       "Meget_homogen_'foreshore'_-_sekvens,_dominert_av_bolgeprosesser._Sterk_komponent_av_vertikal_oppbyggning_samt_'skjult'_syklisitet_forklarer_trolig_den_ensartede_utviklingen._" "Hoy-energi_grunnmarin_sekvens_(?delta_front)"                     
2427.3 "6507_11-3" 12.54000 "Sandstone"  -999.25 -999.25      100.0000      0.0      0.0 "vc"       "vf"       "Meget_homogen_'foreshore'_-_sekvens,_dominert_av_bolgeprosesser._Sterk_komponent_av_vertikal_oppbyggning_samt_'skjult'_syklisitet_forklarer_trolig_den_ensartede_utviklingen._" "Hoy-energi_grunnmarin_sekvens_(?delta_front)"                     
2427.4 "6507_11-3" 12.78000 "Sandstone"  -999.25 -999.25      100.0000      0.0      0.0 "vc"       "vf"       "Meget_homogen_'foreshore'_-_sekvens,_dominert_av_bolgeprosesser._Sterk_komponent_av_vertikal_oppbyggning_samt_'skjult'_syklisitet_forklarer_trolig_den_ensartede_utviklingen._" "Hoy-energi_grunnmarin_sekvens_(?delta_front)"                     
2427.5 "6507_11-3" 12.62000 "Sandstone"  -999.25 -999.25      100.0000      0.0      0.0 "vc"       "vf"       "Meget_homogen_'foreshore'_-_sekvens,_dominert_av_bolgeprosesser._Sterk_komponent_av_vertikal_oppbyggning_samt_'skjult'_syklisitet_forklarer_trolig_den_ensartede_utviklingen._" "Hoy-energi_grunnmarin_sekvens_(?delta_front)"                     
2427.6 "6507_11-3" 12.46000 "Sandstone"  -999.25 -999.25      100.0000      0.0      0.0 "vc"       "vf"       "Meget_homogen_'foreshore'_-_sekvens,_dominert_av_bolgeprosesser._Sterk_komponent_av_vertikal_oppbyggning_samt_'skjult'_syklisitet_forklarer_trolig_den_ensartede_utviklingen._" "Hoy-energi_grunnmarin_sekvens_(?delta_front)"                     
2427.7 "6507_11-3" 12.31000 "Sandstone"  -999.25 -999.25      100.0000      0.0      0.0 "vc"       "vf"       "Meget_homogen_'foreshore'_-_sekvens,_dominert_av_bolgeprosesser._Sterk_komponent_av_vertikal_oppbyggning_samt_'skjult'_syklisitet_forklarer_trolig_den_ensartede_utviklingen._" "Hoy-energi_grunnmarin_sekvens_(?delta_front)"                     
2427.8 "6507_11-3" 12.15000 "Sandstone"  -999.25 -999.25      100.0000      0.0      0.0 "vc"       "vf"       "Meget_homogen_'foreshore'_-_sekvens,_dominert_av_bolgeprosesser._Sterk_komponent_av_vertikal_oppbyggning_samt_'skjult'_syklisitet_forklarer_trolig_den_ensartede_utviklingen._" "Hoy-energi_grunnmarin_sekvens_(?delta_front)"                     
2427.9 "6507_11-3" 11.99000 "Sandstone"  -999.25 -999.25      100.0000      0.0      0.0 "vc"       "vf"       "Meget_homogen_'foreshore'_-_sekvens,_dominert_av_bolgeprosesser._Sterk_komponent_av_vertikal_oppbyggning_samt_'skjult'_syklisitet_forklarer_trolig_den_ensartede_utviklingen._" "Hoy-energi_grunnmarin_sekvens_(?delta_front)"                     
2428.0 "6507_11-3" 12.40000 "Sandstone"  -999.25 -999.25      100.0000      0.0      0.0 "vc"       "vf"       "Meget_homogen_'foreshore'_-_sekvens,_dominert_av_bolgeprosesser._Sterk_komponent_av_vertikal_oppbyggning_samt_'skjult'_syklisitet_forklarer_trolig_den_ensartede_utviklingen._" "Hoy-energi_grunnmarin_sekvens_(?delta_front)"                     
2428.1 "6507_11-3" 12.90000 "Sandstone"  -999.25 -999.25      100.0000      0.0      0.0 "vc"       "vf"       "Meget_homogen_'foreshore'_-_sekvens,_dominert_av_bolgeprosesser._Sterk_komponent_av_vertikal_oppbyggning_samt_'skjult'_syklisitet_forklarer_trolig_den_ensartede_utviklingen._" "Hoy-energi_grunnmarin_sekvens_(?delta_front)"                     
2428.2 "6507_11-3" 13.40000 "Sandstone"  -999.25 -999.25      100.0000      0.0      0.0 "vc"       "vf"       "Meget_homogen_'foreshore'_-_sekvens,_dominert_av_bolgeprosesser._Sterk_komponent_av_vertikal_oppbyggning_samt_'skjult'_syklisitet_forklarer_trolig_den_ensartede_utviklingen._" "Hoy-energi_grunnmarin_sekvens_(?delta_front)"                     
