~Version
VERS  .                                 3.0 : CWLS LAS ASCII Standard - Version 3.0
WRAP  . NO                                  : One line per depth step
DLM   . SPACE                               : Column data section delimiter
SOURCE. Converted to LAS by Log Studio 4.76 : GeoProvider

~Well
STRT.         2426.0 : Start depth
STOP.         2677.5 : Stop depth
STEP.              1 : Step
NULL.        -999.25 : No-value
COMP.                : Company
WELL. 6507/11-3      : Well
FLD .                : Field
LOC .                : Location
LATI.                : Latitude
LONG.                : Longitude
GDAT.                : Geodetic datum
CNTY.                : County
STAT.                : State
CTRY.                : Country
SRVC. GeoProvider AS : Service company
DATE.                : Date
API .                : API number
RUN .                : Run number

~Parameters
WellboreName.  : Wellbore name
RigName     .  : Rig name
StartDate   .  : Start date

~Curves
DEPTH.m            .  : null {F}Depth mMD
Hole_ID.-          .  : null {S}Hole ID
GR.API             .  : null {F}Gamma Ray
Lithology1.-       .  : null {S}Lithology 1
Lithology2.-       .  : null {S}Lithology 2
Lithology3.-       .  : null {S}Lithology 3
Lithology1.%       .  : null {F}Lithology 1 percentage
Lithology2.%       .  : null {F}Lithology 2 percentage
Lithology3.%       .  : null {F}Lithology 3 percentage
Grain_size_Top.-   .  : null {S}Grain size at the top 
Grain_size_Base.-  .  : null {S}Grain size at the bottom
Sub_Environment.-  .  : null {S}Sub Environment
Gross_Environment.-.  : null {S}Gross Environment

~Ascii
# ...
2674.4 "6507_11-3" 22.47000 "Sandstone"  "Shale" -999.25       70.0000 30.00000      0.0 "f/m"      "c"        "Proximale_munningsbanker,_preget_av_periodisk_sterk_fluvial_tilforsel._Ingen_tydelige_tegn_pa_tidevanns-prosesser_her._Strandbearbeiding_I_toppen."                           "Proximal_delta_front"                                             
2674.5 "6507_11-3" 22.93000 "Sandstone"  "Shale" -999.25       70.0000 30.00000      0.0 "f/m"      "c"        "Proximale_munningsbanker,_preget_av_periodisk_sterk_fluvial_tilforsel._Ingen_tydelige_tegn_pa_tidevanns-prosesser_her._Strandbearbeiding_I_toppen."                           "Proximal_delta_front"                                             
2674.6 "6507_11-3" 23.39000 "Sandstone"  "Shale" -999.25       70.0000 30.00000      0.0 "f/m"      "c"        "Proximale_munningsbanker,_preget_av_periodisk_sterk_fluvial_tilforsel._Ingen_tydelige_tegn_pa_tidevanns-prosesser_her._Strandbearbeiding_I_toppen."                           "Proximal_delta_front"                                             
2674.7 "6507_11-3" 23.85000 "Sandstone"  "Shale" -999.25       70.0000 30.00000      0.0 "f/m"      "c"        "Proximale_munningsbanker,_preget_av_periodisk_sterk_fluvial_tilforsel._Ingen_tydelige_tegn_pa_tidevanns-prosesser_her._Strandbearbeiding_I_toppen."                           "Proximal_delta_front"                                             
2674.8 "6507_11-3" 24.31000 "Sandstone"  "Shale" -999.25       70.0000 30.00000      0.0 "f/m"      "c"        "Proximale_munningsbanker,_preget_av_periodisk_sterk_fluvial_tilforsel._Ingen_tydelige_tegn_pa_tidevanns-prosesser_her._Strandbearbeiding_I_toppen."                           "Proximal_delta_front"                                             
2674.9 "6507_11-3" 24.77000 "Sandstone"  "Shale" -999.25       70.0000 30.00000      0.0 "f/m"      "c"        "Proximale_munningsbanker,_preget_av_periodisk_sterk_fluvial_tilforsel._Ingen_tydelige_tegn_pa_tidevanns-prosesser_her._Strandbearbeiding_I_toppen."                           "Proximal_delta_front"                                             
2675.0 "6507_11-3" 24.94000 "Sandstone"  "Shale" -999.25       70.0000 30.00000      0.0 "f/m"      "c"        "Proximale_munningsbanker,_preget_av_periodisk_sterk_fluvial_tilforsel._Ingen_tydelige_tegn_pa_tidevanns-prosesser_her._Strandbearbeiding_I_toppen."                           "Proximal_delta_front"                                             
2675.1 "6507_11-3" 24.44000 "Sandstone"  "Shale" -999.25       70.0000 30.00000      0.0 "f/m"      "c"        "Proximale_munningsbanker,_preget_av_periodisk_sterk_fluvial_tilforsel._Ingen_tydelige_tegn_pa_tidevanns-prosesser_her._Strandbearbeiding_I_toppen."                           "Proximal_delta_front"                                             
2675.2 "6507_11-3" 23.93000 "Sandstone"  "Shale" -999.25       70.0000 30.00000      0.0 "f/m"      "c"        "Proximale_munningsbanker,_preget_av_periodisk_sterk_fluvial_tilforsel._Ingen_tydelige_tegn_pa_tidevanns-prosesser_her._Strandbearbeiding_I_toppen."                           "Proximal_delta_front"                                             
2675.3 "6507_11-3" 23.43000 "Sandstone"  "Shale" -999.25       70.0000 30.00000      0.0 "f/m"      "c"        "Proximale_munningsbanker,_preget_av_periodisk_sterk_fluvial_tilforsel._Ingen_tydelige_tegn_pa_tidevanns-prosesser_her._Strandbearbeiding_I_toppen."                           "Proximal_delta_front"                                             
2675.4 "6507_11-3" 22.93000 "Sandstone"  "Shale" -999.25       70.0000 30.00000      0.0 "f/m"      "c"        "Proximale_munningsbanker,_preget_av_periodisk_sterk_fluvial_tilforsel._Ingen_tydelige_tegn_pa_tidevanns-prosesser_her._Strandbearbeiding_I_toppen."                           "Proximal_delta_front"                                             
2675.5 "6507_11-3" 22.69000 "Sandstone"  "Shale" -999.25       70.0000 30.00000      0.0 "f/m"      "c"        "Proximale_munningsbanker,_preget_av_periodisk_sterk_fluvial_tilforsel._Ingen_tydelige_tegn_pa_tidevanns-prosesser_her._Strandbearbeiding_I_toppen."                           "Proximal_delta_front"                                             
2675.6 "6507_11-3" 22.69000 "Sandstone"  "Shale" -999.25       70.0000 30.00000      0.0 "f/m"      "c"        "Proximale_munningsbanker,_preget_av_periodisk_sterk_fluvial_tilforsel._Ingen_tydelige_tegn_pa_tidevanns-prosesser_her._Strandbearbeiding_I_toppen."                           "Proximal_delta_front"                                             
2675.7 "6507_11-3" 22.69000 "Sandstone"  "Shale" -999.25       70.0000 30.00000      0.0 "f/m"      "c"        "Proximale_munningsbanker,_preget_av_periodisk_sterk_fluvial_tilforsel._Ingen_tydelige_tegn_pa_tidevanns-prosesser_her._Strandbearbeiding_I_toppen."                           "Proximal_delta_front"                                             
2675.8 "6507_11-3" 22.69000 "Sandstone"  "Shale" -999.25       70.0000 30.00000      0.0 "f/m"      "c"        "Proximale_munningsbanker,_preget_av_periodisk_sterk_fluvial_tilforsel._Ingen_tydelige_tegn_pa_tidevanns-prosesser_her._Strandbearbeiding_I_toppen."                           "Proximal_delta_front"                                             
2675.9 "6507_11-3" 22.58000 "Sandstone"  "Shale" -999.25       70.0000 30.00000      0.0 "f/m"      "c"        "Proximale_munningsbanker,_preget_av_periodisk_sterk_fluvial_tilforsel._Ingen_tydelige_tegn_pa_tidevanns-prosesser_her._Strandbearbeiding_I_toppen."                           "Proximal_delta_front"                                             
2676.0 "6507_11-3" 22.31000 "Sandstone"  "Shale" -999.25       70.0000 30.00000      0.0 "f/m"      "c"        "Proximale_munningsbanker,_preget_av_periodisk_sterk_fluvial_tilforsel._Ingen_tydelige_tegn_pa_tidevanns-prosesser_her._Strandbearbeiding_I_toppen."                           "Proximal_delta_front"                                             
2676.1 "6507_11-3" 22.11000 "Sandstone"  "Shale" -999.25       70.0000 30.00000      0.0 "f/m"      "c"        "Proximale_munningsbanker,_preget_av_periodisk_sterk_fluvial_tilforsel._Ingen_tydelige_tegn_pa_tidevanns-prosesser_her._Strandbearbeiding_I_toppen."                           "Proximal_delta_front"                                             
2676.2 "6507_11-3" 21.98000 "Sandstone"  "Shale" -999.25       70.0000 30.00000      0.0 "f/m"      "c"        "Proximale_munningsbanker,_preget_av_periodisk_sterk_fluvial_tilforsel._Ingen_tydelige_tegn_pa_tidevanns-prosesser_her._Strandbearbeiding_I_toppen."                           "Proximal_delta_front"                                             
2676.3 "6507_11-3" 22.05000 "Sandstone"  "Shale" -999.25       70.0000 30.00000      0.0 "f/m"      "c"        "Proximale_munningsbanker,_preget_av_periodisk_sterk_fluvial_tilforsel._Ingen_tydelige_tegn_pa_tidevanns-prosesser_her._Strandbearbeiding_I_toppen."                           "Proximal_delta_front"                                             
2676.4 "6507_11-3" 22.47000 "Sandstone"  "Shale" -999.25       70.0000 30.00000      0.0 "f/m"      "c"        "Proximale_munningsbanker,_preget_av_periodisk_sterk_fluvial_tilforsel._Ingen_tydelige_tegn_pa_tidevanns-prosesser_her._Strandbearbeiding_I_toppen."                           "Proximal_delta_front"                                             
2676.5 "6507_11-3" 22.90000 "Sandstone"  "Shale" -999.25       70.0000 30.00000      0.0 "f/m"      "c"        "Proximale_munningsbanker,_preget_av_periodisk_sterk_fluvial_tilforsel._Ingen_tydelige_tegn_pa_tidevanns-prosesser_her._Strandbearbeiding_I_toppen."                           "Proximal_delta_front"                                             
2676.6 "6507_11-3" 23.32000 "Sandstone"  "Shale" -999.25       70.0000 30.00000      0.0 "f/m"      "c"        "Proximale_munningsbanker,_preget_av_periodisk_sterk_fluvial_tilforsel._Ingen_tydelige_tegn_pa_tidevanns-prosesser_her._Strandbearbeiding_I_toppen."                           "Proximal_delta_front"                                             
