~Version
VERS  .                                 3.0 : CWLS LAS ASCII Standard - Version 3.0
WRAP  . NO                                  : One line per depth step
DLM   . SPACE                               : Column data section delimiter
SOURCE. Converted to LAS by Log Studio 4.76 : GeoProvider

~Well
STRT.         2426.0 : Start depth
STOP.         2677.5 : Stop depth
STEP.              1 : Step
NULL.        -999.25 : No-value
COMP.                : Company
WELL. 6507/11-3      : Well
FLD .                : Field
LOC .                : Location
LATI.                : Latitude
LONG.                : Longitude
GDAT.                : Geodetic datum
CNTY.                : County
STAT.                : State
CTRY.                : Country
SRVC. GeoProvider AS : Service company
DATE.                : Date
API .                : API number
RUN .                : Run number

~Parameters
WellboreName.  : Wellbore name
RigName     .  : Rig name
StartDate   .  : Start date

~Curves
DEPTH.m            .  : null {F}Depth mMD
Hole_ID.-          .  : null {S}Hole ID
GR.API             .  : null {F}Gamma Ray
Lithology1.-       .  : null {S}Lithology 1
Lithology2.-       .  : null {S}Lithology 2
Lithology3.-       .  : null {S}Lithology 3
Lithology1.%       .  : null {F}Lithology 1 percentage
Lithology2.%       .  : null {F}Lithology 2 percentage
Lithology3.%       .  : null {F}Lithology 3 percentage
Grain_size_Top.-   .  : null {S}Grain size at the top 
Grain_size_Base.-  .  : null {S}Grain size at the bottom
Sub_Environment.-  .  : null {S}Sub Environment
Gross_Environment.-.  : null {S}Gross Environment

~Ascii
# ...
2481.2 "6507_11-3" 22.42000 "Sandstone"  "Shale" -999.25       83.0000 17.00000      0.0 "c"        "c"        "Ovre_strandskraning"                                                                                                                                                          "Hoy-energi_grunn-marin_sekvens,_muligens_relatert_til_lobeskiftning"
2481.3 "6507_11-3" 22.88000 "Sandstone"  "Shale" -999.25       83.0000 17.00000      0.0 "c"        "c"        "Ovre_strandskraning"                                                                                                                                                          "Hoy-energi_grunn-marin_sekvens,_muligens_relatert_til_lobeskiftning"
2481.4 "6507_11-3" 24.11000 "Sandstone"  "Shale" -999.25       83.0000 17.00000      0.0 "c"        "c"        "Ovre_strandskraning"                                                                                                                                                          "Hoy-energi_grunn-marin_sekvens,_muligens_relatert_til_lobeskiftning"
2481.5 "6507_11-3" 26.74000 "Sandstone"  "Shale" -999.25       83.0000 17.00000      0.0 "c"        "c"        "Ovre_strandskraning"                                                                                                                                                          "Hoy-energi_grunn-marin_sekvens,_muligens_relatert_til_lobeskiftning"
2481.6 "6507_11-3" 29.37000 "Sandstone"  "Shale" -999.25       83.0000 17.00000      0.0 "c"        "c"        "Ovre_strandskraning"                                                                                                                                                          "Hoy-energi_grunn-marin_sekvens,_muligens_relatert_til_lobeskiftning"
2481.7 "6507_11-3" 31.52000 "Sandstone"  "Shale" -999.25       83.0000 17.00000      0.0 "c"        "c"        "Ovre_strandskraning"                                                                                                                                                          "Hoy-energi_grunn-marin_sekvens,_muligens_relatert_til_lobeskiftning"
2481.8 "6507_11-3" 32.23000 "Sandstone"  "Shale" -999.25       83.0000 17.00000      0.0 "c"        "c"        "Ovre_strandskraning"                                                                                                                                                          "Hoy-energi_grunn-marin_sekvens,_muligens_relatert_til_lobeskiftning"
2481.9 "6507_11-3" 32.53000 "Sandstone"  "Shale" -999.25       83.0000 17.00000      0.0 "c"        "c"        "Ovre_strandskraning"                                                                                                                                                          "Hoy-energi_grunn-marin_sekvens,_muligens_relatert_til_lobeskiftning"
2482.0 "6507_11-3" 32.82000 "Sandstone"  "Shale" -999.25       83.0000 17.00000      0.0 "c"        "c"        "Ovre_strandskraning"                                                                                                                                                          "Hoy-energi_grunn-marin_sekvens,_muligens_relatert_til_lobeskiftning"
2482.1 "6507_11-3" 33.12000 "Sandstone"  "Shale" -999.25       83.0000 17.00000      0.0 "c"        "c"        "Ovre_strandskraning"                                                                                                                                                          "Hoy-energi_grunn-marin_sekvens,_muligens_relatert_til_lobeskiftning"
2482.2 "6507_11-3" 33.41000 "Sandstone"  "Shale" -999.25       83.0000 17.00000      0.0 "c"        "c"        "Ovre_strandskraning"                                                                                                                                                          "Hoy-energi_grunn-marin_sekvens,_muligens_relatert_til_lobeskiftning"
2482.3 "6507_11-3" 33.71000 "Sandstone"  "Shale" -999.25       83.0000 17.00000      0.0 "c"        "c"        "Ovre_strandskraning"                                                                                                                                                          "Hoy-energi_grunn-marin_sekvens,_muligens_relatert_til_lobeskiftning"
2482.4 "6507_11-3" 34.01000 "Sandstone"  "Shale" -999.25       83.0000 17.00000      0.0 "c"        "c"        "Ovre_strandskraning"                                                                                                                                                          "Hoy-energi_grunn-marin_sekvens,_muligens_relatert_til_lobeskiftning"
2482.5 "6507_11-3" 34.30000 "Sandstone"  "Shale" -999.25       83.0000 17.00000      0.0 "c"        "c"        "Ovre_strandskraning"                                                                                                                                                          "Hoy-energi_grunn-marin_sekvens,_muligens_relatert_til_lobeskiftning"
2482.6 "6507_11-3" 34.60000 "Sandstone"  "Shale" -999.25       83.0000 17.00000      0.0 "c"        "c"        "Ovre_strandskraning"                                                                                                                                                          "Hoy-energi_grunn-marin_sekvens,_muligens_relatert_til_lobeskiftning"
2482.7 "6507_11-3" 34.39000 "Sandstone"  "Shale" -999.25       83.0000 17.00000      0.0 "c"        "c"        "Ovre_strandskraning"                                                                                                                                                          "Hoy-energi_grunn-marin_sekvens,_muligens_relatert_til_lobeskiftning"
2482.8 "6507_11-3" 34.08000 "Sandstone"  "Shale" -999.25       83.0000 17.00000      0.0 "c"        "c"        "Ovre_strandskraning"                                                                                                                                                          "Hoy-energi_grunn-marin_sekvens,_muligens_relatert_til_lobeskiftning"
2482.9 "6507_11-3" 33.78000 "Sandstone"  "Shale" -999.25       83.0000 17.00000      0.0 "c"        "c"        "Ovre_strandskraning"                                                                                                                                                          "Hoy-energi_grunn-marin_sekvens,_muligens_relatert_til_lobeskiftning"
2483.0 "6507_11-3" 33.47000 "Sandstone"  "Shale" -999.25       83.0000 17.00000      0.0 "c"        "c"        "Ovre_strandskraning"                                                                                                                                                          "Hoy-energi_grunn-marin_sekvens,_muligens_relatert_til_lobeskiftning"
2483.1 "6507_11-3" 33.16000 "Sandstone"  "Shale" -999.25       83.0000 17.00000      0.0 "c"        "c"        "Ovre_strandskraning"                                                                                                                                                          "Hoy-energi_grunn-marin_sekvens,_muligens_relatert_til_lobeskiftning"
2483.2 "6507_11-3" 32.87000 "Sandstone"  "Shale" -999.25       83.0000 17.00000      0.0 "c"        "c"        "Ovre_strandskraning"                                                                                                                                                          "Hoy-energi_grunn-marin_sekvens,_muligens_relatert_til_lobeskiftning"
2483.3 "6507_11-3" 32.59000 "Sandstone"  "Shale" -999.25       83.0000 17.00000      0.0 "c"        "c"        "Ovre_strandskraning"                                                                                                                                                          "Hoy-energi_grunn-marin_sekvens,_muligens_relatert_til_lobeskiftning"
2483.4 "6507_11-3" 32.31000 "Sandstone"  "Shale" -999.25       83.0000 17.00000      0.0 "c"        "c"        "Ovre_strandskraning"                                                                                                                                                          "Hoy-energi_grunn-marin_sekvens,_muligens_relatert_til_lobeskiftning"
