~Version
VERS  .                                 3.0 : CWLS LAS ASCII Standard - Version 3.0
WRAP  . NO                                  : One line per depth step
DLM   . SPACE                               : Column data section delimiter
SOURCE. Converted to LAS by Log Studio 4.76 : GeoProvider

~Well
STRT.         2426.0 : Start depth
STOP.         2677.5 : Stop depth
STEP.              1 : Step
NULL.        -999.25 : No-value
COMP.                : Company
WELL. 6507/11-3      : Well
FLD .                : Field
LOC .                : Location
LATI.                : Latitude
LONG.                : Longitude
GDAT.                : Geodetic datum
CNTY.                : County
STAT.                : State
CTRY.                : Country
SRVC. GeoProvider AS : Service company
DATE.                : Date
API .                : API number
RUN .                : Run number

~Parameters
WellboreName.  : Wellbore name
RigName     .  : Rig name
StartDate   .  : Start date

~Curves
DEPTH.m            .  : null {F}Depth mMD
Hole_ID.-          .  : null {S}Hole ID
GR.API             .  : null {F}Gamma Ray
Lithology1.-       .  : null {S}Lithology 1
Lithology2.-       .  : null {S}Lithology 2
Lithology3.-       .  : null {S}Lithology 3
Lithology1.%       .  : null {F}Lithology 1 percentage
Lithology2.%       .  : null {F}Lithology 2 percentage
Lithology3.%       .  : null {F}Lithology 3 percentage
Grain_size_Top.-   .  : null {S}Grain size at the top 
Grain_size_Base.-  .  : null {S}Grain size at the bottom
Sub_Environment.-  .  : null {S}Sub Environment
Gross_Environment.-.  : null {S}Gross Environment

~Ascii
# ...
2499.6 "6507_11-3" 18.66000 "Sandstone"  "Shale" -999.25       80.0000 20.00000      0.0 "c"        "m"        "Muligens_mer_fluvialdominerte_kanaler_(ovre_delta_slette)"                                                                                                                    "Tidevannsdeltaslette"                                             
2499.7 "6507_11-3" 18.58000 "Sandstone"  "Shale" -999.25       80.0000 20.00000      0.0 "c"        "m"        "Muligens_mer_fluvialdominerte_kanaler_(ovre_delta_slette)"                                                                                                                    "Tidevannsdeltaslette"                                             
2499.8 "6507_11-3" 18.50000 "Sandstone"  "Shale" -999.25       80.0000 20.00000      0.0 "c"        "m"        "Muligens_mer_fluvialdominerte_kanaler_(ovre_delta_slette)"                                                                                                                    "Tidevannsdeltaslette"                                             
2499.9 "6507_11-3" 18.41000 "Sandstone"  "Shale" -999.25       80.0000 20.00000      0.0 "c"        "m"        "Muligens_mer_fluvialdominerte_kanaler_(ovre_delta_slette)"                                                                                                                    "Tidevannsdeltaslette"                                             
2500.0 "6507_11-3" 18.33000 "Sandstone"  "Shale" -999.25       80.0000 20.00000      0.0 "c"        "m"        "Muligens_mer_fluvialdominerte_kanaler_(ovre_delta_slette)"                                                                                                                    "Tidevannsdeltaslette"                                             
2500.1 "6507_11-3" 18.24000 "Sandstone"  -999.25 -999.25      100.0000      0.0      0.0 "vc/granule" "c"        "Muligens_mer_fluvialdominerte_kanaler_(ovre_delta_slette)"                                                                                                                    "Tidevannsdeltaslette"                                             
2500.2 "6507_11-3" 18.16000 "Sandstone"  -999.25 -999.25      100.0000      0.0      0.0 "vc/granule" "c"        "Muligens_mer_fluvialdominerte_kanaler_(ovre_delta_slette)"                                                                                                                    "Tidevannsdeltaslette"                                             
2500.3 "6507_11-3" 18.10000 "Sandstone"  -999.25 -999.25      100.0000      0.0      0.0 "vc/granule" "c"        "Muligens_mer_fluvialdominerte_kanaler_(ovre_delta_slette)"                                                                                                                    "Tidevannsdeltaslette"                                             
2500.4 "6507_11-3" 18.21000 "Sandstone"  -999.25 -999.25      100.0000      0.0      0.0 "vc/granule" "c"        "Muligens_mer_fluvialdominerte_kanaler_(ovre_delta_slette)"                                                                                                                    "Tidevannsdeltaslette"                                             
2500.5 "6507_11-3" 18.33000 "Sandstone"  -999.25 -999.25      100.0000      0.0      0.0 "vc/granule" "c"        "Muligens_mer_fluvialdominerte_kanaler_(ovre_delta_slette)"                                                                                                                    "Tidevannsdeltaslette"                                             
2500.6 "6507_11-3" 18.45000 "Sandstone"  -999.25 -999.25      100.0000      0.0      0.0 "vc/granule" "c"        "Muligens_mer_fluvialdominerte_kanaler_(ovre_delta_slette)"                                                                                                                    "Tidevannsdeltaslette"                                             
2500.7 "6507_11-3" 18.56000 "Sandstone"  -999.25 -999.25      100.0000      0.0      0.0 "vc/granule" "c"        "Muligens_mer_fluvialdominerte_kanaler_(ovre_delta_slette)"                                                                                                                    "Tidevannsdeltaslette"                                             
2500.8 "6507_11-3" 19.15000 "Sandstone"  -999.25 -999.25      100.0000      0.0      0.0 "vc/granule" "c"        "Muligens_mer_fluvialdominerte_kanaler_(ovre_delta_slette)"                                                                                                                    "Tidevannsdeltaslette"                                             
2500.9 "6507_11-3" 20.82000 "Sandstone"  -999.25 -999.25      100.0000      0.0      0.0 "vc/granule" "c"        "Muligens_mer_fluvialdominerte_kanaler_(ovre_delta_slette)"                                                                                                                    "Tidevannsdeltaslette"                                             
2501.0 "6507_11-3" 22.50000 "Sandstone"  -999.25 -999.25      100.0000      0.0      0.0 "vc/granule" "c"        "Muligens_mer_fluvialdominerte_kanaler_(ovre_delta_slette)"                                                                                                                    "Tidevannsdeltaslette"                                             
2501.1 "6507_11-3" 24.17000 "Sandstone"  -999.25 -999.25      100.0000      0.0      0.0 "vc/granule" "c"        "Muligens_mer_fluvialdominerte_kanaler_(ovre_delta_slette)"                                                                                                                    "Tidevannsdeltaslette"                                             
2501.2 "6507_11-3" 29.64000 "Sandstone"  -999.25 -999.25      100.0000      0.0      0.0 "vc/granule" "c"        "Muligens_mer_fluvialdominerte_kanaler_(ovre_delta_slette)"                                                                                                                    "Tidevannsdeltaslette"                                             
2501.3 "6507_11-3" 30.33000 "Sandstone"  -999.25 -999.25      100.0000      0.0      0.0 "vc/granule" "c"        "Muligens_mer_fluvialdominerte_kanaler_(ovre_delta_slette)"                                                                                                                    "Tidevannsdeltaslette"                                             
2501.4 "6507_11-3" 31.02000 "Sandstone"  -999.25 -999.25      100.0000      0.0      0.0 "vc/granule" "c"        "Muligens_mer_fluvialdominerte_kanaler_(ovre_delta_slette)"                                                                                                                    "Tidevannsdeltaslette"                                             
2501.5 "6507_11-3" 30.99000 "Sandstone"  -999.25 -999.25      100.0000      0.0      0.0 "vc/granule" "c"        "Muligens_mer_fluvialdominerte_kanaler_(ovre_delta_slette)"                                                                                                                    "Tidevannsdeltaslette"                                             
2501.6 "6507_11-3" 30.78000 "Sandstone"  -999.25 -999.25      100.0000      0.0      0.0 "vc/granule" "c"        "Muligens_mer_fluvialdominerte_kanaler_(ovre_delta_slette)"                                                                                                                    "Tidevannsdeltaslette"                                             
2501.7 "6507_11-3" 30.25000 "Sandstone"  -999.25 -999.25      100.0000      0.0      0.0 "vc/granule" "c"        "Muligens_mer_fluvialdominerte_kanaler_(ovre_delta_slette)"                                                                                                                    "Tidevannsdeltaslette"                                             
2501.8 "6507_11-3" 27.91000 "Sandstone"  -999.25 -999.25      100.0000      0.0      0.0 "vc/granule" "c"        "Muligens_mer_fluvialdominerte_kanaler_(ovre_delta_slette)"                                                                                                                    "Tidevannsdeltaslette"                                             
