~Version
VERS  .                                 3.0 : CWLS LAS ASCII Standard - Version 3.0
WRAP  . NO                                  : One line per depth step
DLM   . SPACE                               : Column data section delimiter
SOURCE. Converted to LAS by Log Studio 4.76 : GeoProvider

~Well
STRT.         2426.0 : Start depth
STOP.         2677.5 : Stop depth
STEP.              1 : Step
NULL.        -999.25 : No-value
COMP.                : Company
WELL. 6507/11-3      : Well
FLD .                : Field
LOC .                : Location
LATI.                : Latitude
LONG.                : Longitude
GDAT.                : Geodetic datum
CNTY.                : County
STAT.                : State
CTRY.                : Country
SRVC. GeoProvider AS : Service company
DATE.                : Date
API .                : API number
RUN .                : Run number

~Parameters
WellboreName.  : Wellbore name
RigName     .  : Rig name
StartDate   .  : Start date

~Curves
DEPTH.m            .  : null {F}Depth mMD
Hole_ID.-          .  : null {S}Hole ID
GR.API             .  : null {F}Gamma Ray
Lithology1.-       .  : null {S}Lithology 1
Lithology2.-       .  : null {S}Lithology 2
Lithology3.-       .  : null {S}Lithology 3
Lithology1.%       .  : null {F}Lithology 1 percentage
Lithology2.%       .  : null {F}Lithology 2 percentage
Lithology3.%       .  : null {F}Lithology 3 percentage
Grain_size_Top.-   .  : null {S}Grain size at the top 
Grain_size_Base.-  .  : null {S}Grain size at the bottom
Sub_Environment.-  .  : null {S}Sub Environment
Gross_Environment.-.  : null {S}Gross Environment

~Ascii
# ...
2518.0 "6507_11-3" 30.45000 "Sandstone"  -999.25 -999.25      100.0000      0.0      0.0 "vf"       "f"        "Sandfylt_tidevanns-flate"                                                                                                                                                     "Tidevannsdeltaslette"                                             
2518.1 "6507_11-3" 30.31000 "Sandstone"  -999.25 -999.25      100.0000      0.0      0.0 "vf"       "f"        "Sandfylt_tidevanns-flate"                                                                                                                                                     "Tidevannsdeltaslette"                                             
2518.2 "6507_11-3" 30.09000 "Sandstone"  -999.25 -999.25      100.0000      0.0      0.0 "vf"       "f"        "Sandfylt_tidevanns-flate"                                                                                                                                                     "Tidevannsdeltaslette"                                             
2518.3 "6507_11-3" 28.52000 "Sandstone"  -999.25 -999.25      100.0000      0.0      0.0 "f/m"      "vf"       "Sandfylt_tidevanns-flate"                                                                                                                                                     "Tidevannsdeltaslette"                                             
2518.4 "6507_11-3" 26.46000 "Sandstone"  -999.25 -999.25      100.0000      0.0      0.0 "f/m"      "vf"       "Sandfylt_tidevanns-flate"                                                                                                                                                     "Tidevannsdeltaslette"                                             
2518.5 "6507_11-3" 24.40000 "Sandstone"  -999.25 -999.25      100.0000      0.0      0.0 "f/m"      "vf"       "Sandfylt_tidevanns-flate"                                                                                                                                                     "Tidevannsdeltaslette"                                             
2518.6 "6507_11-3" 22.35000 "Sandstone"  -999.25 -999.25      100.0000      0.0      0.0 "f/m"      "vf"       "Sandfylt_tidevanns-flate"                                                                                                                                                     "Tidevannsdeltaslette"                                             
2518.7 "6507_11-3" 20.36000 "Sandstone"  -999.25 -999.25      100.0000      0.0      0.0 "f/m"      "vf"       "Sandfylt_tidevanns-flate"                                                                                                                                                     "Tidevannsdeltaslette"                                             
2518.8 "6507_11-3" 18.70000 "Sandstone"  -999.25 -999.25      100.0000      0.0      0.0 "f/m"      "vf"       "Sandfylt_tidevanns-flate"                                                                                                                                                     "Tidevannsdeltaslette"                                             
2518.9 "6507_11-3" 17.05000 "Sandstone"  -999.25 -999.25      100.0000      0.0      0.0 "c"        "c"        "Sandfylt_tidevanns-flate"                                                                                                                                                     "Tidevannsdeltaslette"                                             
2519.0 "6507_11-3" 15.45000 "Sandstone"  -999.25 -999.25      100.0000      0.0      0.0 "c"        "c"        "Sandfylt_tidevanns-flate"                                                                                                                                                     "Tidevannsdeltaslette"                                             
2519.1 "6507_11-3" 15.49000 "Sandstone"  -999.25 -999.25      100.0000      0.0      0.0 "c"        "c"        "Sandfylt_tidevanns-flate"                                                                                                                                                     "Tidevannsdeltaslette"                                             
2519.2 "6507_11-3" 15.53000 "Sandstone"  -999.25 -999.25      100.0000      0.0      0.0 "c"        "c"        "Sandfylt_tidevanns-flate"                                                                                                                                                     "Tidevannsdeltaslette"                                             
2519.3 "6507_11-3" 15.86000 "Sandstone"  -999.25 -999.25      100.0000      0.0      0.0 "c"        "c"        "Sandfylt_tidevanns-flate"                                                                                                                                                     "Tidevannsdeltaslette"                                             
2519.4 "6507_11-3" 16.37000 "Sandstone"  -999.25 -999.25      100.0000      0.0      0.0 "c"        "c"        "Sandfylt_tidevanns-flate"                                                                                                                                                     "Tidevannsdeltaslette"                                             
2519.5 "6507_11-3" 16.88000 "Sandstone"  -999.25 -999.25      100.0000      0.0      0.0 "c"        "c"        "Sandfylt_tidevanns-flate"                                                                                                                                                     "Tidevannsdeltaslette"                                             
2519.6 "6507_11-3" 17.18000 "Sandstone"  -999.25 -999.25      100.0000      0.0      0.0 "c"        "c"        "Sandfylt_tidevanns-flate"                                                                                                                                                     "Tidevannsdeltaslette"                                             
2519.7 "6507_11-3" 17.27000 "Sandstone"  -999.25 -999.25      100.0000      0.0      0.0 "c"        "c"        "Sandfylt_tidevanns-flate"                                                                                                                                                     "Tidevannsdeltaslette"                                             
2519.8 "6507_11-3" 17.29000 "Sandstone"  -999.25 -999.25      100.0000      0.0      0.0 "c"        "c"        "Sandfylt_tidevanns-flate"                                                                                                                                                     "Tidevannsdeltaslette"                                             
2519.9 "6507_11-3" 17.17000 "Sandstone"  -999.25 -999.25      100.0000      0.0      0.0 "c"        "c"        "Sandfylt_tidevanns-flate"                                                                                                                                                     "Tidevannsdeltaslette"                                             
2520.0 "6507_11-3" 17.06000 "Sandstone"  -999.25 -999.25      100.0000      0.0      0.0 "c"        "c"        "Sandfylt_tidevanns-flate"                                                                                                                                                     "Tidevannsdeltaslette"                                             
2520.1 "6507_11-3" 17.33000 -999.25      -999.25 -999.25      100.0000      0.0      0.0 -999.25    -999.25    "Sandfylt_tidevanns-flate"                                                                                                                                                     "Tidevannsdeltaslette"                                             
2520.2 "6507_11-3" 17.64000 -999.25      -999.25 -999.25      100.0000      0.0      0.0 -999.25    -999.25    "Sandfylt_tidevanns-flate"                                                                                                                                                     "Tidevannsdeltaslette"                                             
