~Version
VERS  .                                 3.0 : CWLS LAS ASCII Standard - Version 3.0
WRAP  . NO                                  : One line per depth step
DLM   . SPACE                               : Column data section delimiter
SOURCE. Converted to LAS by Log Studio 4.76 : GeoProvider

~Well
STRT.         2426.0 : Start depth
STOP.         2677.5 : Stop depth
STEP.              1 : Step
NULL.        -999.25 : No-value
COMP.                : Company
WELL. 6507/11-3      : Well
FLD .                : Field
LOC .                : Location
LATI.                : Latitude
LONG.                : Longitude
GDAT.                : Geodetic datum
CNTY.                : County
STAT.                : State
CTRY.                : Country
SRVC. GeoProvider AS : Service company
DATE.                : Date
API .                : API number
RUN .                : Run number

~Parameters
WellboreName.  : Wellbore name
RigName     .  : Rig name
StartDate   .  : Start date

~Curves
DEPTH.m            .  : null {F}Depth mMD
Hole_ID.-          .  : null {S}Hole ID
GR.API             .  : null {F}Gamma Ray
Lithology1.-       .  : null {S}Lithology 1
Lithology2.-       .  : null {S}Lithology 2
Lithology3.-       .  : null {S}Lithology 3
Lithology1.%       .  : null {F}Lithology 1 percentage
Lithology2.%       .  : null {F}Lithology 2 percentage
Lithology3.%       .  : null {F}Lithology 3 percentage
Grain_size_Top.-   .  : null {S}Grain size at the top 
Grain_size_Base.-  .  : null {S}Grain size at the bottom
Sub_Environment.-  .  : null {S}Sub Environment
Gross_Environment.-.  : null {S}Gross Environment

~Ascii
# ...
2444.4 "6507_11-3" 17.80000 "Limestone"  -999.25 -999.25      100.0000      0.0      0.0 "vc/granule" "vc"       "Meget_homogen_'foreshore'_-_sekvens,_dominert_av_bolgeprosesser._Sterk_komponent_av_vertikal_oppbyggning_samt_'skjult'_syklisitet_forklarer_trolig_den_ensartede_utviklingen._" "Hoy-energi_grunnmarin_sekvens_(?delta_front)"                     
2444.5 "6507_11-3" 16.99000 "Limestone"  -999.25 -999.25      100.0000      0.0      0.0 "vc/granule" "vc"       "Meget_homogen_'foreshore'_-_sekvens,_dominert_av_bolgeprosesser._Sterk_komponent_av_vertikal_oppbyggning_samt_'skjult'_syklisitet_forklarer_trolig_den_ensartede_utviklingen._" "Hoy-energi_grunnmarin_sekvens_(?delta_front)"                     
2444.6 "6507_11-3" 16.25000 "Limestone"  -999.25 -999.25      100.0000      0.0      0.0 "vc/granule" "vc"       "Meget_homogen_'foreshore'_-_sekvens,_dominert_av_bolgeprosesser._Sterk_komponent_av_vertikal_oppbyggning_samt_'skjult'_syklisitet_forklarer_trolig_den_ensartede_utviklingen._" "Hoy-energi_grunnmarin_sekvens_(?delta_front)"                     
2444.7 "6507_11-3" 15.75000 "Sandstone"  -999.25 -999.25      100.0000      0.0      0.0 "vc/granule" "vc"       "Meget_homogen_'foreshore'_-_sekvens,_dominert_av_bolgeprosesser._Sterk_komponent_av_vertikal_oppbyggning_samt_'skjult'_syklisitet_forklarer_trolig_den_ensartede_utviklingen._" "Hoy-energi_grunnmarin_sekvens_(?delta_front)"                     
2444.8 "6507_11-3" 15.24000 "Sandstone"  -999.25 -999.25      100.0000      0.0      0.0 "vc/granule" "vc"       "Meget_homogen_'foreshore'_-_sekvens,_dominert_av_bolgeprosesser._Sterk_komponent_av_vertikal_oppbyggning_samt_'skjult'_syklisitet_forklarer_trolig_den_ensartede_utviklingen._" "Hoy-energi_grunnmarin_sekvens_(?delta_front)"                     
2444.9 "6507_11-3" 14.99000 "Sandstone"  -999.25 -999.25      100.0000      0.0      0.0 "vc/granule" "vc"       "Meget_homogen_'foreshore'_-_sekvens,_dominert_av_bolgeprosesser._Sterk_komponent_av_vertikal_oppbyggning_samt_'skjult'_syklisitet_forklarer_trolig_den_ensartede_utviklingen._" "Hoy-energi_grunnmarin_sekvens_(?delta_front)"                     
2445.0 "6507_11-3" 14.78000 "Sandstone"  -999.25 -999.25      100.0000      0.0      0.0 "vc/granule" "vc"       "Meget_homogen_'foreshore'_-_sekvens,_dominert_av_bolgeprosesser._Sterk_komponent_av_vertikal_oppbyggning_samt_'skjult'_syklisitet_forklarer_trolig_den_ensartede_utviklingen._" "Hoy-energi_grunnmarin_sekvens_(?delta_front)"                     
2445.1 "6507_11-3" 14.57000 "Sandstone"  -999.25 -999.25      100.0000      0.0      0.0 "vc/granule" "vc"       "Meget_homogen_'foreshore'_-_sekvens,_dominert_av_bolgeprosesser._Sterk_komponent_av_vertikal_oppbyggning_samt_'skjult'_syklisitet_forklarer_trolig_den_ensartede_utviklingen._" "Hoy-energi_grunnmarin_sekvens_(?delta_front)"                     
2445.2 "6507_11-3" 14.37000 "Sandstone"  -999.25 -999.25      100.0000      0.0      0.0 "vc/granule" "vc"       "Meget_homogen_'foreshore'_-_sekvens,_dominert_av_bolgeprosesser._Sterk_komponent_av_vertikal_oppbyggning_samt_'skjult'_syklisitet_forklarer_trolig_den_ensartede_utviklingen._" "Hoy-energi_grunnmarin_sekvens_(?delta_front)"                     
2445.3 "6507_11-3" 14.57000 "Sandstone"  -999.25 -999.25      100.0000      0.0      0.0 "vc/granule" "vc"       "Meget_homogen_'foreshore'_-_sekvens,_dominert_av_bolgeprosesser._Sterk_komponent_av_vertikal_oppbyggning_samt_'skjult'_syklisitet_forklarer_trolig_den_ensartede_utviklingen._" "Hoy-energi_grunnmarin_sekvens_(?delta_front)"                     
2445.4 "6507_11-3" 15.08000 "Sandstone"  -999.25 -999.25      100.0000      0.0      0.0 "vc/granule" "vc"       "Meget_homogen_'foreshore'_-_sekvens,_dominert_av_bolgeprosesser._Sterk_komponent_av_vertikal_oppbyggning_samt_'skjult'_syklisitet_forklarer_trolig_den_ensartede_utviklingen._" "Hoy-energi_grunnmarin_sekvens_(?delta_front)"                     
2445.5 "6507_11-3" 16.00000 "Sandstone"  -999.25 -999.25      100.0000      0.0      0.0 "vc/granule" "vc"       "Meget_homogen_'foreshore'_-_sekvens,_dominert_av_bolgeprosesser._Sterk_komponent_av_vertikal_oppbyggning_samt_'skjult'_syklisitet_forklarer_trolig_den_ensartede_utviklingen._" "Hoy-energi_grunnmarin_sekvens_(?delta_front)"                     
2445.6 "6507_11-3" 16.92000 "Sandstone"  -999.25 -999.25      100.0000      0.0      0.0 "vc/granule" "vc"       "Meget_homogen_'foreshore'_-_sekvens,_dominert_av_bolgeprosesser._Sterk_komponent_av_vertikal_oppbyggning_samt_'skjult'_syklisitet_forklarer_trolig_den_ensartede_utviklingen._" "Hoy-energi_grunnmarin_sekvens_(?delta_front)"                     
2445.7 "6507_11-3" 17.85000 "Sandstone"  -999.25 -999.25      100.0000      0.0      0.0 "vc/granule" "vc"       "Meget_homogen_'foreshore'_-_sekvens,_dominert_av_bolgeprosesser._Sterk_komponent_av_vertikal_oppbyggning_samt_'skjult'_syklisitet_forklarer_trolig_den_ensartede_utviklingen._" "Hoy-energi_grunnmarin_sekvens_(?delta_front)"                     
2445.8 "6507_11-3" 18.66000 "Sandstone"  -999.25 -999.25      100.0000      0.0      0.0 "vc/granule" "vc"       "Meget_homogen_'foreshore'_-_sekvens,_dominert_av_bolgeprosesser._Sterk_komponent_av_vertikal_oppbyggning_samt_'skjult'_syklisitet_forklarer_trolig_den_ensartede_utviklingen._" "Hoy-energi_grunnmarin_sekvens_(?delta_front)"                     
2445.9 "6507_11-3" 18.73000 "Sandstone"  -999.25 -999.25      100.0000      0.0      0.0 "vc/granule" "vc"       "Meget_homogen_'foreshore'_-_sekvens,_dominert_av_bolgeprosesser._Sterk_komponent_av_vertikal_oppbyggning_samt_'skjult'_syklisitet_forklarer_trolig_den_ensartede_utviklingen._" "Hoy-energi_grunnmarin_sekvens_(?delta_front)"                     
2446.0 "6507_11-3" 18.31000 "Sandstone"  -999.25 -999.25      100.0000      0.0      0.0 "vc/granule" "vc"       "Meget_homogen_'foreshore'_-_sekvens,_dominert_av_bolgeprosesser._Sterk_komponent_av_vertikal_oppbyggning_samt_'skjult'_syklisitet_forklarer_trolig_den_ensartede_utviklingen._" "Hoy-energi_grunnmarin_sekvens_(?delta_front)"                     
2446.1 "6507_11-3" 17.75000 "Sandstone"  -999.25 -999.25      100.0000      0.0      0.0 "vc/granule" "vc"       "Meget_homogen_'foreshore'_-_sekvens,_dominert_av_bolgeprosesser._Sterk_komponent_av_vertikal_oppbyggning_samt_'skjult'_syklisitet_forklarer_trolig_den_ensartede_utviklingen._" "Hoy-energi_grunnmarin_sekvens_(?delta_front)"                     
2446.2 "6507_11-3" 17.19000 "Sandstone"  -999.25 -999.25      100.0000      0.0      0.0 "vc/granule" "vc"       "Meget_homogen_'foreshore'_-_sekvens,_dominert_av_bolgeprosesser._Sterk_komponent_av_vertikal_oppbyggning_samt_'skjult'_syklisitet_forklarer_trolig_den_ensartede_utviklingen._" "Hoy-energi_grunnmarin_sekvens_(?delta_front)"                     
2446.3 "6507_11-3" 16.63000 "Sandstone"  -999.25 -999.25      100.0000      0.0      0.0 "vc/granule" "vc"       "Meget_homogen_'foreshore'_-_sekvens,_dominert_av_bolgeprosesser._Sterk_komponent_av_vertikal_oppbyggning_samt_'skjult'_syklisitet_forklarer_trolig_den_ensartede_utviklingen._" "Hoy-energi_grunnmarin_sekvens_(?delta_front)"                     
2446.4 "6507_11-3" 16.07000 "Sandstone"  -999.25 -999.25      100.0000      0.0      0.0 "vc/granule" "vc"       "Meget_homogen_'foreshore'_-_sekvens,_dominert_av_bolgeprosesser._Sterk_komponent_av_vertikal_oppbyggning_samt_'skjult'_syklisitet_forklarer_trolig_den_ensartede_utviklingen._" "Hoy-energi_grunnmarin_sekvens_(?delta_front)"                     
2446.5 "6507_11-3" 15.85000 "Sandstone"  -999.25 -999.25      100.0000      0.0      0.0 "vc/granule" "vc"       "Meget_homogen_'foreshore'_-_sekvens,_dominert_av_bolgeprosesser._Sterk_komponent_av_vertikal_oppbyggning_samt_'skjult'_syklisitet_forklarer_trolig_den_ensartede_utviklingen._" "Hoy-energi_grunnmarin_sekvens_(?delta_front)"                     
2446.6 "6507_11-3" 15.75000 "Sandstone"  -999.25 -999.25      100.0000      0.0      0.0 "vc/granule" "vc"       "Meget_homogen_'foreshore'_-_sekvens,_dominert_av_bolgeprosesser._Sterk_komponent_av_vertikal_oppbyggning_samt_'skjult'_syklisitet_forklarer_trolig_den_ensartede_utviklingen._" "Hoy-energi_grunnmarin_sekvens_(?delta_front)"                     
