~Version
VERS  .                                 3.0 : CWLS LAS ASCII Standard - Version 3.0
WRAP  . NO                                  : One line per depth step
DLM   . SPACE                               : Column data section delimiter
SOURCE. Converted to LAS by Log Studio 4.76 : GeoProvider

~Well
STRT.         2426.0 : Start depth
STOP.         2677.5 : Stop depth
STEP.              1 : Step
NULL.        -999.25 : No-value
COMP.                : Company
WELL. 6507/11-3      : Well
FLD .                : Field
LOC .                : Location
LATI.                : Latitude
LONG.                : Longitude
GDAT.                : Geodetic datum
CNTY.                : County
STAT.                : State
CTRY.                : Country
SRVC. GeoProvider AS : Service company
DATE.                : Date
API .                : API number
RUN .                : Run number

~Parameters
WellboreName.  : Wellbore name
RigName     .  : Rig name
StartDate   .  : Start date

~Curves
DEPTH.m            .  : null {F}Depth mMD
Hole_ID.-          .  : null {S}Hole ID
GR.API             .  : null {F}Gamma Ray
Lithology1.-       .  : null {S}Lithology 1
Lithology2.-       .  : null {S}Lithology 2
Lithology3.-       .  : null {S}Lithology 3
Lithology1.%       .  : null {F}Lithology 1 percentage
Lithology2.%       .  : null {F}Lithology 2 percentage
Lithology3.%       .  : null {F}Lithology 3 percentage
Grain_size_Top.-   .  : null {S}Grain size at the top 
Grain_size_Base.-  .  : null {S}Grain size at the bottom
Sub_Environment.-  .  : null {S}Sub Environment
Gross_Environment.-.  : null {S}Gross Environment

~Ascii
# ...
2635.3 "6507_11-3"  -999.25 "Sandstone"  "Shale" -999.25       65.0000 35.00000      0.0 "f/m"      "f/m"      "Lav-energi_grunnmarin,_midtre/nedre_strandskraning._"                                                                                                                         -999.25                                                            
2635.4 "6507_11-3"  -999.25 "Sandstone"  "Shale" -999.25       65.0000 35.00000      0.0 "f/m"      "f/m"      "Lav-energi_grunnmarin,_midtre/nedre_strandskraning._"                                                                                                                         -999.25                                                            
2635.5 "6507_11-3"  -999.25 "Sandstone"  "Shale" -999.25       65.0000 35.00000      0.0 "f/m"      "f/m"      "Lav-energi_grunnmarin,_midtre/nedre_strandskraning._"                                                                                                                         -999.25                                                            
2635.6 "6507_11-3"  -999.25 "Sandstone"  "Shale" -999.25       65.0000 35.00000      0.0 "f/m"      "f/m"      "Lav-energi_grunnmarin,_midtre/nedre_strandskraning._"                                                                                                                         -999.25                                                            
2635.7 "6507_11-3"  -999.25 "Sandstone"  "Shale" -999.25       65.0000 35.00000      0.0 "f/m"      "f/m"      "Lav-energi_grunnmarin,_midtre/nedre_strandskraning._"                                                                                                                         -999.25                                                            
2635.8 "6507_11-3"  -999.25 "Sandstone"  "Shale" -999.25       65.0000 35.00000      0.0 "f/m"      "f/m"      "Lav-energi_grunnmarin,_midtre/nedre_strandskraning._"                                                                                                                         -999.25                                                            
2635.9 "6507_11-3"  -999.25 "Sandstone"  "Shale" -999.25       65.0000 35.00000      0.0 "f/m"      "f/m"      "_Transgresjon"                                                                                                                                                                -999.25                                                            
2636.0 "6507_11-3"  -999.25 "Sandstone"  "Shale" -999.25       65.0000 35.00000      0.0 "f/m"      "f/m"      "_Transgresjon"                                                                                                                                                                -999.25                                                            
2636.1 "6507_11-3"  -999.25 "Sandstone"  "Shale" -999.25       65.0000 35.00000      0.0 "f/m"      "f/m"      "_Transgresjon"                                                                                                                                                                -999.25                                                            
2636.2 "6507_11-3"  -999.25 "Sandstone"  "Shale" -999.25       65.0000 35.00000      0.0 "f/m"      "f/m"      "_Transgresjon"                                                                                                                                                                -999.25                                                            
2636.3 "6507_11-3"  -999.25 "Sandstone"  "Shale" -999.25       65.0000 35.00000      0.0 "f/m"      "f/m"      "_Transgresjon"                                                                                                                                                                -999.25                                                            
2636.4 "6507_11-3"  -999.25 "Sandstone"  "Shale" -999.25       65.0000 35.00000      0.0 "f/m"      "f/m"      "_Transgresjon"                                                                                                                                                                -999.25                                                            
2636.5 "6507_11-3"  -999.25 "Sandstone"  "Shale" -999.25       65.0000 35.00000      0.0 "f/m"      "f/m"      "_Transgresjon"                                                                                                                                                                -999.25                                                            
2636.6 "6507_11-3"  -999.25 "Sandstone"  "Shale" -999.25       65.0000 35.00000      0.0 "f/m"      "f/m"      "_Transgresjon"                                                                                                                                                                -999.25                                                            
2636.7 "6507_11-3"  -999.25 "Sandstone"  "Shale" -999.25       65.0000 35.00000      0.0 "f/m"      "f/m"      "_Transgresjon"                                                                                                                                                                -999.25                                                            
2636.8 "6507_11-3"  -999.25 "Sandstone"  "Shale" -999.25       65.0000 35.00000      0.0 "f/m"      "f/m"      "_Transgresjon"                                                                                                                                                                -999.25                                                            
2636.9 "6507_11-3"  -999.25 "Sandstone"  "Shale" -999.25       65.0000 35.00000      0.0 "f/m"      "f/m"      "_Transgresjon"                                                                                                                                                                -999.25                                                            
2637.0 "6507_11-3"  -999.25 "Sandstone"  "Shale" -999.25       65.0000 35.00000      0.0 "f/m"      "f/m"      "_Transgresjon"                                                                                                                                                                -999.25                                                            
2637.1 "6507_11-3"  -999.25 "Sandstone"  "Shale" -999.25       65.0000 35.00000      0.0 "f/m"      "f/m"      "_Transgresjon"                                                                                                                                                                -999.25                                                            
2637.2 "6507_11-3"  -999.25 "Sandstone"  "Shale" -999.25       65.0000 35.00000      0.0 "f/m"      "f/m"      "_Transgresjon"                                                                                                                                                                -999.25                                                            
2637.3 "6507_11-3"  -999.25 "Sandstone"  "Shale" -999.25       65.0000 35.00000      0.0 "f/m"      "f/m"      "_Transgresjon"                                                                                                                                                                -999.25                                                            
2637.4 "6507_11-3"  -999.25 "Sandstone"  "Shale" -999.25       65.0000 35.00000      0.0 "f/m"      "f/m"      "_Transgresjon"                                                                                                                                                                -999.25                                                            
2637.5 "6507_11-3"  -999.25 "Sandstone"  "Shale" -999.25       65.0000 35.00000      0.0 "f/m"      "f/m"      "_Transgresjon"                                                                                                                                                                -999.25                                                            
