~Version
VERS  .                                 3.0 : CWLS LAS ASCII Standard - Version 3.0
WRAP  . NO                                  : One line per depth step
DLM   . SPACE                               : Column data section delimiter
SOURCE. Converted to LAS by Log Studio 4.76 : GeoProvider

~Well
STRT.         3836.0 : Start depth
STOP.         4268.0 : Stop depth
STEP.              1 : Step
NULL.        -999.25 : No-value
COMP.                : Company
WELL. 6506/12-3      : Well
FLD .                : Field
LOC .                : Location
LATI.                : Latitude
LONG.                : Longitude
GDAT.                : Geodetic datum
CNTY.                : County
STAT.                : State
CTRY.                : Country
SRVC. GeoProvider AS : Service company
DATE.                : Date
API .                : API number
RUN .                : Run number

~Parameters
WellboreName.  : Wellbore name
RigName     .  : Rig name
StartDate   .  : Start date

~Curves
DEPTH.m            .  : null {F}Depth mMD
Hole_ID.-          .  : null {S}Hole ID
GR.API             .  : null {F}Gamma Ray
Lithology1.-       .  : null {S}Lithology 1
Lithology2.-       .  : null {S}Lithology 2
Lithology3.-       .  : null {S}Lithology 3
Lithology1.%       .  : null {F}Lithology 1 percentage
Lithology2.%       .  : null {F}Lithology 2 percentage
Lithology3.%       .  : null {F}Lithology 3 percentage
Grain_size_Top.-   .  : null {S}Grain size at the top 
Grain_size_Base.-  .  : null {S}Grain size at the bottom
Sub_Environment.-  .  : null {S}Sub Environment
Gross_Environment.-.  : null {S}Gross Environment

~Ascii
# ...
3917.4 "6506_12-3" 24.24000 "Sandstone" -999.25  -999.25 100.0000      0.0     0.0 "f"        "f"        "Hovedsakelig_nedre_strandskråning"                                                "Distal_Delta_front"         
3917.5 "6506_12-3" 25.45000 "Sandstone" -999.25  -999.25 100.0000      0.0     0.0 "f"        "f"        "Hovedsakelig_nedre_strandskråning"                                                "Distal_Delta_front"         
3917.6 "6506_12-3" 26.04000 "Sandstone" -999.25  -999.25 100.0000      0.0     0.0 "f"        "f"        "Hovedsakelig_nedre_strandskråning"                                                "Distal_Delta_front"         
3917.7 "6506_12-3" 26.63000 "Sandstone" -999.25  -999.25 100.0000      0.0     0.0 "f"        "f"        "Hovedsakelig_nedre_strandskråning"                                                "Distal_Delta_front"         
3917.8 "6506_12-3" 27.10000 "Sandstone" -999.25  -999.25 100.0000      0.0     0.0 "f"        "f"        "Hovedsakelig_nedre_strandskråning"                                                "Distal_Delta_front"         
3917.9 "6506_12-3" 27.41000 "Sandstone" -999.25  -999.25 100.0000      0.0     0.0 "f"        "f"        "Hovedsakelig_nedre_strandskråning"                                                "Distal_Delta_front"         
3918.0 "6506_12-3" 27.71000 "Sandstone" -999.25  -999.25 100.0000      0.0     0.0 "f"        "f"        "Hovedsakelig_nedre_strandskråning"                                                "Distal_Delta_front"         
3918.1 "6506_12-3" 27.71000 "Sandstone" -999.25  -999.25 100.0000      0.0     0.0 "f"        "f"        "Hovedsakelig_nedre_strandskråning"                                                "Distal_Delta_front"         
3918.2 "6506_12-3" 27.63000 "Sandstone" -999.25  -999.25 100.0000      0.0     0.0 "f"        "f"        "Hovedsakelig_nedre_strandskråning"                                                "Distal_Delta_front"         
3918.3 "6506_12-3" 27.55000 "Sandstone" -999.25  -999.25 100.0000      0.0     0.0 "f"        "f"        "Hovedsakelig_nedre_strandskråning"                                                "Distal_Delta_front"         
3918.4 "6506_12-3" 27.24000 "Sandstone" -999.25  -999.25 100.0000      0.0     0.0 "f"        "f"        "Hovedsakelig_nedre_strandskråning"                                                "Distal_Delta_front"         
3918.5 "6506_12-3" 26.94000 "Sandstone" -999.25  -999.25 100.0000      0.0     0.0 "f"        "f"        "Hovedsakelig_nedre_strandskråning"                                                "Distal_Delta_front"         
3918.6 "6506_12-3" 26.63000 "Sandstone" -999.25  -999.25 100.0000      0.0     0.0 "f"        "f"        "Hovedsakelig_nedre_strandskråning"                                                "Distal_Delta_front"         
3918.7 "6506_12-3" 26.32000 "Sandstone" -999.25  -999.25 100.0000      0.0     0.0 "f"        "f"        "Hovedsakelig_nedre_strandskråning"                                                "Distal_Delta_front"         
3918.8 "6506_12-3" 26.30000 "Sandstone" -999.25  -999.25 100.0000      0.0     0.0 "f"        "f"        "Hovedsakelig_nedre_strandskråning"                                                "Distal_Delta_front"         
3918.9 "6506_12-3" 26.54000 "Sandstone" "Shale"  -999.25  80.0000 20.00000     0.0 "vf"       "f"        "Hovedsakelig_nedre_strandskråning"                                                "Distal_Delta_front"         
3919.0 "6506_12-3" 26.78000 "Sandstone" "Shale"  -999.25  80.0000 20.00000     0.0 "vf"       "f"        "Hovedsakelig_nedre_strandskråning"                                                "Distal_Delta_front"         
3919.1 "6506_12-3" 27.26000 "Sandstone" "Shale"  -999.25  80.0000 20.00000     0.0 "vf"       "f"        "Hovedsakelig_nedre_strandskråning"                                                "Distal_Delta_front"         
3919.2 "6506_12-3" 28.12000 "Sandstone" "Shale"  -999.25  80.0000 20.00000     0.0 "vf"       "f"        "Hovedsakelig_nedre_strandskråning"                                                "Distal_Delta_front"         
3919.3 "6506_12-3" 28.46000 "Sandstone" "Shale"  -999.25  80.0000 20.00000     0.0 "vf"       "f"        "Hovedsakelig_nedre_strandskråning"                                                "Distal_Delta_front"         
3919.4 "6506_12-3" 28.80000 "Sandstone" "Shale"  -999.25  80.0000 20.00000     0.0 "vf"       "f"        "Hovedsakelig_nedre_strandskråning"                                                "Distal_Delta_front"         
3919.5 "6506_12-3" 29.87000 "Sandstone" "Shale"  -999.25  80.0000 20.00000     0.0 "vf"       "f"        "Hovedsakelig_nedre_strandskråning"                                                "Distal_Delta_front"         
3919.6 "6506_12-3" 33.10000 "Sandstone" "Shale"  -999.25  80.0000 20.00000     0.0 "vf"       "f"        "Hovedsakelig_nedre_strandskråning"                                                "Distal_Delta_front"         
3919.7 "6506_12-3" 39.86000 "Sandstone" "Shale"  -999.25  80.0000 20.00000     0.0 "vf"       "f"        "Hovedsakelig_nedre_strandskråning"                                                "Distal_Delta_front"         
3919.8 "6506_12-3" 43.90000 "Sandstone" "Shale"  -999.25  80.0000 20.00000     0.0 "vf"       "f"        "Hovedsakelig_nedre_strandskråning"                                                "Distal_Delta_front"         
3919.9 "6506_12-3" 55.11000 "Sandstone" "Shale"  -999.25  80.0000 20.00000     0.0 "vf"       "f"        "Hovedsakelig_nedre_strandskråning"                                                "Distal_Delta_front"         
3920.0 "6506_12-3" 56.16000 "Sandstone" "Shale"  -999.25  80.0000 20.00000     0.0 "vf"       "f"        "Hovedsakelig_nedre_strandskråning"                                                "Distal_Delta_front"         
3920.1 "6506_12-3" 56.55000 "Sandstone" "Shale"  -999.25  80.0000 20.00000     0.0 "vf"       "f"        "Hovedsakelig_nedre_strandskråning"                                                "Distal_Delta_front"         
3920.2 "6506_12-3" 56.60000 "Sandstone" "Shale"  -999.25  80.0000 20.00000     0.0 "vf"       "f"        "Hovedsakelig_nedre_strandskråning"                                                "Distal_Delta_front"         
3920.3 "6506_12-3" 53.58000 "Sandstone" "Shale"  -999.25  80.0000 20.00000     0.0 "vf"       "f"        "Hovedsakelig_nedre_strandskråning"                                                "Distal_Delta_front"         
3920.4 "6506_12-3" 52.56000 "Sandstone" "Shale"  -999.25  80.0000 20.00000     0.0 "vf"       "f"        "Hovedsakelig_nedre_strandskråning"                                                "Distal_Delta_front"         
3920.5 "6506_12-3" 48.93000 "Sandstone" "Shale"  -999.25  80.0000 20.00000     0.0 "vf"       "f"        "Hovedsakelig_nedre_strandskråning"                                                "Distal_Delta_front"         
3920.6 "6506_12-3" 48.13000 "Sandstone" "Shale"  -999.25  80.0000 20.00000     0.0 "vf"       "f"        "Hovedsakelig_nedre_strandskråning"                                                "Distal_Delta_front"         
3920.7 "6506_12-3" 47.33000 "Sandstone" "Shale"  -999.25  80.0000 20.00000     0.0 "vf"       "f"        "Hovedsakelig_nedre_strandskråning"                                                "Distal_Delta_front"         
3920.8 "6506_12-3" 47.20000 "Sandstone" "Shale"  -999.25  80.0000 20.00000     0.0 "vf"       "f"        "Hovedsakelig_nedre_strandskråning"                                                "Distal_Delta_front"         
3920.9 "6506_12-3" 44.47000 "Sandstone" "Shale"  -999.25  80.0000 20.00000     0.0 "vf"       "f"        "Hovedsakelig_nedre_strandskråning"                                                "Distal_Delta_front"         
3921.0 "6506_12-3" 45.38000 "Sandstone" "Shale"  -999.25  80.0000 20.00000     0.0 "vf"       "f"        "Hovedsakelig_nedre_strandskråning"                                                "Distal_Delta_front"         
