~Version
VERS  .                                 3.0 : CWLS LAS ASCII Standard - Version 3.0
WRAP  . NO                                  : One line per depth step
DLM   . SPACE                               : Column data section delimiter
SOURCE. Converted to LAS by Log Studio 4.76 : GeoProvider

~Well
STRT.         3836.0 : Start depth
STOP.         4268.0 : Stop depth
STEP.              1 : Step
NULL.        -999.25 : No-value
COMP.                : Company
WELL. 6506/12-3      : Well
FLD .                : Field
LOC .                : Location
LATI.                : Latitude
LONG.                : Longitude
GDAT.                : Geodetic datum
CNTY.                : County
STAT.                : State
CTRY.                : Country
SRVC. GeoProvider AS : Service company
DATE.                : Date
API .                : API number
RUN .                : Run number

~Parameters
WellboreName.  : Wellbore name
RigName     .  : Rig name
StartDate   .  : Start date

~Curves
DEPTH.m            .  : null {F}Depth mMD
Hole_ID.-          .  : null {S}Hole ID
GR.API             .  : null {F}Gamma Ray
Lithology1.-       .  : null {S}Lithology 1
Lithology2.-       .  : null {S}Lithology 2
Lithology3.-       .  : null {S}Lithology 3
Lithology1.%       .  : null {F}Lithology 1 percentage
Lithology2.%       .  : null {F}Lithology 2 percentage
Lithology3.%       .  : null {F}Lithology 3 percentage
Grain_size_Top.-   .  : null {S}Grain size at the top 
Grain_size_Base.-  .  : null {S}Grain size at the bottom
Sub_Environment.-  .  : null {S}Sub Environment
Gross_Environment.-.  : null {S}Gross Environment

~Ascii
# ...
4183.0 "6506_12-3" 18.81000 "Sandstone" -999.25  -999.25 100.0000      0.0     0.0 "vc"       "vc"       "Tidevanns_kanal_kompleks"                                                         "Nedre_delta_slette/Kystslette"
4183.1 "6506_12-3" 17.30000 "Sandstone" -999.25  -999.25 100.0000      0.0     0.0 "vc"       "vc"       "Tidevanns_kanal_kompleks"                                                         "Nedre_delta_slette/Kystslette"
4183.2 "6506_12-3" 15.78000 "Sandstone" -999.25  -999.25 100.0000      0.0     0.0 "vc"       "vc"       "Tidevanns_kanal_kompleks"                                                         "Nedre_delta_slette/Kystslette"
4183.3 "6506_12-3" 14.53000 "Sandstone" -999.25  -999.25 100.0000      0.0     0.0 "vc"       "vc"       "Tidevanns_kanal_kompleks"                                                         "Nedre_delta_slette/Kystslette"
4183.4 "6506_12-3" 13.65000 "Sandstone" -999.25  -999.25 100.0000      0.0     0.0 "vc"       "vc"       "Tidevanns_kanal_kompleks"                                                         "Nedre_delta_slette/Kystslette"
4183.5 "6506_12-3" 12.77000 "Sandstone" -999.25  -999.25 100.0000      0.0     0.0 "vc"       "vc"       "Tidevanns_kanal_kompleks"                                                         "Nedre_delta_slette/Kystslette"
4183.6 "6506_12-3" 12.06000 "Sandstone" -999.25  -999.25 100.0000      0.0     0.0 "vc"       "vc"       "Tidevanns_kanal_kompleks"                                                         "Nedre_delta_slette/Kystslette"
4183.7 "6506_12-3" 11.70000 "Sandstone" -999.25  -999.25 100.0000      0.0     0.0 "vc"       "vc"       "Tidevanns_kanal_kompleks"                                                         "Nedre_delta_slette/Kystslette"
4183.8 "6506_12-3" 11.33000 "Sandstone" -999.25  -999.25 100.0000      0.0     0.0 "vc"       "vc"       "Tidevanns_kanal_kompleks"                                                         "Nedre_delta_slette/Kystslette"
4183.9 "6506_12-3" 11.13000 "Sandstone" -999.25  -999.25 100.0000      0.0     0.0 "vc"       "vc"       "Tidevanns_kanal_kompleks"                                                         "Nedre_delta_slette/Kystslette"
4184.0 "6506_12-3" 11.04000 "Sandstone" -999.25  -999.25 100.0000      0.0     0.0 "vc"       "vc"       "Tidevanns_kanal_kompleks"                                                         "Nedre_delta_slette/Kystslette"
4184.1 "6506_12-3" 10.94000 "Sandstone" -999.25  -999.25 100.0000      0.0     0.0 "vc"       "vc"       "Tidevanns_kanal_kompleks"                                                         "Nedre_delta_slette/Kystslette"
4184.2 "6506_12-3" 10.85000 "Sandstone" -999.25  -999.25 100.0000      0.0     0.0 "vc"       "vc"       "Tidevanns_kanal_kompleks"                                                         "Nedre_delta_slette/Kystslette"
4184.3 "6506_12-3" 10.76000 "Sandstone" -999.25  -999.25 100.0000      0.0     0.0 "vc"       "vc"       "Tidevanns_kanal_kompleks"                                                         "Nedre_delta_slette/Kystslette"
4184.4 "6506_12-3" 10.67000 "Sandstone" -999.25  -999.25 100.0000      0.0     0.0 "vc"       "vc"       "Tidevanns_kanal_kompleks"                                                         "Nedre_delta_slette/Kystslette"
4184.5 "6506_12-3" 10.58000 "Sandstone" -999.25  -999.25 100.0000      0.0     0.0 "vc"       "vc"       "Tidevanns_kanal_kompleks"                                                         "Nedre_delta_slette/Kystslette"
4184.6 "6506_12-3" 10.49000 "Sandstone" -999.25  -999.25 100.0000      0.0     0.0 "vc"       "vc"       "Tidevanns_kanal_kompleks"                                                         "Nedre_delta_slette/Kystslette"
4184.7 "6506_12-3" 10.57000 "Sandstone" -999.25  -999.25 100.0000      0.0     0.0 "vc"       "vc"       "Tidevanns_kanal_kompleks"                                                         "Nedre_delta_slette/Kystslette"
4184.8 "6506_12-3" 11.00000 "Sandstone" -999.25  -999.25 100.0000      0.0     0.0 "vc"       "vc"       "Tidevanns_kanal_kompleks"                                                         "Nedre_delta_slette/Kystslette"
4184.9 "6506_12-3" 11.42000 "Sandstone" -999.25  -999.25 100.0000      0.0     0.0 "vc"       "vc"       "Tidevanns_kanal_kompleks"                                                         "Nedre_delta_slette/Kystslette"
4185.0 "6506_12-3" 11.85000 "Sandstone" -999.25  -999.25 100.0000      0.0     0.0 "vc"       "vc"       "Tidevanns_kanal_kompleks"                                                         "Nedre_delta_slette/Kystslette"
4185.1 "6506_12-3" 12.31000 "Sandstone" -999.25  -999.25 100.0000      0.0     0.0 "vc"       "vc"       "Tidevanns_kanal_kompleks"                                                         "Nedre_delta_slette/Kystslette"
4185.2 "6506_12-3" 12.79000 "Sandstone" -999.25  -999.25 100.0000      0.0     0.0 "vc"       "vc"       "Tidevanns_kanal_kompleks"                                                         "Nedre_delta_slette/Kystslette"
4185.3 "6506_12-3" 13.00000 "Sandstone" -999.25  -999.25 100.0000      0.0     0.0 "vc"       "vc"       "Tidevanns_kanal_kompleks"                                                         "Nedre_delta_slette/Kystslette"
4185.4 "6506_12-3" 13.09000 "Sandstone" -999.25  -999.25 100.0000      0.0     0.0 "vc"       "vc"       "Tidevanns_kanal_kompleks"                                                         "Nedre_delta_slette/Kystslette"
4185.5 "6506_12-3" 13.00000 "Sandstone" -999.25  -999.25 100.0000      0.0     0.0 "vc"       "vc"       "Tidevanns_kanal_kompleks"                                                         "Nedre_delta_slette/Kystslette"
4185.6 "6506_12-3" 12.77000 "Sandstone" -999.25  -999.25 100.0000      0.0     0.0 "vc"       "vc"       "Tidevanns_kanal_kompleks"                                                         "Nedre_delta_slette/Kystslette"
4185.7 "6506_12-3" 12.55000 "Sandstone" -999.25  -999.25 100.0000      0.0     0.0 "vc"       "vc"       "Tidevanns_kanal_kompleks"                                                         "Nedre_delta_slette/Kystslette"
4185.8 "6506_12-3" 12.25000 "Sandstone" -999.25  -999.25 100.0000      0.0     0.0 "vc"       "vc"       "Tidevanns_kanal_kompleks"                                                         "Nedre_delta_slette/Kystslette"
4185.9 "6506_12-3" 11.88000 "Sandstone" -999.25  -999.25 100.0000      0.0     0.0 "vc"       "vc"       "Tidevanns_kanal_kompleks"                                                         "Nedre_delta_slette/Kystslette"
4186.0 "6506_12-3" 11.52000 "Sandstone" "Shale"  -999.25  80.0000 20.00000     0.0 "vc"       "vc"       "Tidevanns_kanal_kompleks"                                                         "Nedre_delta_slette/Kystslette"
4186.1 "6506_12-3" 11.15000 "Sandstone" "Shale"  -999.25  80.0000 20.00000     0.0 "vc"       "vc"       "Tidevanns_kanal_kompleks"                                                         "Nedre_delta_slette/Kystslette"
4186.2 "6506_12-3" 10.78000 "Sandstone" "Shale"  -999.25  80.0000 20.00000     0.0 "vc"       "vc"       "Tidevanns_kanal_kompleks"                                                         "Nedre_delta_slette/Kystslette"
4186.3 "6506_12-3" 10.41000 "Sandstone" "Shale"  -999.25  80.0000 20.00000     0.0 "vc"       "vc"       "Tidevanns_kanal_kompleks"                                                         "Nedre_delta_slette/Kystslette"
4186.4 "6506_12-3" 10.24000 "Sandstone" "Shale"  -999.25  85.0000 15.00000     0.0 "vc"       "vc"       "Tidevanns_kanal_kompleks"                                                         "Nedre_delta_slette/Kystslette"
4186.5 "6506_12-3" 10.15000 "Sandstone" "Shale"  -999.25  85.0000 15.00000     0.0 "vc"       "vc"       "Tidevanns_kanal_kompleks"                                                         "Nedre_delta_slette/Kystslette"
4186.6 "6506_12-3" 10.06000 "Sandstone" "Shale"  -999.25  85.0000 15.00000     0.0 "vc"       "vc"       "Tidevanns_kanal_kompleks"                                                         "Nedre_delta_slette/Kystslette"
