~Version
VERS  .                                 3.0 : CWLS LAS ASCII Standard - Version 3.0
WRAP  . NO                                  : One line per depth step
DLM   . SPACE                               : Column data section delimiter
SOURCE. Converted to LAS by Log Studio 4.76 : GeoProvider

~Well
STRT.         3836.0 : Start depth
STOP.         4268.0 : Stop depth
STEP.              1 : Step
NULL.        -999.25 : No-value
COMP.                : Company
WELL. 6506/12-3      : Well
FLD .                : Field
LOC .                : Location
LATI.                : Latitude
LONG.                : Longitude
GDAT.                : Geodetic datum
CNTY.                : County
STAT.                : State
CTRY.                : Country
SRVC. GeoProvider AS : Service company
DATE.                : Date
API .                : API number
RUN .                : Run number

~Parameters
WellboreName.  : Wellbore name
RigName     .  : Rig name
StartDate   .  : Start date

~Curves
DEPTH.m            .  : null {F}Depth mMD
Hole_ID.-          .  : null {S}Hole ID
GR.API             .  : null {F}Gamma Ray
Lithology1.-       .  : null {S}Lithology 1
Lithology2.-       .  : null {S}Lithology 2
Lithology3.-       .  : null {S}Lithology 3
Lithology1.%       .  : null {F}Lithology 1 percentage
Lithology2.%       .  : null {F}Lithology 2 percentage
Lithology3.%       .  : null {F}Lithology 3 percentage
Grain_size_Top.-   .  : null {S}Grain size at the top 
Grain_size_Base.-  .  : null {S}Grain size at the bottom
Sub_Environment.-  .  : null {S}Sub Environment
Gross_Environment.-.  : null {S}Gross Environment

~Ascii
# ...
4264.4 "6506_12-3" 11.11000 "Sandstone" "Shale"  -999.25  85.0000 15.00000     0.0 "c/vc"     "c/vc"     "Prograderende_tidevanns_deltafront"                                               "Tidevanns_estuarie_?"       
4264.5 "6506_12-3" 10.84000 "Sandstone" "Shale"  -999.25  85.0000 15.00000     0.0 "c/vc"     "c/vc"     "Prograderende_tidevanns_deltafront"                                               "Tidevanns_estuarie_?"       
4264.6 "6506_12-3" 10.57000 "Sandstone" "Shale"  -999.25  85.0000 15.00000     0.0 "c/vc"     "c/vc"     "Prograderende_tidevanns_deltafront"                                               "Tidevanns_estuarie_?"       
4264.7 "6506_12-3" 10.60000 "Sandstone" "Shale"  -999.25  85.0000 15.00000     0.0 "c/vc"     "c/vc"     "Prograderende_tidevanns_deltafront"                                               "Tidevanns_estuarie_?"       
4264.8 "6506_12-3" 10.94000 "Sandstone" "Shale"  -999.25  85.0000 15.00000     0.0 "c/vc"     "c/vc"     "Prograderende_tidevanns_deltafront"                                               "Tidevanns_estuarie_?"       
4264.9 "6506_12-3" 11.29000 "Sandstone" "Shale"  -999.25  85.0000 15.00000     0.0 "c/vc"     "c/vc"     "Prograderende_tidevanns_deltafront"                                               "Tidevanns_estuarie_?"       
4265.0 "6506_12-3" 12.45000 "Sandstone" "Shale"  -999.25  85.0000 15.00000     0.0 "c/vc"     "c/vc"     "Prograderende_tidevanns_deltafront"                                               "Tidevanns_estuarie_?"       
4265.1 "6506_12-3" 14.75000 "Sandstone" "Shale"  -999.25  85.0000 15.00000     0.0 "c/vc"     "c/vc"     "Prograderende_tidevanns_deltafront"                                               "Tidevanns_estuarie_?"       
4265.2 "6506_12-3" 18.50000 "Sandstone" "Shale"  -999.25  85.0000 15.00000     0.0 "c/vc"     "c/vc"     "Prograderende_tidevanns_deltafront"                                               "Tidevanns_estuarie_?"       
4265.3 "6506_12-3" 20.44000 "Sandstone" "Shale"  -999.25  85.0000 15.00000     0.0 "c/vc"     "c/vc"     "Prograderende_tidevanns_deltafront"                                               "Tidevanns_estuarie_?"       
4265.4 "6506_12-3" 20.50000 "Sandstone" "Shale"  -999.25  85.0000 15.00000     0.0 "c/vc"     "c/vc"     "Prograderende_tidevanns_deltafront"                                               "Tidevanns_estuarie_?"       
4265.5 "6506_12-3" 19.37000 "Sandstone" "Shale"  -999.25  85.0000 15.00000     0.0 "c/vc"     "c/vc"     "Prograderende_tidevanns_deltafront"                                               "Tidevanns_estuarie_?"       
4265.6 "6506_12-3" 17.39000 "Sandstone" "Shale"  -999.25  85.0000 15.00000     0.0 "c/vc"     "c/vc"     "Prograderende_tidevanns_deltafront"                                               "Tidevanns_estuarie_?"       
4265.7 "6506_12-3" 16.86000 "Sandstone" "Shale"  -999.25  85.0000 15.00000     0.0 "c/vc"     "c/vc"     "Prograderende_tidevanns_deltafront"                                               "Tidevanns_estuarie_?"       
4265.8 "6506_12-3" 17.01000 "Sandstone" "Shale"  -999.25  85.0000 15.00000     0.0 "c/vc"     "c/vc"     "Prograderende_tidevanns_deltafront"                                               "Tidevanns_estuarie_?"       
4265.9 "6506_12-3" 17.76000 "Sandstone" "Shale"  -999.25  85.0000 15.00000     0.0 "c/vc"     "c/vc"     "Prograderende_tidevanns_deltafront"                                               "Tidevanns_estuarie_?"       
4266.0 "6506_12-3" 20.77000 "Sandstone" "Shale"  -999.25  65.0000 35.00000     0.0 "vf/f"     "vf/f"     "Prograderende_tidevanns_deltafront"                                               "Tidevanns_estuarie_?"       
4266.1 "6506_12-3" 22.60000 "Sandstone" "Shale"  -999.25  65.0000 35.00000     0.0 "vf/f"     "vf/f"     "Prograderende_tidevanns_deltafront"                                               "Tidevanns_estuarie_?"       
4266.2 "6506_12-3" 23.96000 "Sandstone" "Shale"  -999.25  65.0000 35.00000     0.0 "vf/f"     "vf/f"     "Prograderende_tidevanns_deltafront"                                               "Tidevanns_estuarie_?"       
4266.3 "6506_12-3" 25.76000 "Sandstone" "Shale"  -999.25  65.0000 35.00000     0.0 "vf/f"     "vf/f"     "Prograderende_tidevanns_deltafront"                                               "Tidevanns_estuarie_?"       
4266.4 "6506_12-3" 25.62000 "Sandstone" "Shale"  -999.25  65.0000 35.00000     0.0 "vf/f"     "vf/f"     "Prograderende_tidevanns_deltafront"                                               "Tidevanns_estuarie_?"       
4266.5 "6506_12-3" 24.64000 "Sandstone" "Shale"  -999.25  65.0000 35.00000     0.0 "vf/f"     "vf/f"     "Prograderende_tidevanns_deltafront"                                               "Tidevanns_estuarie_?"       
4266.6 "6506_12-3" 23.66000 "Sandstone" "Shale"  -999.25  65.0000 35.00000     0.0 "vf/f"     "vf/f"     "Prograderende_tidevanns_deltafront"                                               "Tidevanns_estuarie_?"       
4266.7 "6506_12-3" 22.68000 "Sandstone" "Shale"  -999.25  65.0000 35.00000     0.0 "vf/f"     "vf/f"     "Prograderende_tidevanns_deltafront"                                               "Tidevanns_estuarie_?"       
4266.8 "6506_12-3" 21.97000 "Sandstone" "Shale"  -999.25  65.0000 35.00000     0.0 "vf/f"     "vf/f"     "Prograderende_tidevanns_deltafront"                                               "Tidevanns_estuarie_?"       
4266.9 "6506_12-3" 21.89000 "Sandstone" "Shale"  -999.25  65.0000 35.00000     0.0 "vf/f"     "vf/f"     "Prograderende_tidevanns_deltafront"                                               "Tidevanns_estuarie_?"       
4267.0 "6506_12-3" 23.32000 "Sandstone" "Shale"  -999.25  65.0000 35.00000     0.0 "vf/f"     "vf/f"     "Prograderende_tidevanns_deltafront"                                               "Tidevanns_estuarie_?"       
4267.1 "6506_12-3" 24.74000 "Sandstone" "Shale"  -999.25  65.0000 35.00000     0.0 "vf/f"     "vf/f"     "Prograderende_tidevanns_deltafront"                                               "Tidevanns_estuarie_?"       
4267.2 "6506_12-3" 26.06000 "Sandstone" "Shale"  -999.25  65.0000 35.00000     0.0 "vf/f"     "vf/f"     "Prograderende_tidevanns_deltafront"                                               "Tidevanns_estuarie_?"       
4267.3 "6506_12-3" 26.45000 "Sandstone" "Shale"  -999.25  65.0000 35.00000     0.0 "vf/f"     "vf/f"     "Prograderende_tidevanns_deltafront"                                               "Tidevanns_estuarie_?"       
4267.4 "6506_12-3" 26.69000 "Sandstone" "Shale"  -999.25  65.0000 35.00000     0.0 "vf/f"     "vf/f"     "Prograderende_tidevanns_deltafront"                                               "Tidevanns_estuarie_?"       
4267.5 "6506_12-3" 26.17000 "Sandstone" "Shale"  -999.25  65.0000 35.00000     0.0 "vf/f"     "vf/f"     "Prograderende_tidevanns_deltafront"                                               "Tidevanns_estuarie_?"       
4267.6 "6506_12-3" 25.64000 "Sandstone" "Shale"  -999.25  65.0000 35.00000     0.0 "vf/f"     "vf/f"     "Prograderende_tidevanns_deltafront"                                               "Tidevanns_estuarie_?"       
4267.7 "6506_12-3" 25.93000 "Sandstone" "Shale"  -999.25  65.0000 35.00000     0.0 "vf/f"     "vf/f"     "Prograderende_tidevanns_deltafront"                                               "Tidevanns_estuarie_?"       
4267.8 "6506_12-3" 26.32000 "Sandstone" "Shale"  -999.25  65.0000 35.00000     0.0 "vf/f"     "vf/f"     "Prograderende_tidevanns_deltafront"                                               "Tidevanns_estuarie_?"       
4267.9 "6506_12-3" 26.71000 "Sandstone" "Shale"  -999.25  65.0000 35.00000     0.0 "vf/f"     "vf/f"     "Prograderende_tidevanns_deltafront"                                               "Tidevanns_estuarie_?"       
4268.0 "6506_12-3" 28.31000 "Sandstone" "Shale"  -999.25  65.0000 35.00000     0.0 "vf/f"     "vf/f"     "Prograderende_tidevanns_deltafront"                                               "Tidevanns_estuarie_?"       
