~Version
VERS  .                                 3.0 : CWLS LAS ASCII Standard - Version 3.0
WRAP  . NO                                  : One line per depth step
DLM   . SPACE                               : Column data section delimiter
SOURCE. Converted to LAS by Log Studio 4.76 : GeoProvider

~Well
STRT.         3836.0 : Start depth
STOP.         4268.0 : Stop depth
STEP.              1 : Step
NULL.        -999.25 : No-value
COMP.                : Company
WELL. 6506/12-3      : Well
FLD .                : Field
LOC .                : Location
LATI.                : Latitude
LONG.                : Longitude
GDAT.                : Geodetic datum
CNTY.                : County
STAT.                : State
CTRY.                : Country
SRVC. GeoProvider AS : Service company
DATE.                : Date
API .                : API number
RUN .                : Run number

~Parameters
WellboreName.  : Wellbore name
RigName     .  : Rig name
StartDate   .  : Start date

~Curves
DEPTH.m            .  : null {F}Depth mMD
Hole_ID.-          .  : null {S}Hole ID
GR.API             .  : null {F}Gamma Ray
Lithology1.-       .  : null {S}Lithology 1
Lithology2.-       .  : null {S}Lithology 2
Lithology3.-       .  : null {S}Lithology 3
Lithology1.%       .  : null {F}Lithology 1 percentage
Lithology2.%       .  : null {F}Lithology 2 percentage
Lithology3.%       .  : null {F}Lithology 3 percentage
Grain_size_Top.-   .  : null {S}Grain size at the top 
Grain_size_Base.-  .  : null {S}Grain size at the bottom
Sub_Environment.-  .  : null {S}Sub Environment
Gross_Environment.-.  : null {S}Gross Environment

~Ascii
# ...
3898.9 "6506_12-3" 11.88000 "Sandstone" -999.25  -999.25 100.0000      0.0     0.0 "m/c"      "m/c"      "Hovedsakelig_øvre_strandskråning"                                                 "Proksimal_Delta_Front"      
3899.0 "6506_12-3" 11.93000 "Sandstone" -999.25  -999.25 100.0000      0.0     0.0 "m/c"      "m/c"      "Hovedsakelig_øvre_strandskråning"                                                 "Proksimal_Delta_Front"      
3899.1 "6506_12-3" 11.97000 "Sandstone" -999.25  -999.25 100.0000      0.0     0.0 "m/c"      "m/c"      "Hovedsakelig_øvre_strandskråning"                                                 "Proksimal_Delta_Front"      
3899.2 "6506_12-3" 12.02000 "Sandstone" -999.25  -999.25 100.0000      0.0     0.0 "m/c"      "m/c"      "Hovedsakelig_øvre_strandskråning"                                                 "Proksimal_Delta_Front"      
3899.3 "6506_12-3" 12.07000 "Sandstone" -999.25  -999.25 100.0000      0.0     0.0 "m/c"      "m/c"      "Hovedsakelig_øvre_strandskråning"                                                 "Proksimal_Delta_Front"      
3899.4 "6506_12-3" 12.34000 "Sandstone" -999.25  -999.25 100.0000      0.0     0.0 "m/c"      "m/c"      "Hovedsakelig_øvre_strandskråning"                                                 "Proksimal_Delta_Front"      
3899.5 "6506_12-3" 12.84000 "Sandstone" -999.25  -999.25 100.0000      0.0     0.0 "m/c"      "m/c"      "Hovedsakelig_øvre_strandskråning"                                                 "Proksimal_Delta_Front"      
3899.6 "6506_12-3" 13.34000 "Sandstone" -999.25  -999.25 100.0000      0.0     0.0 "m/c"      "m/c"      "Hovedsakelig_øvre_strandskråning"                                                 "Proksimal_Delta_Front"      
3899.7 "6506_12-3" 13.69000 "Sandstone" -999.25  -999.25 100.0000      0.0     0.0 "m/c"      "m/c"      "Hovedsakelig_øvre_strandskråning"                                                 "Proksimal_Delta_Front"      
3899.8 "6506_12-3" 13.72000 "Sandstone" -999.25  -999.25 100.0000      0.0     0.0 "m/c"      "m/c"      "Hovedsakelig_øvre_strandskråning"                                                 "Proksimal_Delta_Front"      
3899.9 "6506_12-3" 13.75000 "Sandstone" -999.25  -999.25 100.0000      0.0     0.0 "m/c"      "m/c"      "Hovedsakelig_øvre_strandskråning"                                                 "Proksimal_Delta_Front"      
3900.0 "6506_12-3" 13.30000 "Sandstone" -999.25  -999.25 100.0000      0.0     0.0 "m/c"      "m/c"      "Hovedsakelig_øvre_strandskråning"                                                 "Proksimal_Delta_Front"      
3900.1 "6506_12-3" 12.80000 "Sandstone" -999.25  -999.25 100.0000      0.0     0.0 "m/c"      "m/c"      "Hovedsakelig_øvre_strandskråning"                                                 "Proksimal_Delta_Front"      
3900.2 "6506_12-3" 12.30000 "Sandstone" -999.25  -999.25 100.0000      0.0     0.0 "m/c"      "m/c"      "Hovedsakelig_øvre_strandskråning"                                                 "Proksimal_Delta_Front"      
3900.3 "6506_12-3" 11.80000 "Sandstone" -999.25  -999.25 100.0000      0.0     0.0 "m/c"      "m/c"      "Hovedsakelig_øvre_strandskråning"                                                 "Proksimal_Delta_Front"      
3900.4 "6506_12-3" 11.30000 "Sandstone" -999.25  -999.25 100.0000      0.0     0.0 "m/c"      "m/c"      "Hovedsakelig_øvre_strandskråning"                                                 "Proksimal_Delta_Front"      
3900.5 "6506_12-3" 10.79000 "Sandstone" -999.25  -999.25 100.0000      0.0     0.0 "m/c"      "m/c"      "Hovedsakelig_øvre_strandskråning"                                                 "Proksimal_Delta_Front"      
3900.6 "6506_12-3" 10.52000 "Sandstone" -999.25  -999.25 100.0000      0.0     0.0 "m/c"      "m/c"      "Hovedsakelig_øvre_strandskråning"                                                 "Proksimal_Delta_Front"      
3900.7 "6506_12-3" 10.42000 "Sandstone" -999.25  -999.25 100.0000      0.0     0.0 "m/c"      "m/c"      "Hovedsakelig_øvre_strandskråning"                                                 "Proksimal_Delta_Front"      
3900.8 "6506_12-3" 10.32000 "Sandstone" -999.25  -999.25 100.0000      0.0     0.0 "m/c"      "m/c"      "Hovedsakelig_øvre_strandskråning"                                                 "Proksimal_Delta_Front"      
3900.9 "6506_12-3" 10.47000 "Sandstone" -999.25  -999.25 100.0000      0.0     0.0 "m/c"      "m/c"      "Hovedsakelig_øvre_strandskråning"                                                 "Proksimal_Delta_Front"      
3901.0 "6506_12-3" 10.80000 "Sandstone" -999.25  -999.25 100.0000      0.0     0.0 "m/c"      "m/c"      "Hovedsakelig_øvre_strandskråning"                                                 "Proksimal_Delta_Front"      
3901.1 "6506_12-3" 11.13000 "Sandstone" -999.25  -999.25 100.0000      0.0     0.0 "m/c"      "m/c"      "Hovedsakelig_øvre_strandskråning"                                                 "Proksimal_Delta_Front"      
3901.2 "6506_12-3" 11.63000 "Sandstone" -999.25  -999.25 100.0000      0.0     0.0 "m/c"      "m/c"      "Hovedsakelig_øvre_strandskråning"                                                 "Proksimal_Delta_Front"      
3901.3 "6506_12-3" 12.14000 "Sandstone" -999.25  -999.25 100.0000      0.0     0.0 "m/c"      "m/c"      "Hovedsakelig_øvre_strandskråning"                                                 "Proksimal_Delta_Front"      
3901.4 "6506_12-3" 12.65000 "Sandstone" -999.25  -999.25 100.0000      0.0     0.0 "m/c"      "m/c"      "Hovedsakelig_øvre_strandskråning"                                                 "Proksimal_Delta_Front"      
3901.5 "6506_12-3" 12.77000 "Sandstone" -999.25  -999.25 100.0000      0.0     0.0 "m/c"      "m/c"      "Hovedsakelig_øvre_strandskråning"                                                 "Proksimal_Delta_Front"      
3901.6 "6506_12-3" 12.88000 "Sandstone" -999.25  -999.25 100.0000      0.0     0.0 "m/c"      "m/c"      "Hovedsakelig_øvre_strandskråning"                                                 "Proksimal_Delta_Front"      
3901.7 "6506_12-3" 12.99000 "Sandstone" -999.25  -999.25 100.0000      0.0     0.0 "m/c"      "m/c"      "Hovedsakelig_øvre_strandskråning"                                                 "Proksimal_Delta_Front"      
3901.8 "6506_12-3" 12.85000 "Sandstone" -999.25  -999.25 100.0000      0.0     0.0 "m/c"      "m/c"      "Hovedsakelig_øvre_strandskråning"                                                 "Proksimal_Delta_Front"      
3901.9 "6506_12-3" 12.55000 "Sandstone" -999.25  -999.25 100.0000      0.0     0.0 "m/c"      "m/c"      "Hovedsakelig_øvre_strandskråning"                                                 "Proksimal_Delta_Front"      
3902.0 "6506_12-3" 12.25000 "Sandstone" -999.25  -999.25 100.0000      0.0     0.0 "m/c"      "m/c"      "Hovedsakelig_øvre_strandskråning"                                                 "Proksimal_Delta_Front"      
3902.1 "6506_12-3" 11.95000 "Sandstone" -999.25  -999.25 100.0000      0.0     0.0 "m/c"      "m/c"      "Hovedsakelig_øvre_strandskråning"                                                 "Proksimal_Delta_Front"      
3902.2 "6506_12-3" 11.65000 "Sandstone" -999.25  -999.25 100.0000      0.0     0.0 "m/c"      "m/c"      "Hovedsakelig_øvre_strandskråning"                                                 "Proksimal_Delta_Front"      
3902.3 "6506_12-3" 11.35000 "Sandstone" -999.25  -999.25 100.0000      0.0     0.0 "m/c"      "m/c"      "Hovedsakelig_øvre_strandskråning"                                                 "Proksimal_Delta_Front"      
3902.4 "6506_12-3" 11.07000 "Sandstone" -999.25  -999.25 100.0000      0.0     0.0 "m/c"      "m/c"      "Hovedsakelig_øvre_strandskråning"                                                 "Proksimal_Delta_Front"      
3902.5 "6506_12-3" 10.90000 "Sandstone" -999.25  -999.25 100.0000      0.0     0.0 "m/c"      "m/c"      "Hovedsakelig_øvre_strandskråning"                                                 "Proksimal_Delta_Front"      
