~Version
VERS  .                                 3.0 : CWLS LAS ASCII Standard - Version 3.0
WRAP  . NO                                  : One line per depth step
DLM   . SPACE                               : Column data section delimiter
SOURCE. Converted to LAS by Log Studio 4.76 : GeoProvider

~Well
STRT.         3836.0 : Start depth
STOP.         4268.0 : Stop depth
STEP.              1 : Step
NULL.        -999.25 : No-value
COMP.                : Company
WELL. 6506/12-3      : Well
FLD .                : Field
LOC .                : Location
LATI.                : Latitude
LONG.                : Longitude
GDAT.                : Geodetic datum
CNTY.                : County
STAT.                : State
CTRY.                : Country
SRVC. GeoProvider AS : Service company
DATE.                : Date
API .                : API number
RUN .                : Run number

~Parameters
WellboreName.  : Wellbore name
RigName     .  : Rig name
StartDate   .  : Start date

~Curves
DEPTH.m            .  : null {F}Depth mMD
Hole_ID.-          .  : null {S}Hole ID
GR.API             .  : null {F}Gamma Ray
Lithology1.-       .  : null {S}Lithology 1
Lithology2.-       .  : null {S}Lithology 2
Lithology3.-       .  : null {S}Lithology 3
Lithology1.%       .  : null {F}Lithology 1 percentage
Lithology2.%       .  : null {F}Lithology 2 percentage
Lithology3.%       .  : null {F}Lithology 3 percentage
Grain_size_Top.-   .  : null {S}Grain size at the top 
Grain_size_Base.-  .  : null {S}Grain size at the bottom
Sub_Environment.-  .  : null {S}Sub Environment
Gross_Environment.-.  : null {S}Gross Environment

~Ascii
# ...
3858.2 "6506_12-3" 19.40000 "Sandstone" -999.25  -999.25 100.0000      0.0     0.0 "vc"       "m/c"      "Hovedsakelig_øvre_strandskråning"                                                 "Proksimal_Delta_Front"      
3858.3 "6506_12-3" 19.91000 "Sandstone" -999.25  -999.25 100.0000      0.0     0.0 "vc"       "m/c"      "Hovedsakelig_øvre_strandskråning"                                                 "Proksimal_Delta_Front"      
3858.4 "6506_12-3" 20.43000 "Sandstone" -999.25  -999.25 100.0000      0.0     0.0 "vc"       "m/c"      "Hovedsakelig_øvre_strandskråning"                                                 "Proksimal_Delta_Front"      
3858.5 "6506_12-3" 20.94000 "Sandstone" -999.25  -999.25 100.0000      0.0     0.0 "c/vc"     "c"        "Hovedsakelig_øvre_strandskråning"                                                 "Proksimal_Delta_Front"      
3858.6 "6506_12-3" 21.73000 "Sandstone" -999.25  -999.25 100.0000      0.0     0.0 "c/vc"     "c"        "Hovedsakelig_øvre_strandskråning"                                                 "Proksimal_Delta_Front"      
3858.7 "6506_12-3" 22.59000 "Sandstone" -999.25  -999.25 100.0000      0.0     0.0 "c/vc"     "c"        "Hovedsakelig_øvre_strandskråning"                                                 "Proksimal_Delta_Front"      
3858.8 "6506_12-3" 23.44000 "Sandstone" -999.25  -999.25 100.0000      0.0     0.0 "c/vc"     "c"        "Hovedsakelig_øvre_strandskråning"                                                 "Proksimal_Delta_Front"      
3858.9 "6506_12-3" 24.31000 "Sandstone" -999.25  -999.25 100.0000      0.0     0.0 "c/vc"     "c"        "Hovedsakelig_øvre_strandskråning"                                                 "Proksimal_Delta_Front"      
3859.0 "6506_12-3" 25.09000 "Sandstone" -999.25  -999.25 100.0000      0.0     0.0 "c/vc"     "c"        "Hovedsakelig_øvre_strandskråning"                                                 "Proksimal_Delta_Front"      
3859.1 "6506_12-3" 25.09000 "Sandstone" -999.25  -999.25 100.0000      0.0     0.0 "c/vc"     "c"        "Hovedsakelig_øvre_strandskråning"                                                 "Proksimal_Delta_Front"      
3859.2 "6506_12-3" 24.87000 "Sandstone" -999.25  -999.25 100.0000      0.0     0.0 "c/vc"     "c"        "Hovedsakelig_øvre_strandskråning"                                                 "Proksimal_Delta_Front"      
3859.3 "6506_12-3" 24.01000 "Sandstone" -999.25  -999.25 100.0000      0.0     0.0 "c/vc"     "c"        "Hovedsakelig_øvre_strandskråning"                                                 "Proksimal_Delta_Front"      
3859.4 "6506_12-3" 23.15000 "Sandstone" -999.25  -999.25 100.0000      0.0     0.0 "c/vc"     "c"        "Hovedsakelig_øvre_strandskråning"                                                 "Proksimal_Delta_Front"      
3859.5 "6506_12-3" 22.29000 "Sandstone" -999.25  -999.25 100.0000      0.0     0.0 "c/vc"     "c"        "Hovedsakelig_øvre_strandskråning"                                                 "Proksimal_Delta_Front"      
3859.6 "6506_12-3" 21.51000 "Sandstone" -999.25  -999.25 100.0000      0.0     0.0 "c/vc"     "c"        "Hovedsakelig_øvre_strandskråning"                                                 "Proksimal_Delta_Front"      
3859.7 "6506_12-3" 20.73000 "Sandstone" -999.25  -999.25 100.0000      0.0     0.0 "c/vc"     "c"        "Hovedsakelig_øvre_strandskråning"                                                 "Proksimal_Delta_Front"      
3859.8 "6506_12-3" 19.96000 "Sandstone" -999.25  -999.25 100.0000      0.0     0.0 "c/vc"     "c"        "Hovedsakelig_øvre_strandskråning"                                                 "Proksimal_Delta_Front"      
3859.9 "6506_12-3" 19.18000 "Sandstone" -999.25  -999.25 100.0000      0.0     0.0 "c/vc"     "c"        "Hovedsakelig_øvre_strandskråning"                                                 "Proksimal_Delta_Front"      
3860.0 "6506_12-3" 18.43000 "Sandstone" -999.25  -999.25 100.0000      0.0     0.0 "c/vc"     "c"        "Hovedsakelig_øvre_strandskråning"                                                 "Proksimal_Delta_Front"      
3860.1 "6506_12-3" 18.11000 "Sandstone" -999.25  -999.25 100.0000      0.0     0.0 "c/vc"     "c"        "Hovedsakelig_øvre_strandskråning"                                                 "Proksimal_Delta_Front"      
3860.2 "6506_12-3" 17.78000 "Sandstone" -999.25  -999.25 100.0000      0.0     0.0 "c/vc"     "c"        "Hovedsakelig_øvre_strandskråning"                                                 "Proksimal_Delta_Front"      
3860.3 "6506_12-3" 17.45000 "Sandstone" -999.25  -999.25 100.0000      0.0     0.0 "c/vc"     "c"        "Hovedsakelig_øvre_strandskråning"                                                 "Proksimal_Delta_Front"      
3860.4 "6506_12-3" 16.99000 "Sandstone" -999.25  -999.25 100.0000      0.0     0.0 "c/vc"     "c"        "Hovedsakelig_øvre_strandskråning"                                                 "Proksimal_Delta_Front"      
3860.5 "6506_12-3" 16.39000 "Sandstone" -999.25  -999.25 100.0000      0.0     0.0 "c/vc"     "c"        "Hovedsakelig_øvre_strandskråning"                                                 "Proksimal_Delta_Front"      
3860.6 "6506_12-3" 15.80000 "Sandstone" -999.25  -999.25 100.0000      0.0     0.0 "c/vc"     "c"        "Hovedsakelig_øvre_strandskråning"                                                 "Proksimal_Delta_Front"      
3860.7 "6506_12-3" 15.20000 "Sandstone" -999.25  -999.25 100.0000      0.0     0.0 "c/vc"     "c"        "Hovedsakelig_øvre_strandskråning"                                                 "Proksimal_Delta_Front"      
3860.8 "6506_12-3" 14.59000 "Sandstone" -999.25  -999.25 100.0000      0.0     0.0 "c/vc"     "c"        "Hovedsakelig_øvre_strandskråning"                                                 "Proksimal_Delta_Front"      
3860.9 "6506_12-3" 13.96000 "Sandstone" -999.25  -999.25 100.0000      0.0     0.0 "c/vc"     "c"        "Hovedsakelig_øvre_strandskråning"                                                 "Proksimal_Delta_Front"      
3861.0 "6506_12-3" 13.33000 "Sandstone" -999.25  -999.25 100.0000      0.0     0.0 "c/vc"     "c"        "Hovedsakelig_øvre_strandskråning"                                                 "Proksimal_Delta_Front"      
3861.1 "6506_12-3" 12.71000 "Sandstone" -999.25  -999.25 100.0000      0.0     0.0 "c/vc"     "c"        "Hovedsakelig_øvre_strandskråning"                                                 "Proksimal_Delta_Front"      
3861.2 "6506_12-3" 12.28000 "Sandstone" -999.25  -999.25 100.0000      0.0     0.0 "c/vc"     "c"        "Hovedsakelig_øvre_strandskråning"                                                 "Proksimal_Delta_Front"      
3861.3 "6506_12-3" 12.08000 "Sandstone" -999.25  -999.25 100.0000      0.0     0.0 "c/vc"     "c"        "Hovedsakelig_øvre_strandskråning"                                                 "Proksimal_Delta_Front"      
3861.4 "6506_12-3" 11.87000 "Sandstone" -999.25  -999.25 100.0000      0.0     0.0 "c/vc"     "c"        "Hovedsakelig_øvre_strandskråning"                                                 "Proksimal_Delta_Front"      
3861.5 "6506_12-3" 11.67000 "Sandstone" -999.25  -999.25 100.0000      0.0     0.0 "c/vc"     "c"        "Hovedsakelig_øvre_strandskråning"                                                 "Proksimal_Delta_Front"      
3861.6 "6506_12-3" 11.25000 "Sandstone" -999.25  -999.25 100.0000      0.0     0.0 "c/vc"     "c"        "Hovedsakelig_øvre_strandskråning"                                                 "Proksimal_Delta_Front"      
3861.7 "6506_12-3" 10.82000 "Sandstone" -999.25  -999.25 100.0000      0.0     0.0 "c/vc"     "c"        "Hovedsakelig_øvre_strandskråning"                                                 "Proksimal_Delta_Front"      
3861.8 "6506_12-3" 10.38000 "Sandstone" -999.25  -999.25 100.0000      0.0     0.0 "c/vc"     "c"        "Hovedsakelig_øvre_strandskråning"                                                 "Proksimal_Delta_Front"      
