~Version
VERS  .                                 3.0 : CWLS LAS ASCII Standard - Version 3.0
WRAP  . NO                                  : One line per depth step
DLM   . SPACE                               : Column data section delimiter
SOURCE. Converted to LAS by Log Studio 4.76 : GeoProvider

~Well
STRT.         3836.0 : Start depth
STOP.         4268.0 : Stop depth
STEP.              1 : Step
NULL.        -999.25 : No-value
COMP.                : Company
WELL. 6506/12-3      : Well
FLD .                : Field
LOC .                : Location
LATI.                : Latitude
LONG.                : Longitude
GDAT.                : Geodetic datum
CNTY.                : County
STAT.                : State
CTRY.                : Country
SRVC. GeoProvider AS : Service company
DATE.                : Date
API .                : API number
RUN .                : Run number

~Parameters
WellboreName.  : Wellbore name
RigName     .  : Rig name
StartDate   .  : Start date

~Curves
DEPTH.m            .  : null {F}Depth mMD
Hole_ID.-          .  : null {S}Hole ID
GR.API             .  : null {F}Gamma Ray
Lithology1.-       .  : null {S}Lithology 1
Lithology2.-       .  : null {S}Lithology 2
Lithology3.-       .  : null {S}Lithology 3
Lithology1.%       .  : null {F}Lithology 1 percentage
Lithology2.%       .  : null {F}Lithology 2 percentage
Lithology3.%       .  : null {F}Lithology 3 percentage
Grain_size_Top.-   .  : null {S}Grain size at the top 
Grain_size_Base.-  .  : null {S}Grain size at the bottom
Sub_Environment.-  .  : null {S}Sub Environment
Gross_Environment.-.  : null {S}Gross Environment

~Ascii
# ...
4120.1 "6506_12-3" 29.21000 "Sandstone" "Mudstone" -999.25   5.0000 95.00000     0.0 "silt/vf"  "silt/vf"  "Åpent_marin"                                                                      "Prodelta"                   
4120.2 "6506_12-3" 29.44000 "Sandstone" "Mudstone" -999.25   5.0000 95.00000     0.0 "silt/vf"  "silt/vf"  "Åpent_marin"                                                                      "Prodelta"                   
4120.3 "6506_12-3" 29.70000 "Sandstone" "Mudstone" -999.25   5.0000 95.00000     0.0 "silt/vf"  "silt/vf"  "Åpent_marin"                                                                      "Prodelta"                   
4120.4 "6506_12-3" 29.96000 "Sandstone" "Mudstone" -999.25   5.0000 95.00000     0.0 "silt/vf"  "silt/vf"  "Åpent_marin"                                                                      "Prodelta"                   
4120.5 "6506_12-3" 30.15000 "Sandstone" "Mudstone" -999.25   5.0000 95.00000     0.0 "silt/vf"  "silt/vf"  "Åpent_marin"                                                                      "Prodelta"                   
4120.6 "6506_12-3" 30.23000 "Sandstone" "Mudstone" -999.25   5.0000 95.00000     0.0 "silt/vf"  "silt/vf"  "Åpent_marin"                                                                      "Prodelta"                   
4120.7 "6506_12-3" 30.31000 "Sandstone" "Mudstone" -999.25   5.0000 95.00000     0.0 "silt/vf"  "silt/vf"  "Åpent_marin"                                                                      "Prodelta"                   
4120.8 "6506_12-3" 30.40000 "Sandstone" "Mudstone" -999.25   5.0000 95.00000     0.0 "silt/vf"  "silt/vf"  "Åpent_marin"                                                                      "Prodelta"                   
4120.9 "6506_12-3" 30.69000 "Sandstone" "Mudstone" -999.25   5.0000 95.00000     0.0 "silt/vf"  "silt/vf"  "Åpent_marin"                                                                      "Prodelta"                   
4121.0 "6506_12-3" 31.08000 "Sandstone" "Mudstone" -999.25   5.0000 95.00000     0.0 "silt/vf"  "silt/vf"  "Åpent_marin"                                                                      "Prodelta"                   
4121.1 "6506_12-3" 31.47000 "Sandstone" "Mudstone" -999.25   5.0000 95.00000     0.0 "silt/vf"  "silt/vf"  "Åpent_marin"                                                                      "Prodelta"                   
4121.2 "6506_12-3" 31.86000 "Sandstone" "Mudstone" -999.25   5.0000 95.00000     0.0 "silt/vf"  "silt/vf"  "Åpent_marin"                                                                      "Prodelta"                   
4121.3 "6506_12-3" 32.25000 "Sandstone" "Mudstone" -999.25   5.0000 95.00000     0.0 "silt/vf"  "silt/vf"  "Åpent_marin"                                                                      "Prodelta"                   
4121.4 "6506_12-3" 32.64000 "Sandstone" "Mudstone" -999.25   5.0000 95.00000     0.0 "silt/vf"  "silt/vf"  "Åpent_marin"                                                                      "Prodelta"                   
4121.5 "6506_12-3" 32.94000 "Sandstone" "Mudstone" -999.25   5.0000 95.00000     0.0 "silt/vf"  "silt/vf"  "Åpent_marin"                                                                      "Prodelta"                   
4121.6 "6506_12-3" 33.09000 "Sandstone" "Mudstone" -999.25   5.0000 95.00000     0.0 "silt/vf"  "silt/vf"  "Åpent_marin"                                                                      "Prodelta"                   
4121.7 "6506_12-3" 33.25000 "Sandstone" "Mudstone" -999.25   5.0000 95.00000     0.0 "silt/vf"  "silt/vf"  "Åpent_marin"                                                                      "Prodelta"                   
4121.8 "6506_12-3" 33.35000 "Sandstone" "Mudstone" -999.25   5.0000 95.00000     0.0 "silt/vf"  "silt/vf"  "Åpent_marin"                                                                      "Prodelta"                   
4121.9 "6506_12-3" 33.12000 "Sandstone" "Mudstone" -999.25   5.0000 95.00000     0.0 "silt/vf"  "silt/vf"  "Åpent_marin"                                                                      "Prodelta"                   
4122.0 "6506_12-3" 32.90000 "Sandstone" "Mudstone" -999.25   5.0000 95.00000     0.0 "silt/vf"  "silt/vf"  "Åpent_marin"                                                                      "Prodelta"                   
4122.1 "6506_12-3" 32.67000 "Sandstone" "Mudstone" -999.25   5.0000 95.00000     0.0 "silt/vf"  "silt/vf"  "Åpent_marin"                                                                      "Prodelta"                   
4122.2 "6506_12-3" 32.55000 "Sandstone" "Mudstone" -999.25   5.0000 95.00000     0.0 "silt/vf"  "silt/vf"  "Åpent_marin"                                                                      "Prodelta"                   
4122.3 "6506_12-3" 32.72000 "Sandstone" "Mudstone" -999.25   5.0000 95.00000     0.0 "silt/vf"  "silt/vf"  "Åpent_marin"                                                                      "Prodelta"                   
4122.4 "6506_12-3" 32.89000 "Sandstone" "Mudstone" -999.25   5.0000 95.00000     0.0 "silt/vf"  "silt/vf"  "Åpent_marin"                                                                      "Prodelta"                   
4122.5 "6506_12-3" 33.16000 "Sandstone" "Mudstone" -999.25   5.0000 95.00000     0.0 "silt/vf"  "silt/vf"  "Åpent_marin"                                                                      "Prodelta"                   
4122.6 "6506_12-3" 33.62000 "Sandstone" "Mudstone" -999.25   5.0000 95.00000     0.0 "silt/vf"  "silt/vf"  "Åpent_marin"                                                                      "Prodelta"                   
4122.7 "6506_12-3" 34.08000 "Sandstone" "Mudstone" -999.25 100.0000      0.0     0.0 "f/m"      "f/m"      "Åpent_marin"                                                                      "Prodelta"                   
4122.8 "6506_12-3" 34.22000 "Sandstone" "Mudstone" -999.25   8.0000 92.00000     0.0 "silt/vf"  "silt/vf"  "Åpent_marin"                                                                      "Prodelta"                   
4122.9 "6506_12-3" 34.16000 "Sandstone" "Mudstone" -999.25   8.0000 92.00000     0.0 "silt/vf"  "silt/vf"  "Åpent_marin"                                                                      "Prodelta"                   
4123.0 "6506_12-3" 34.01000 "Sandstone" "Mudstone" -999.25   8.0000 92.00000     0.0 "silt/vf"  "silt/vf"  "Åpent_marin"                                                                      "Prodelta"                   
4123.1 "6506_12-3" 33.81000 "Sandstone" "Mudstone" -999.25   8.0000 92.00000     0.0 "silt/vf"  "silt/vf"  "Åpent_marin"                                                                      "Prodelta"                   
4123.2 "6506_12-3" 33.67000 "Sandstone" "Mudstone" -999.25   8.0000 92.00000     0.0 "silt/vf"  "silt/vf"  "Åpent_marin"                                                                      "Prodelta"                   
4123.3 "6506_12-3" 34.11000 "Sandstone" "Mudstone" -999.25   8.0000 92.00000     0.0 "silt/vf"  "silt/vf"  "Åpent_marin"                                                                      "Prodelta"                   
4123.4 "6506_12-3" 34.55000 "Sandstone" "Mudstone" -999.25   8.0000 92.00000     0.0 "silt/vf"  "silt/vf"  "Åpent_marin"                                                                      "Prodelta"                   
4123.5 "6506_12-3" 34.99000 "Sandstone" "Mudstone" -999.25   8.0000 92.00000     0.0 "silt/vf"  "silt/vf"  "Åpent_marin"                                                                      "Prodelta"                   
4123.6 "6506_12-3" 35.17000 "Sandstone" "Mudstone" -999.25   8.0000 92.00000     0.0 "silt/vf"  "silt/vf"  "Åpent_marin"                                                                      "Prodelta"                   
4123.7 "6506_12-3" 35.09000 "Sandstone" "Mudstone" -999.25   8.0000 92.00000     0.0 "silt/vf"  "silt/vf"  "Åpent_marin"                                                                      "Prodelta"                   
