~Version
VERS  .                                 3.0 : CWLS LAS ASCII Standard - Version 3.0
WRAP  . NO                                  : One line per depth step
DLM   . SPACE                               : Column data section delimiter
SOURCE. Converted to LAS by Log Studio 4.76 : GeoProvider

~Well
STRT.         3836.0 : Start depth
STOP.         4268.0 : Stop depth
STEP.              1 : Step
NULL.        -999.25 : No-value
COMP.                : Company
WELL. 6506/12-3      : Well
FLD .                : Field
LOC .                : Location
LATI.                : Latitude
LONG.                : Longitude
GDAT.                : Geodetic datum
CNTY.                : County
STAT.                : State
CTRY.                : Country
SRVC. GeoProvider AS : Service company
DATE.                : Date
API .                : API number
RUN .                : Run number

~Parameters
WellboreName.  : Wellbore name
RigName     .  : Rig name
StartDate   .  : Start date

~Curves
DEPTH.m            .  : null {F}Depth mMD
Hole_ID.-          .  : null {S}Hole ID
GR.API             .  : null {F}Gamma Ray
Lithology1.-       .  : null {S}Lithology 1
Lithology2.-       .  : null {S}Lithology 2
Lithology3.-       .  : null {S}Lithology 3
Lithology1.%       .  : null {F}Lithology 1 percentage
Lithology2.%       .  : null {F}Lithology 2 percentage
Lithology3.%       .  : null {F}Lithology 3 percentage
Grain_size_Top.-   .  : null {S}Grain size at the top 
Grain_size_Base.-  .  : null {S}Grain size at the bottom
Sub_Environment.-  .  : null {S}Sub Environment
Gross_Environment.-.  : null {S}Gross Environment

~Ascii
# ...
4142.3 "6506_12-3" 34.21000 "Sandstone" "Mudstone" -999.25  10.0000 90.00000     0.0 "silt/vf"  "silt/vf"  "Åpent_marin"                                                                      "Prodelta"                   
4142.4 "6506_12-3" 35.08000 "Sandstone" "Mudstone" -999.25  10.0000 90.00000     0.0 "silt/vf"  "silt/vf"  "Åpent_marin"                                                                      "Prodelta"                   
4142.5 "6506_12-3" 35.71000 "Sandstone" "Mudstone" -999.25  10.0000 90.00000     0.0 "silt/vf"  "silt/vf"  "Åpent_marin"                                                                      "Prodelta"                   
4142.6 "6506_12-3" 35.89000 "Sandstone" "Mudstone" -999.25  10.0000 90.00000     0.0 "silt/vf"  "silt/vf"  "Åpent_marin"                                                                      "Prodelta"                   
4142.7 "6506_12-3" 35.99000 "Sandstone" "Mudstone" -999.25  10.0000 90.00000     0.0 "silt/vf"  "silt/vf"  "Åpent_marin"                                                                      "Prodelta"                   
4142.8 "6506_12-3" 35.84000 "Sandstone" "Mudstone" -999.25  10.0000 90.00000     0.0 "silt/vf"  "silt/vf"  "Åpent_marin"                                                                      "Prodelta"                   
4142.9 "6506_12-3" 35.69000 "Sandstone" "Mudstone" -999.25  10.0000 90.00000     0.0 "silt/vf"  "silt/vf"  "Åpent_marin"                                                                      "Prodelta"                   
4143.0 "6506_12-3" 35.54000 "Sandstone" "Mudstone" -999.25  10.0000 90.00000     0.0 "silt/vf"  "silt/vf"  "Åpent_marin"                                                                      "Prodelta"                   
4143.1 "6506_12-3" 35.41000 "Sandstone" "Mudstone" -999.25  10.0000 90.00000     0.0 "silt/vf"  "silt/vf"  "Åpent_marin"                                                                      "Prodelta"                   
4143.2 "6506_12-3" 35.69000 "Sandstone" "Mudstone" -999.25  10.0000 90.00000     0.0 "silt/vf"  "silt/vf"  "Åpent_marin"                                                                      "Prodelta"                   
4143.3 "6506_12-3" 35.98000 "Sandstone" "Mudstone" -999.25  10.0000 90.00000     0.0 "silt/vf"  "silt/vf"  "Åpent_marin"                                                                      "Prodelta"                   
4143.4 "6506_12-3" 36.27000 "Sandstone" "Mudstone" -999.25  10.0000 90.00000     0.0 "silt/vf"  "silt/vf"  "Åpent_marin"                                                                      "Prodelta"                   
4143.5 "6506_12-3" 36.28000 "Sandstone" "Mudstone" -999.25  10.0000 90.00000     0.0 "silt/vf"  "silt/vf"  "Åpent_marin"                                                                      "Prodelta"                   
4143.6 "6506_12-3" 36.28000 "Sandstone" "Mudstone" -999.25  10.0000 90.00000     0.0 "silt/vf"  "silt/vf"  "Åpent_marin"                                                                      "Prodelta"                   
4143.7 "6506_12-3" 35.85000 "Sandstone" "Mudstone" -999.25  10.0000 90.00000     0.0 "silt/vf"  "silt/vf"  "Åpent_marin"                                                                      "Prodelta"                   
4143.8 "6506_12-3" 35.26000 "Sandstone" "Mudstone" -999.25  10.0000 90.00000     0.0 "silt/vf"  "silt/vf"  "Åpent_marin"                                                                      "Prodelta"                   
4143.9 "6506_12-3" 34.66000 "Sandstone" "Mudstone" -999.25  10.0000 90.00000     0.0 "silt/vf"  "silt/vf"  "Åpent_marin"                                                                      "Prodelta"                   
4144.0 "6506_12-3" 34.06000 "Sandstone" "Mudstone" -999.25  10.0000 90.00000     0.0 "silt/vf"  "silt/vf"  "Åpent_marin"                                                                      "Prodelta"                   
4144.1 "6506_12-3" 33.46000 "Sandstone" "Mudstone" -999.25  10.0000 90.00000     0.0 "silt/vf"  "silt/vf"  "Åpent_marin"                                                                      "Prodelta"                   
4144.2 "6506_12-3" 32.86000 "Sandstone" "Mudstone" -999.25  10.0000 90.00000     0.0 "silt/vf"  "silt/vf"  "Åpent_marin"                                                                      "Prodelta"                   
4144.3 "6506_12-3" 32.34000 "Sandstone" "Mudstone" -999.25  10.0000 90.00000     0.0 "silt/vf"  "silt/vf"  "Åpent_marin"                                                                      "Prodelta"                   
4144.4 "6506_12-3" 31.86000 "Sandstone" "Mudstone" -999.25  10.0000 90.00000     0.0 "silt/vf"  "silt/vf"  "Åpent_marin"                                                                      "Prodelta"                   
4144.5 "6506_12-3" 31.38000 "Sandstone" "Mudstone" -999.25  10.0000 90.00000     0.0 "silt/vf"  "silt/vf"  "Åpent_marin"                                                                      "Prodelta"                   
4144.6 "6506_12-3" 31.16000 "Sandstone" "Mudstone" -999.25  10.0000 90.00000     0.0 "silt/vf"  "silt/vf"  "Transgresjon"                                                                     "Prodelta"                   
4144.7 "6506_12-3" 30.94000 "Sandstone" "Mudstone" -999.25  10.0000 90.00000     0.0 "silt/vf"  "silt/vf"  "Transgresjon"                                                                     "Prodelta"                   
4144.8 "6506_12-3" 30.75000 "Sandstone" "Mudstone" -999.25  10.0000 90.00000     0.0 "silt/vf"  "silt/vf"  "Transgresjon"                                                                     "Prodelta"                   
4144.9 "6506_12-3" 30.86000 "Sandstone" "Mudstone" -999.25  10.0000 90.00000     0.0 "silt/vf"  "silt/vf"  "Transgresjon"                                                                     "Prodelta"                   
4145.0 "6506_12-3" 30.98000 "Sandstone" "Mudstone" -999.25  10.0000 90.00000     0.0 "silt/vf"  "silt/vf"  "Transgresjon"                                                                     "Prodelta"                   
4145.1 "6506_12-3" 31.09000 "Sandstone" "Mudstone" -999.25  10.0000 90.00000     0.0 "silt/vf"  "silt/vf"  "Transgresjon"                                                                     "Prodelta"                   
4145.2 "6506_12-3" 31.21000 "Sandstone" "Shale"  -999.25  85.0000 15.00000     0.0 "f/m"      "f/m"      "Nedre_stranskråning"                                                              "Nedre_delta_slette/Kystslette"
4145.3 "6506_12-3" 31.72000 "Sandstone" "Shale"  -999.25  85.0000 15.00000     0.0 "f/m"      "f/m"      "Nedre_stranskråning"                                                              "Nedre_delta_slette/Kystslette"
4145.4 "6506_12-3" 32.40000 "Sandstone" "Shale"  -999.25  85.0000 15.00000     0.0 "f/m"      "f/m"      "Nedre_stranskråning"                                                              "Nedre_delta_slette/Kystslette"
4145.5 "6506_12-3" 33.08000 "Sandstone" "Shale"  -999.25  85.0000 15.00000     0.0 "f/m"      "f/m"      "Nedre_stranskråning"                                                              "Nedre_delta_slette/Kystslette"
4145.6 "6506_12-3" 33.60000 "Sandstone" "Shale"  -999.25  85.0000 15.00000     0.0 "f/m"      "f/m"      "Nedre_stranskråning"                                                              "Nedre_delta_slette/Kystslette"
4145.7 "6506_12-3" 33.95000 "Sandstone" "Shale"  -999.25  85.0000 15.00000     0.0 "f/m"      "f/m"      "Nedre_stranskråning"                                                              "Nedre_delta_slette/Kystslette"
4145.8 "6506_12-3" 34.29000 "Sandstone" "Shale"  -999.25  85.0000 15.00000     0.0 "f/m"      "f/m"      "Nedre_stranskråning"                                                              "Nedre_delta_slette/Kystslette"
4145.9 "6506_12-3" 34.39000 "Sandstone" "Shale"  -999.25  85.0000 15.00000     0.0 "f/m"      "f/m"      "Nedre_stranskråning"                                                              "Nedre_delta_slette/Kystslette"
