~Version
VERS  .                                 3.0 : CWLS LAS ASCII Standard - Version 3.0
WRAP  . NO                                  : One line per depth step
DLM   . SPACE                               : Column data section delimiter
SOURCE. Converted to LAS by Log Studio 4.76 : GeoProvider

~Well
STRT.         3836.0 : Start depth
STOP.         4268.0 : Stop depth
STEP.              1 : Step
NULL.        -999.25 : No-value
COMP.                : Company
WELL. 6506/12-3      : Well
FLD .                : Field
LOC .                : Location
LATI.                : Latitude
LONG.                : Longitude
GDAT.                : Geodetic datum
CNTY.                : County
STAT.                : State
CTRY.                : Country
SRVC. GeoProvider AS : Service company
DATE.                : Date
API .                : API number
RUN .                : Run number

~Parameters
WellboreName.  : Wellbore name
RigName     .  : Rig name
StartDate   .  : Start date

~Curves
DEPTH.m            .  : null {F}Depth mMD
Hole_ID.-          .  : null {S}Hole ID
GR.API             .  : null {F}Gamma Ray
Lithology1.-       .  : null {S}Lithology 1
Lithology2.-       .  : null {S}Lithology 2
Lithology3.-       .  : null {S}Lithology 3
Lithology1.%       .  : null {F}Lithology 1 percentage
Lithology2.%       .  : null {F}Lithology 2 percentage
Lithology3.%       .  : null {F}Lithology 3 percentage
Grain_size_Top.-   .  : null {S}Grain size at the top 
Grain_size_Base.-  .  : null {S}Grain size at the bottom
Sub_Environment.-  .  : null {S}Sub Environment
Gross_Environment.-.  : null {S}Gross Environment

~Ascii
# ...
4003.0 "6506_12-3" 19.17000 "Sandstone" -999.25  -999.25 100.0000      0.0     0.0 "f"        "vf"       "Bak-barriere_kompleks"                                                            "Prograderende_Delta_Front"  
4003.1 "6506_12-3" 18.94000 -999.25   -999.25  -999.25 100.0000      0.0     0.0 -999.25    -999.25    "Bak-barriere_kompleks"                                                            "Prograderende_Delta_Front"  
4003.2 "6506_12-3" 18.72000 -999.25   -999.25  -999.25 100.0000      0.0     0.0 -999.25    -999.25    "Bak-barriere_kompleks"                                                            "Prograderende_Delta_Front"  
4003.3 "6506_12-3" 18.98000 -999.25   -999.25  -999.25 100.0000      0.0     0.0 -999.25    -999.25    "Bak-barriere_kompleks"                                                            "Prograderende_Delta_Front"  
4003.4 "6506_12-3" 19.40000 -999.25   -999.25  -999.25 100.0000      0.0     0.0 -999.25    -999.25    "Bak-barriere_kompleks"                                                            "Prograderende_Delta_Front"  
4003.5 "6506_12-3" 19.95000 -999.25   -999.25  -999.25 100.0000      0.0     0.0 -999.25    -999.25    "Bak-barriere_kompleks"                                                            "Prograderende_Delta_Front"  
4003.6 "6506_12-3" 20.56000 -999.25   -999.25  -999.25 100.0000      0.0     0.0 -999.25    -999.25    "Bak-barriere_kompleks"                                                            "Prograderende_Delta_Front"  
4003.7 "6506_12-3" 21.17000 -999.25   -999.25  -999.25 100.0000      0.0     0.0 -999.25    -999.25    "Bak-barriere_kompleks"                                                            "Prograderende_Delta_Front"  
4003.8 "6506_12-3" 21.77000 -999.25   -999.25  -999.25 100.0000      0.0     0.0 -999.25    -999.25    "Bak-barriere_kompleks"                                                            "Prograderende_Delta_Front"  
4003.9 "6506_12-3" 22.15000 -999.25   -999.25  -999.25 100.0000      0.0     0.0 -999.25    -999.25    "Bak-barriere_kompleks"                                                            "Prograderende_Delta_Front"  
4004.0 "6506_12-3" 22.18000 -999.25   -999.25  -999.25 100.0000      0.0     0.0 -999.25    -999.25    "Bak-barriere_kompleks"                                                            "Prograderende_Delta_Front"  
4004.1 "6506_12-3" 22.04000 "Sandstone" "Shale"  -999.25  97.0000  3.00000     0.0 "f"        "vf"       "Lagune_?"                                                                         "Prograderende_Delta_Front"  
4004.2 "6506_12-3" 21.55000 "Sandstone" "Shale"  -999.25  97.0000  3.00000     0.0 "f"        "vf"       "Lagune_?"                                                                         "Prograderende_Delta_Front"  
4004.3 "6506_12-3" 21.55000 "Sandstone" "Shale"  -999.25  97.0000  3.00000     0.0 "f"        "vf"       "Lagune_?"                                                                         "Prograderende_Delta_Front"  
4004.4 "6506_12-3" 22.25000 "Sandstone" "Shale"  -999.25  97.0000  3.00000     0.0 "f"        "vf"       "Lagune_?"                                                                         "Prograderende_Delta_Front"  
4004.5 "6506_12-3" 23.00000 "Sandstone" "Shale"  -999.25  97.0000  3.00000     0.0 "f"        "vf"       "Lagune_?"                                                                         "Prograderende_Delta_Front"  
4004.6 "6506_12-3" 23.75000 "Sandstone" "Shale"  -999.25  97.0000  3.00000     0.0 "f"        "vf"       "Lagune_?"                                                                         "Prograderende_Delta_Front"  
4004.7 "6506_12-3" 23.84000 "Sandstone" "Shale"  -999.25  97.0000  3.00000     0.0 "f"        "vf"       "Lagune_?"                                                                         "Prograderende_Delta_Front"  
4004.8 "6506_12-3" 23.45000 "Sandstone" "Shale"  -999.25  97.0000  3.00000     0.0 "f"        "vf"       "Lagune_?"                                                                         "Prograderende_Delta_Front"  
4004.9 "6506_12-3" 22.51000 "Sandstone" "Shale"  -999.25  97.0000  3.00000     0.0 "f"        "vf"       "Lagune_?"                                                                         "Prograderende_Delta_Front"  
4005.0 "6506_12-3" 21.57000 "Sandstone" "Shale"  -999.25  97.0000  3.00000     0.0 "f"        "vf"       "Lagune_?"                                                                         "Prograderende_Delta_Front"  
4005.1 "6506_12-3" 21.27000 "Sandstone" "Shale"  -999.25  97.0000  3.00000     0.0 "f"        "vf"       "Lagune_?"                                                                         "Prograderende_Delta_Front"  
4005.2 "6506_12-3" 21.38000 "Sandstone" "Shale"  -999.25  97.0000  3.00000     0.0 "f"        "vf"       "Lagune_?"                                                                         "Prograderende_Delta_Front"  
4005.3 "6506_12-3" 21.73000 "Sandstone" "Shale"  -999.25  97.0000  3.00000     0.0 "f"        "vf"       "Lagune_?"                                                                         "Prograderende_Delta_Front"  
4005.4 "6506_12-3" 22.08000 "Sandstone" "Shale"  -999.25  97.0000  3.00000     0.0 "f"        "vf"       "Lagune_?"                                                                         "Prograderende_Delta_Front"  
4005.5 "6506_12-3" 22.43000 "Sandstone" "Shale"  -999.25  97.0000  3.00000     0.0 "f"        "vf"       "Lagune_?"                                                                         "Prograderende_Delta_Front"  
4005.6 "6506_12-3" 22.68000 "Sandstone" "Shale"  -999.25  97.0000  3.00000     0.0 "f"        "vf"       "Lagune_?"                                                                         "Prograderende_Delta_Front"  
4005.7 "6506_12-3" 22.88000 "Sandstone" "Shale"  -999.25  97.0000  3.00000     0.0 "f"        "vf"       "Lagune_?"                                                                         "Prograderende_Delta_Front"  
4005.8 "6506_12-3" 22.96000 "Sandstone" "Shale"  -999.25  97.0000  3.00000     0.0 "f"        "vf"       "Lagune_?"                                                                         "Prograderende_Delta_Front"  
4005.9 "6506_12-3" 22.99000 "Sandstone" "Shale"  -999.25  97.0000  3.00000     0.0 "f"        "vf"       "Lagune_?"                                                                         "Prograderende_Delta_Front"  
4006.0 "6506_12-3" 22.29000 "Sandstone" "Shale"  -999.25  97.0000  3.00000     0.0 "f"        "vf"       "Lagune_?"                                                                         "Prograderende_Delta_Front"  
4006.1 "6506_12-3" 21.60000 "Sandstone" "Shale"  -999.25  97.0000  3.00000     0.0 "f"        "vf"       "Lagune_?"                                                                         "Prograderende_Delta_Front"  
4006.2 "6506_12-3" 21.44000 "Sandstone" "Shale"  -999.25  97.0000  3.00000     0.0 "f"        "vf"       "Lagune_?"                                                                         "Prograderende_Delta_Front"  
4006.3 "6506_12-3" 21.27000 "Sandstone" "Shale"  -999.25  97.0000  3.00000     0.0 "f"        "vf"       "Lagune_?"                                                                         "Prograderende_Delta_Front"  
4006.4 "6506_12-3" 21.47000 "Sandstone" "Shale"  -999.25  97.0000  3.00000     0.0 "f"        "vf"       "Lagune_?"                                                                         "Prograderende_Delta_Front"  
4006.5 "6506_12-3" 21.68000 "Sandstone" "Shale"  -999.25  97.0000  3.00000     0.0 "f"        "vf"       "Lagune_?"                                                                         "Prograderende_Delta_Front"  
4006.6 "6506_12-3" 22.22000 "Sandstone" -999.25  -999.25 100.0000      0.0     0.0 "c"        "c"        "Lagune_?"                                                                         "Prograderende_Delta_Front"  
