~Version
VERS  .                                 3.0 : CWLS LAS ASCII Standard - Version 3.0
WRAP  . NO                                  : One line per depth step
DLM   . SPACE                               : Column data section delimiter
SOURCE. Converted to LAS by Log Studio 4.76 : GeoProvider

~Well
STRT.         3836.0 : Start depth
STOP.         4268.0 : Stop depth
STEP.              1 : Step
NULL.        -999.25 : No-value
COMP.                : Company
WELL. 6506/12-3      : Well
FLD .                : Field
LOC .                : Location
LATI.                : Latitude
LONG.                : Longitude
GDAT.                : Geodetic datum
CNTY.                : County
STAT.                : State
CTRY.                : Country
SRVC. GeoProvider AS : Service company
DATE.                : Date
API .                : API number
RUN .                : Run number

~Parameters
WellboreName.  : Wellbore name
RigName     .  : Rig name
StartDate   .  : Start date

~Curves
DEPTH.m            .  : null {F}Depth mMD
Hole_ID.-          .  : null {S}Hole ID
GR.API             .  : null {F}Gamma Ray
Lithology1.-       .  : null {S}Lithology 1
Lithology2.-       .  : null {S}Lithology 2
Lithology3.-       .  : null {S}Lithology 3
Lithology1.%       .  : null {F}Lithology 1 percentage
Lithology2.%       .  : null {F}Lithology 2 percentage
Lithology3.%       .  : null {F}Lithology 3 percentage
Grain_size_Top.-   .  : null {S}Grain size at the top 
Grain_size_Base.-  .  : null {S}Grain size at the bottom
Sub_Environment.-  .  : null {S}Sub Environment
Gross_Environment.-.  : null {S}Gross Environment

~Ascii
# ...
4223.7 "6506_12-3" 12.37000 "Sandstone" "Shale"  -999.25  85.0000 15.00000     0.0 "c/vc"     "c/vc"     "Sandig_of_konglomeratisk_tidevannsdominert_bukt"                                  "Tidevannsinnfluert"         
4223.8 "6506_12-3" 12.09000 "Sandstone" "Shale"  -999.25  85.0000 15.00000     0.0 "c/vc"     "c/vc"     "Sandig_of_konglomeratisk_tidevannsdominert_bukt"                                  "Tidevannsinnfluert"         
4223.9 "6506_12-3" 12.54000 "Sandstone" "Shale"  -999.25  85.0000 15.00000     0.0 "c/vc"     "c/vc"     "Sandig_of_konglomeratisk_tidevannsdominert_bukt"                                  "Tidevannsinnfluert"         
4224.0 "6506_12-3" 13.91000 "Sandstone" "Shale"  -999.25  85.0000 15.00000     0.0 "c/vc"     "c/vc"     "Sandig_of_konglomeratisk_tidevannsdominert_bukt"                                  "Tidevannsinnfluert"         
4224.1 "6506_12-3" 15.35000 "Sandstone" "Shale"  -999.25  85.0000 15.00000     0.0 "c/vc"     "c/vc"     "Sandig_of_konglomeratisk_tidevannsdominert_bukt"                                  "Tidevannsinnfluert"         
4224.2 "6506_12-3" 16.66000 "Sandstone" "Shale"  -999.25  85.0000 15.00000     0.0 "c/vc"     "c/vc"     "Sandig_of_konglomeratisk_tidevannsdominert_bukt"                                  "Tidevannsinnfluert"         
4224.3 "6506_12-3" 17.34000 "Sandstone" "Shale"  -999.25  85.0000 15.00000     0.0 "c/vc"     "c/vc"     "Sandig_of_konglomeratisk_tidevannsdominert_bukt"                                  "Tidevannsinnfluert"         
4224.4 "6506_12-3" 17.27000 "Sandstone" "Shale"  -999.25  85.0000 15.00000     0.0 "c/vc"     "c/vc"     "Sandig_of_konglomeratisk_tidevannsdominert_bukt"                                  "Tidevannsinnfluert"         
4224.5 "6506_12-3" 16.98000 "Sandstone" "Shale"  -999.25  85.0000 15.00000     0.0 "c/vc"     "c/vc"     "Sandig_of_konglomeratisk_tidevannsdominert_bukt"                                  "Tidevannsinnfluert"         
4224.6 "6506_12-3" 16.13000 "Sandstone" "Shale"  -999.25  85.0000 15.00000     0.0 "c/vc"     "c/vc"     "Sandig_of_konglomeratisk_tidevannsdominert_bukt"                                  "Tidevannsinnfluert"         
4224.7 "6506_12-3" 15.27000 "Sandstone" "Shale"  -999.25  85.0000 15.00000     0.0 "c/vc"     "c/vc"     "Sandig_of_konglomeratisk_tidevannsdominert_bukt"                                  "Tidevannsinnfluert"         
4224.8 "6506_12-3" 14.45000 "Sandstone" "Shale"  -999.25  85.0000 15.00000     0.0 "c/vc"     "c/vc"     "Sandig_of_konglomeratisk_tidevannsdominert_bukt"                                  "Tidevannsinnfluert"         
4224.9 "6506_12-3" 14.49000 "Sandstone" "Shale"  -999.25  85.0000 15.00000     0.0 "c/vc"     "c/vc"     "Sandig_of_konglomeratisk_tidevannsdominert_bukt"                                  "Tidevannsinnfluert"         
4225.0 "6506_12-3" 14.52000 "Sandstone" "Shale"  -999.25  85.0000 15.00000     0.0 "c/vc"     "c/vc"     "Sandig_of_konglomeratisk_tidevannsdominert_bukt"                                  "Tidevannsinnfluert"         
4225.1 "6506_12-3" 14.55000 "Sandstone" "Shale"  -999.25  85.0000 15.00000     0.0 "c/vc"     "c/vc"     "Sandig_of_konglomeratisk_tidevannsdominert_bukt"                                  "Tidevannsinnfluert"         
4225.2 "6506_12-3" 14.61000 "Sandstone" "Shale"  -999.25  85.0000 15.00000     0.0 "c/vc"     "c/vc"     "Sandig_of_konglomeratisk_tidevannsdominert_bukt"                                  "Tidevannsinnfluert"         
4225.3 "6506_12-3" 14.64000 "Sandstone" "Shale"  -999.25  85.0000 15.00000     0.0 "c/vc"     "c/vc"     "Sandig_of_konglomeratisk_tidevannsdominert_bukt"                                  "Tidevannsinnfluert"         
4225.4 "6506_12-3" 14.51000 "Sandstone" "Shale"  -999.25  85.0000 15.00000     0.0 "c/vc"     "c/vc"     "Sandig_of_konglomeratisk_tidevannsdominert_bukt"                                  "Tidevannsinnfluert"         
4225.5 "6506_12-3" 14.38000 "Sandstone" "Shale"  -999.25  85.0000 15.00000     0.0 "c/vc"     "c/vc"     "Sandig_of_konglomeratisk_tidevannsdominert_bukt"                                  "Tidevannsinnfluert"         
4225.6 "6506_12-3" 14.25000 "Sandstone" "Shale"  -999.25  85.0000 15.00000     0.0 "c/vc"     "c/vc"     "Sandig_of_konglomeratisk_tidevannsdominert_bukt"                                  "Tidevannsinnfluert"         
4225.7 "6506_12-3" 15.38000 "Sandstone" "Shale"  -999.25  85.0000 15.00000     0.0 "c/vc"     "c/vc"     "Sandig_of_konglomeratisk_tidevannsdominert_bukt"                                  "Tidevannsinnfluert"         
4225.8 "6506_12-3" 16.35000 "Sandstone" "Shale"  -999.25  85.0000 15.00000     0.0 "c/vc"     "c/vc"     "Sandig_of_konglomeratisk_tidevannsdominert_bukt"                                  "Tidevannsinnfluert"         
4225.9 "6506_12-3" 16.20000 "Sandstone" -999.25  -999.25 100.0000      0.0     0.0 "c/vc"     "c/vc"     "Sandig_of_konglomeratisk_tidevannsdominert_bukt"                                  "Tidevannsinnfluert"         
4226.0 "6506_12-3" 15.92000 "Sandstone" -999.25  -999.25 100.0000      0.0     0.0 "c/vc"     "c/vc"     "Sandig_of_konglomeratisk_tidevannsdominert_bukt"                                  "Tidevannsinnfluert"         
4226.1 "6506_12-3" 15.20000 "Sandstone" -999.25  -999.25 100.0000      0.0     0.0 "c/vc"     "c/vc"     "Sandig_of_konglomeratisk_tidevannsdominert_bukt"                                  "Tidevannsinnfluert"         
4226.2 "6506_12-3" 14.48000 "Sandstone" -999.25  -999.25 100.0000      0.0     0.0 "c/vc"     "c/vc"     "Sandig_of_konglomeratisk_tidevannsdominert_bukt"                                  "Tidevannsinnfluert"         
4226.3 "6506_12-3" 13.83000 "Sandstone" -999.25  -999.25 100.0000      0.0     0.0 "c/vc"     "c/vc"     "Sandig_of_konglomeratisk_tidevannsdominert_bukt"                                  "Tidevannsinnfluert"         
4226.4 "6506_12-3" 13.49000 "Sandstone" "Shale"  -999.25  90.0000 10.00000     0.0 "m/c"      "m/c"      "Sandig_of_konglomeratisk_tidevannsdominert_bukt"                                  "Tidevannsinnfluert"         
4226.5 "6506_12-3" 13.62000 "Sandstone" "Shale"  -999.25  90.0000 10.00000     0.0 "m/c"      "m/c"      "Sandig_of_konglomeratisk_tidevannsdominert_bukt"                                  "Tidevannsinnfluert"         
4226.6 "6506_12-3" 13.81000 "Sandstone" "Shale"  -999.25  90.0000 10.00000     0.0 "m/c"      "m/c"      "Sandig_of_konglomeratisk_tidevannsdominert_bukt"                                  "Tidevannsinnfluert"         
4226.7 "6506_12-3" 14.38000 "Sandstone" "Shale"  -999.25  90.0000 10.00000     0.0 "m/c"      "m/c"      "Sandig_of_konglomeratisk_tidevannsdominert_bukt"                                  "Tidevannsinnfluert"         
4226.8 "6506_12-3" 15.18000 "Sandstone" "Shale"  -999.25  90.0000 10.00000     0.0 "m/c"      "m/c"      "Sandig_of_konglomeratisk_tidevannsdominert_bukt"                                  "Tidevannsinnfluert"         
4226.9 "6506_12-3" 16.54000 "Sandstone" "Shale"  -999.25  90.0000 10.00000     0.0 "m/c"      "m/c"      "Sandig_of_konglomeratisk_tidevannsdominert_bukt"                                  "Tidevannsinnfluert"         
4227.0 "6506_12-3" 18.94000 "Sandstone" "Shale"  -999.25  90.0000 10.00000     0.0 "m/c"      "m/c"      "Sandig_of_konglomeratisk_tidevannsdominert_bukt"                                  "Tidevannsinnfluert"         
4227.1 "6506_12-3" 20.51000 "Sandstone" "Shale"  -999.25  90.0000 10.00000     0.0 "m/c"      "m/c"      "Sandig_of_konglomeratisk_tidevannsdominert_bukt"                                  "Tidevannsinnfluert"         
4227.2 "6506_12-3" 20.86000 "Sandstone" "Shale"  -999.25  90.0000 10.00000     0.0 "m/c"      "m/c"      "Sandig_of_konglomeratisk_tidevannsdominert_bukt"                                  "Tidevannsinnfluert"         
4227.3 "6506_12-3" 20.77000 "Sandstone" "Shale"  -999.25  90.0000 10.00000     0.0 "m/c"      "m/c"      "Sandig_of_konglomeratisk_tidevannsdominert_bukt"                                  "Tidevannsinnfluert"         
