~Version
VERS  .                                 3.0 : CWLS LAS ASCII Standard - Version 3.0
WRAP  . NO                                  : One line per depth step
DLM   . SPACE                               : Column data section delimiter
SOURCE. Converted to LAS by Log Studio 4.76 : GeoProvider

~Well
STRT.         3836.0 : Start depth
STOP.         4268.0 : Stop depth
STEP.              1 : Step
NULL.        -999.25 : No-value
COMP.                : Company
WELL. 6506/12-3      : Well
FLD .                : Field
LOC .                : Location
LATI.                : Latitude
LONG.                : Longitude
GDAT.                : Geodetic datum
CNTY.                : County
STAT.                : State
CTRY.                : Country
SRVC. GeoProvider AS : Service company
DATE.                : Date
API .                : API number
RUN .                : Run number

~Parameters
WellboreName.  : Wellbore name
RigName     .  : Rig name
StartDate   .  : Start date

~Curves
DEPTH.m            .  : null {F}Depth mMD
Hole_ID.-          .  : null {S}Hole ID
GR.API             .  : null {F}Gamma Ray
Lithology1.-       .  : null {S}Lithology 1
Lithology2.-       .  : null {S}Lithology 2
Lithology3.-       .  : null {S}Lithology 3
Lithology1.%       .  : null {F}Lithology 1 percentage
Lithology2.%       .  : null {F}Lithology 2 percentage
Lithology3.%       .  : null {F}Lithology 3 percentage
Grain_size_Top.-   .  : null {S}Grain size at the top 
Grain_size_Base.-  .  : null {S}Grain size at the bottom
Sub_Environment.-  .  : null {S}Sub Environment
Gross_Environment.-.  : null {S}Gross Environment

~Ascii
# ...
4160.8 "6506_12-3" 20.85000 "Sandstone" -999.25  -999.25 100.0000      0.0     0.0 "c"        "c"        "Subtidal"                                                                         "Nedre_delta_slette/Kystslette"
4160.9 "6506_12-3" 21.28000 "Sandstone" -999.25  -999.25 100.0000      0.0     0.0 "c"        "c"        "Subtidal"                                                                         "Nedre_delta_slette/Kystslette"
4161.0 "6506_12-3" 21.42000 "Sandstone" -999.25  -999.25 100.0000      0.0     0.0 "c"        "c"        "Subtidal"                                                                         "Nedre_delta_slette/Kystslette"
4161.1 "6506_12-3" 21.06000 "Sandstone" -999.25  -999.25 100.0000      0.0     0.0 "c"        "c"        "Subtidal"                                                                         "Nedre_delta_slette/Kystslette"
4161.2 "6506_12-3" 20.64000 "Sandstone" "Shale"  -999.25  90.0000 10.00000     0.0 "c"        "c"        "Subtidal"                                                                         "Nedre_delta_slette/Kystslette"
4161.3 "6506_12-3" 20.01000 "Sandstone" "Shale"  -999.25  90.0000 10.00000     0.0 "c"        "c"        "Subtidal"                                                                         "Nedre_delta_slette/Kystslette"
4161.4 "6506_12-3" 19.46000 "Sandstone" "Shale"  -999.25  90.0000 10.00000     0.0 "c"        "c"        "Subtidal"                                                                         "Nedre_delta_slette/Kystslette"
4161.5 "6506_12-3" 19.32000 "Sandstone" "Shale"  -999.25  90.0000 10.00000     0.0 "c"        "c"        "Subtidal"                                                                         "Nedre_delta_slette/Kystslette"
4161.6 "6506_12-3" 19.29000 "Sandstone" "Shale"  -999.25  90.0000 10.00000     0.0 "c"        "c"        "Subtidal"                                                                         "Nedre_delta_slette/Kystslette"
4161.7 "6506_12-3" 19.45000 "Sandstone" "Shale"  -999.25  90.0000 10.00000     0.0 "c"        "c"        "Subtidal"                                                                         "Nedre_delta_slette/Kystslette"
4161.8 "6506_12-3" 19.61000 "Sandstone" "Shale"  -999.25  90.0000 10.00000     0.0 "c"        "c"        "Subtidal"                                                                         "Nedre_delta_slette/Kystslette"
4161.9 "6506_12-3" 19.77000 "Sandstone" "Shale"  -999.25  90.0000 10.00000     0.0 "c"        "c"        "Subtidal"                                                                         "Nedre_delta_slette/Kystslette"
4162.0 "6506_12-3" 19.92000 "Sandstone" -999.25  -999.25 100.0000      0.0     0.0 "vc"       "vc"       "Subtidal"                                                                         "Nedre_delta_slette/Kystslette"
4162.1 "6506_12-3" 19.92000 "Sandstone" -999.25  -999.25 100.0000      0.0     0.0 "vc"       "vc"       "Subtidal"                                                                         "Nedre_delta_slette/Kystslette"
4162.2 "6506_12-3" 19.82000 "Sandstone" -999.25  -999.25 100.0000      0.0     0.0 "vc"       "vc"       "Subtidal"                                                                         "Nedre_delta_slette/Kystslette"
4162.3 "6506_12-3" 19.57000 "Sandstone" -999.25  -999.25 100.0000      0.0     0.0 "vc"       "vc"       "Subtidal"                                                                         "Nedre_delta_slette/Kystslette"
4162.4 "6506_12-3" 19.32000 "Sandstone" -999.25  -999.25 100.0000      0.0     0.0 "vc"       "vc"       "Subtidal"                                                                         "Nedre_delta_slette/Kystslette"
4162.5 "6506_12-3" 19.45000 "Sandstone" -999.25  -999.25 100.0000      0.0     0.0 "vc"       "vc"       "Subtidal"                                                                         "Nedre_delta_slette/Kystslette"
4162.6 "6506_12-3" 19.77000 "Sandstone" -999.25  -999.25 100.0000      0.0     0.0 "vc"       "vc"       "Subtidal"                                                                         "Nedre_delta_slette/Kystslette"
4162.7 "6506_12-3" 20.09000 "Sandstone" -999.25  -999.25 100.0000      0.0     0.0 "vc"       "vc"       "Subtidal"                                                                         "Nedre_delta_slette/Kystslette"
4162.8 "6506_12-3" 20.09000 "Sandstone" -999.25  -999.25 100.0000      0.0     0.0 "vc"       "vc"       "Subtidal"                                                                         "Nedre_delta_slette/Kystslette"
4162.9 "6506_12-3" 19.98000 "Sandstone" -999.25  -999.25 100.0000      0.0     0.0 "vc"       "vc"       "Subtidal"                                                                         "Nedre_delta_slette/Kystslette"
4163.0 "6506_12-3" 19.78000 "Sandstone" -999.25  -999.25 100.0000      0.0     0.0 "vc"       "vc"       "Subtidal"                                                                         "Nedre_delta_slette/Kystslette"
4163.1 "6506_12-3" 19.48000 "Sandstone" -999.25  -999.25 100.0000      0.0     0.0 "vc/granule" "vc/granule" "Tidevanns_kanaler"                                                                "Nedre_delta_slette/Kystslette"
4163.2 "6506_12-3" 19.19000 "Sandstone" -999.25  -999.25 100.0000      0.0     0.0 "vc/granule" "vc/granule" "Tidevanns_kanaler"                                                                "Nedre_delta_slette/Kystslette"
4163.3 "6506_12-3" 18.93000 "Sandstone" -999.25  -999.25 100.0000      0.0     0.0 "vc/granule" "vc/granule" "Tidevanns_kanaler"                                                                "Nedre_delta_slette/Kystslette"
4163.4 "6506_12-3" 19.09000 "Sandstone" -999.25  -999.25 100.0000      0.0     0.0 "vc/granule" "vc/granule" "Tidevanns_kanaler"                                                                "Nedre_delta_slette/Kystslette"
4163.5 "6506_12-3" 19.80000 "Sandstone" -999.25  -999.25 100.0000      0.0     0.0 "vc/granule" "vc/granule" "Tidevanns_kanaler"                                                                "Nedre_delta_slette/Kystslette"
4163.6 "6506_12-3" 22.14000 "Sandstone" -999.25  -999.25 100.0000      0.0     0.0 "vc/granule" "vc/granule" "Tidevanns_kanaler"                                                                "Nedre_delta_slette/Kystslette"
4163.7 "6506_12-3" 22.30000 "Sandstone" -999.25  -999.25 100.0000      0.0     0.0 "vc/granule" "vc/granule" "Tidevanns_kanaler"                                                                "Nedre_delta_slette/Kystslette"
4163.8 "6506_12-3" 20.33000 "Sandstone" -999.25  -999.25 100.0000      0.0     0.0 "vc/granule" "vc/granule" "Tidevanns_kanaler"                                                                "Nedre_delta_slette/Kystslette"
4163.9 "6506_12-3" 18.39000 "Sandstone" -999.25  -999.25 100.0000      0.0     0.0 "vc/granule" "vc/granule" "Tidevanns_kanaler"                                                                "Nedre_delta_slette/Kystslette"
4164.0 "6506_12-3" 16.44000 "Sandstone" -999.25  -999.25 100.0000      0.0     0.0 "vc/granule" "vc/granule" "Tidevanns_kanaler"                                                                "Nedre_delta_slette/Kystslette"
4164.1 "6506_12-3" 14.83000 "Sandstone" -999.25  -999.25 100.0000      0.0     0.0 "vc/granule" "vc/granule" "Tidevanns_kanaler"                                                                "Nedre_delta_slette/Kystslette"
4164.2 "6506_12-3" 14.52000 "Sandstone" -999.25  -999.25 100.0000      0.0     0.0 "vc/granule" "vc/granule" "Tidevanns_kanaler"                                                                "Nedre_delta_slette/Kystslette"
4164.3 "6506_12-3" 14.44000 "Sandstone" -999.25  -999.25 100.0000      0.0     0.0 "vc/granule" "vc/granule" "Tidevanns_kanaler"                                                                "Nedre_delta_slette/Kystslette"
4164.4 "6506_12-3" 15.12000 "Sandstone" -999.25  -999.25 100.0000      0.0     0.0 "vc/granule" "vc/granule" "Tidevanns_kanaler"                                                                "Nedre_delta_slette/Kystslette"
