~Version
VERS  .                                 3.0 : CWLS LAS ASCII Standard - Version 3.0
WRAP  . NO                                  : One line per depth step
DLM   . SPACE                               : Column data section delimiter
SOURCE. Converted to LAS by Log Studio 4.76 : GeoProvider

~Well
STRT.         3836.0 : Start depth
STOP.         4268.0 : Stop depth
STEP.              1 : Step
NULL.        -999.25 : No-value
COMP.                : Company
WELL. 6506/12-3      : Well
FLD .                : Field
LOC .                : Location
LATI.                : Latitude
LONG.                : Longitude
GDAT.                : Geodetic datum
CNTY.                : County
STAT.                : State
CTRY.                : Country
SRVC. GeoProvider AS : Service company
DATE.                : Date
API .                : API number
RUN .                : Run number

~Parameters
WellboreName.  : Wellbore name
RigName     .  : Rig name
StartDate   .  : Start date

~Curves
DEPTH.m            .  : null {F}Depth mMD
Hole_ID.-          .  : null {S}Hole ID
GR.API             .  : null {F}Gamma Ray
Lithology1.-       .  : null {S}Lithology 1
Lithology2.-       .  : null {S}Lithology 2
Lithology3.-       .  : null {S}Lithology 3
Lithology1.%       .  : null {F}Lithology 1 percentage
Lithology2.%       .  : null {F}Lithology 2 percentage
Lithology3.%       .  : null {F}Lithology 3 percentage
Grain_size_Top.-   .  : null {S}Grain size at the top 
Grain_size_Base.-  .  : null {S}Grain size at the bottom
Sub_Environment.-  .  : null {S}Sub Environment
Gross_Environment.-.  : null {S}Gross Environment

~Ascii
# ...
3876.7 "6506_12-3" 10.24000 "Sandstone" -999.25  -999.25 100.0000      0.0     0.0 "c/vc"     "c"        "Hovedsakelig_øvre_strandskråning"                                                 "Proksimal_Delta_Front"      
3876.8 "6506_12-3" 10.40000 "Sandstone" -999.25  -999.25 100.0000      0.0     0.0 "c/vc"     "c"        "Hovedsakelig_øvre_strandskråning"                                                 "Proksimal_Delta_Front"      
3876.9 "6506_12-3" 10.56000 "Sandstone" -999.25  -999.25 100.0000      0.0     0.0 "c/vc"     "c"        "Hovedsakelig_øvre_strandskråning"                                                 "Proksimal_Delta_Front"      
3877.0 "6506_12-3" 10.72000 "Sandstone" -999.25  -999.25 100.0000      0.0     0.0 "c/vc"     "c"        "Hovedsakelig_øvre_strandskråning"                                                 "Proksimal_Delta_Front"      
3877.1 "6506_12-3" 10.72000 "Sandstone" -999.25  -999.25 100.0000      0.0     0.0 "c/vc"     "c"        "Hovedsakelig_øvre_strandskråning"                                                 "Proksimal_Delta_Front"      
3877.2 "6506_12-3" 10.62000 "Sandstone" -999.25  -999.25 100.0000      0.0     0.0 "c/vc"     "c"        "Hovedsakelig_øvre_strandskråning"                                                 "Proksimal_Delta_Front"      
3877.3 "6506_12-3" 10.51000 "Sandstone" -999.25  -999.25 100.0000      0.0     0.0 "c/vc"     "c"        "Hovedsakelig_øvre_strandskråning"                                                 "Proksimal_Delta_Front"      
3877.4 "6506_12-3" 10.40000 "Sandstone" -999.25  -999.25 100.0000      0.0     0.0 "c/vc"     "c"        "Hovedsakelig_øvre_strandskråning"                                                 "Proksimal_Delta_Front"      
3877.5 "6506_12-3" 10.30000 "Sandstone" -999.25  -999.25 100.0000      0.0     0.0 "c/vc"     "c"        "Hovedsakelig_øvre_strandskråning"                                                 "Proksimal_Delta_Front"      
3877.6 "6506_12-3" 10.22000 "Sandstone" -999.25  -999.25 100.0000      0.0     0.0 "c/vc"     "c"        "Hovedsakelig_øvre_strandskråning"                                                 "Proksimal_Delta_Front"      
3877.7 "6506_12-3" 10.26000 "Sandstone" -999.25  -999.25 100.0000      0.0     0.0 "c/vc"     "c"        "Hovedsakelig_øvre_strandskråning"                                                 "Proksimal_Delta_Front"      
3877.8 "6506_12-3" 10.30000 "Sandstone" -999.25  -999.25 100.0000      0.0     0.0 "c/vc"     "c"        "Hovedsakelig_øvre_strandskråning"                                                 "Proksimal_Delta_Front"      
3877.9 "6506_12-3" 10.35000 "Sandstone" -999.25  -999.25 100.0000      0.0     0.0 "c/vc"     "c"        "Hovedsakelig_øvre_strandskråning"                                                 "Proksimal_Delta_Front"      
3878.0 "6506_12-3" 10.46000 "Sandstone" -999.25  -999.25 100.0000      0.0     0.0 "c/vc"     "c"        "Hovedsakelig_øvre_strandskråning"                                                 "Proksimal_Delta_Front"      
3878.1 "6506_12-3" 10.59000 "Sandstone" -999.25  -999.25 100.0000      0.0     0.0 "c/vc"     "c/vc"     "Hovedsakelig_øvre_strandskråning"                                                 "Proksimal_Delta_Front"      
3878.2 "6506_12-3" 10.72000 "Sandstone" -999.25  -999.25 100.0000      0.0     0.0 "c/vc"     "c/vc"     "Hovedsakelig_øvre_strandskråning"                                                 "Proksimal_Delta_Front"      
3878.3 "6506_12-3" 10.85000 "Sandstone" -999.25  -999.25 100.0000      0.0     0.0 "c/vc"     "c/vc"     "Hovedsakelig_øvre_strandskråning"                                                 "Proksimal_Delta_Front"      
3878.4 "6506_12-3" 10.98000 "Sandstone" -999.25  -999.25 100.0000      0.0     0.0 "c/vc"     "c/vc"     "Hovedsakelig_øvre_strandskråning"                                                 "Proksimal_Delta_Front"      
3878.5 "6506_12-3" 11.01000 "Sandstone" -999.25  -999.25 100.0000      0.0     0.0 "c/vc"     "c/vc"     "Hovedsakelig_øvre_strandskråning"                                                 "Proksimal_Delta_Front"      
3878.6 "6506_12-3" 11.01000 "Sandstone" -999.25  -999.25 100.0000      0.0     0.0 "c/vc"     "c/vc"     "Hovedsakelig_øvre_strandskråning"                                                 "Proksimal_Delta_Front"      
3878.7 "6506_12-3" 11.01000 "Sandstone" -999.25  -999.25 100.0000      0.0     0.0 "c/vc"     "c/vc"     "Hovedsakelig_øvre_strandskråning"                                                 "Proksimal_Delta_Front"      
3878.8 "6506_12-3" 11.01000 "Sandstone" -999.25  -999.25 100.0000      0.0     0.0 "c/vc"     "c/vc"     "Hovedsakelig_øvre_strandskråning"                                                 "Proksimal_Delta_Front"      
3878.9 "6506_12-3" 10.88000 "Sandstone" -999.25  -999.25 100.0000      0.0     0.0 "c/vc"     "c/vc"     "Hovedsakelig_øvre_strandskråning"                                                 "Proksimal_Delta_Front"      
3879.0 "6506_12-3" 10.74000 "Sandstone" -999.25  -999.25 100.0000      0.0     0.0 "c/vc"     "c/vc"     "Hovedsakelig_øvre_strandskråning"                                                 "Proksimal_Delta_Front"      
3879.1 "6506_12-3" 10.59000 "Sandstone" -999.25  -999.25 100.0000      0.0     0.0 "c/vc"     "c/vc"     "Hovedsakelig_øvre_strandskråning"                                                 "Proksimal_Delta_Front"      
3879.2 "6506_12-3" 10.44000 "Sandstone" -999.25  -999.25 100.0000      0.0     0.0 "c"        "m"        "Hovedsakelig_øvre_strandskråning"                                                 "Proksimal_Delta_Front"      
3879.3 "6506_12-3" 10.30000 "Sandstone" -999.25  -999.25 100.0000      0.0     0.0 "c"        "m"        "Hovedsakelig_øvre_strandskråning"                                                 "Proksimal_Delta_Front"      
3879.4 "6506_12-3" 10.15000 "Sandstone" -999.25  -999.25 100.0000      0.0     0.0 "c"        "m"        "Hovedsakelig_øvre_strandskråning"                                                 "Proksimal_Delta_Front"      
3879.5 "6506_12-3" 10.14000 "Sandstone" -999.25  -999.25 100.0000      0.0     0.0 "c"        "m"        "Hovedsakelig_øvre_strandskråning"                                                 "Proksimal_Delta_Front"      
3879.6 "6506_12-3" 10.14000 "Sandstone" -999.25  -999.25 100.0000      0.0     0.0 "c"        "m"        "Hovedsakelig_øvre_strandskråning"                                                 "Proksimal_Delta_Front"      
3879.7 "6506_12-3" 10.14000 "Sandstone" -999.25  -999.25 100.0000      0.0     0.0 "c"        "m"        "Hovedsakelig_øvre_strandskråning"                                                 "Proksimal_Delta_Front"      
3879.8 "6506_12-3" 10.14000 "Sandstone" -999.25  -999.25 100.0000      0.0     0.0 "c"        "m"        "Hovedsakelig_øvre_strandskråning"                                                 "Proksimal_Delta_Front"      
3879.9 "6506_12-3" 10.14000 "Sandstone" -999.25  -999.25 100.0000      0.0     0.0 "c"        "m"        "Hovedsakelig_øvre_strandskråning"                                                 "Proksimal_Delta_Front"      
3880.0 "6506_12-3" 10.06000 "Sandstone" -999.25  -999.25 100.0000      0.0     0.0 "c"        "m"        "Hovedsakelig_øvre_strandskråning"                                                 "Proksimal_Delta_Front"      
3880.1 "6506_12-3"  9.93000 "Sandstone" -999.25  -999.25 100.0000      0.0     0.0 "c"        "m"        "Hovedsakelig_øvre_strandskråning"                                                 "Proksimal_Delta_Front"      
3880.2 "6506_12-3"  9.80000 "Sandstone" -999.25  -999.25 100.0000      0.0     0.0 "c"        "m"        "Hovedsakelig_øvre_strandskråning"                                                 "Proksimal_Delta_Front"      
3880.3 "6506_12-3"  9.68000 "Sandstone" -999.25  -999.25 100.0000      0.0     0.0 "c"        "m"        "Hovedsakelig_øvre_strandskråning"                                                 "Proksimal_Delta_Front"      
