~Version
VERS  .                                 3.0 : CWLS LAS ASCII Standard - Version 3.0
WRAP  . NO                                  : One line per depth step
DLM   . SPACE                               : Column data section delimiter
SOURCE. Converted to LAS by Log Studio 4.76 : GeoProvider

~Well
STRT.         3836.0 : Start depth
STOP.         4268.0 : Stop depth
STEP.              1 : Step
NULL.        -999.25 : No-value
COMP.                : Company
WELL. 6506/12-3      : Well
FLD .                : Field
LOC .                : Location
LATI.                : Latitude
LONG.                : Longitude
GDAT.                : Geodetic datum
CNTY.                : County
STAT.                : State
CTRY.                : Country
SRVC. GeoProvider AS : Service company
DATE.                : Date
API .                : API number
RUN .                : Run number

~Parameters
WellboreName.  : Wellbore name
RigName     .  : Rig name
StartDate   .  : Start date

~Curves
DEPTH.m            .  : null {F}Depth mMD
Hole_ID.-          .  : null {S}Hole ID
GR.API             .  : null {F}Gamma Ray
Lithology1.-       .  : null {S}Lithology 1
Lithology2.-       .  : null {S}Lithology 2
Lithology3.-       .  : null {S}Lithology 3
Lithology1.%       .  : null {F}Lithology 1 percentage
Lithology2.%       .  : null {F}Lithology 2 percentage
Lithology3.%       .  : null {F}Lithology 3 percentage
Grain_size_Top.-   .  : null {S}Grain size at the top 
Grain_size_Base.-  .  : null {S}Grain size at the bottom
Sub_Environment.-  .  : null {S}Sub Environment
Gross_Environment.-.  : null {S}Gross Environment

~Ascii
# ...
4201.5 "6506_12-3" 18.74000 "Sandstone" "Shale"  -999.25  88.0000 12.00000     0.0 "vc/granule" "vc/granule" "Tidevanns_kanaler"                                                                "Tidevannsinnfluert"         
4201.6 "6506_12-3" 17.55000 "Sandstone" "Shale"  -999.25  88.0000 12.00000     0.0 "vc/granule" "vc/granule" "Tidevanns_kanaler"                                                                "Tidevannsinnfluert"         
4201.7 "6506_12-3" 16.81000 "Sandstone" "Shale"  -999.25  88.0000 12.00000     0.0 "vc/granule" "vc/granule" "Tidevanns_kanaler"                                                                "Tidevannsinnfluert"         
4201.8 "6506_12-3" 16.25000 "Sandstone" "Shale"  -999.25  88.0000 12.00000     0.0 "vc/granule" "vc/granule" "Tidevanns_kanaler"                                                                "Tidevannsinnfluert"         
4201.9 "6506_12-3" 16.17000 "Sandstone" "Shale"  -999.25  97.0000  3.00000     0.0 "c/vc"     "c/vc"     "Tidevanns_kanaler"                                                                "Tidevannsinnfluert"         
4202.0 "6506_12-3" 16.09000 "Sandstone" "Shale"  -999.25  97.0000  3.00000     0.0 "c/vc"     "c/vc"     "Tidevanns_kanaler"                                                                "Tidevannsinnfluert"         
4202.1 "6506_12-3" 16.13000 "Sandstone" "Shale"  -999.25  97.0000  3.00000     0.0 "c/vc"     "c/vc"     "Tidevanns_kanaler"                                                                "Tidevannsinnfluert"         
4202.2 "6506_12-3" 16.17000 "Sandstone" "Shale"  -999.25  97.0000  3.00000     0.0 "c/vc"     "c/vc"     "Tidevanns_kanaler"                                                                "Tidevannsinnfluert"         
4202.3 "6506_12-3" 16.20000 "Sandstone" "Shale"  -999.25  97.0000  3.00000     0.0 "c/vc"     "c/vc"     "Tidevanns_kanaler"                                                                "Tidevannsinnfluert"         
4202.4 "6506_12-3" 16.21000 "Sandstone" "Shale"  -999.25  97.0000  3.00000     0.0 "c/vc"     "c/vc"     "Tidevanns_kanaler"                                                                "Tidevannsinnfluert"         
4202.5 "6506_12-3" 16.21000 "Sandstone" "Shale"  -999.25  97.0000  3.00000     0.0 "c/vc"     "c/vc"     "Tidevanns_kanaler"                                                                "Tidevannsinnfluert"         
4202.6 "6506_12-3" 15.37000 "Sandstone" "Shale"  -999.25  97.0000  3.00000     0.0 "c/vc"     "c/vc"     "Tidevanns_kanaler"                                                                "Tidevannsinnfluert"         
4202.7 "6506_12-3" 14.43000 "Sandstone" "Shale"  -999.25  97.0000  3.00000     0.0 "c/vc"     "c/vc"     "Tidevanns_kanaler"                                                                "Tidevannsinnfluert"         
4202.8 "6506_12-3" 12.78000 "Sandstone" "Shale"  -999.25  97.0000  3.00000     0.0 "c/vc"     "c/vc"     "Tidevanns_kanaler"                                                                "Tidevannsinnfluert"         
4202.9 "6506_12-3" 12.10000 "Sandstone" "Shale"  -999.25  97.0000  3.00000     0.0 "c/vc"     "c/vc"     "Tidevanns_kanaler"                                                                "Tidevannsinnfluert"         
4203.0 "6506_12-3" 11.42000 "Sandstone" "Shale"  -999.25  97.0000  3.00000     0.0 "c/vc"     "c/vc"     "Tidevanns_kanaler"                                                                "Tidevannsinnfluert"         
4203.1 "6506_12-3" 11.11000 "Sandstone" "Shale"  -999.25  97.0000  3.00000     0.0 "c/vc"     "c/vc"     "Tidevanns_kanaler"                                                                "Tidevannsinnfluert"         
4203.2 "6506_12-3" 11.05000 "Sandstone" "Shale"  -999.25  97.0000  3.00000     0.0 "c/vc"     "c/vc"     "Tidevanns_kanaler"                                                                "Tidevannsinnfluert"         
4203.3 "6506_12-3" 11.14000 "Sandstone" "Shale"  -999.25  97.0000  3.00000     0.0 "c/vc"     "c/vc"     "Tidevanns_kanaler"                                                                "Tidevannsinnfluert"         
4203.4 "6506_12-3" 11.24000 "Sandstone" "Shale"  -999.25  97.0000  3.00000     0.0 "c/vc"     "c/vc"     "Tidevanns_kanaler"                                                                "Tidevannsinnfluert"         
4203.5 "6506_12-3" 11.34000 "Sandstone" "Shale"  -999.25  97.0000  3.00000     0.0 "c/vc"     "c/vc"     "Tidevanns_kanaler"                                                                "Tidevannsinnfluert"         
4203.6 "6506_12-3" 11.26000 "Sandstone" "Shale"  -999.25  97.0000  3.00000     0.0 "c/vc"     "c/vc"     "Tidevanns_kanaler"                                                                "Tidevannsinnfluert"         
4203.7 "6506_12-3" 11.09000 "Sandstone" "Shale"  -999.25  97.0000  3.00000     0.0 "c/vc"     "c/vc"     "Tidevanns_kanaler"                                                                "Tidevannsinnfluert"         
4203.8 "6506_12-3" 10.92000 "Sandstone" "Shale"  -999.25  97.0000  3.00000     0.0 "c/vc"     "c/vc"     "Tidevanns_kanaler"                                                                "Tidevannsinnfluert"         
4203.9 "6506_12-3" 10.75000 "Sandstone" "Shale"  -999.25  97.0000  3.00000     0.0 "c/vc"     "c/vc"     "Tidevanns_kanaler"                                                                "Tidevannsinnfluert"         
4204.0 "6506_12-3" 10.05000 "Sandstone" "Shale"  -999.25  97.0000  3.00000     0.0 "c/vc"     "c/vc"     "Tidevanns_kanaler"                                                                "Tidevannsinnfluert"         
4204.1 "6506_12-3"  9.70000 "Sandstone" "Shale"  -999.25  97.0000  3.00000     0.0 "c/vc"     "c/vc"     "Tidevanns_kanaler"                                                                "Tidevannsinnfluert"         
4204.2 "6506_12-3"  9.74000 "Sandstone" "Shale"  -999.25  97.0000  3.00000     0.0 "c/vc"     "c/vc"     "Tidevanns_kanaler"                                                                "Tidevannsinnfluert"         
4204.3 "6506_12-3"  9.79000 "Sandstone" "Shale"  -999.25  97.0000  3.00000     0.0 "c/vc"     "c/vc"     "Tidevanns_kanaler"                                                                "Tidevannsinnfluert"         
4204.4 "6506_12-3"  9.99000 "Sandstone" "Shale"  -999.25  97.0000  3.00000     0.0 "c/vc"     "c/vc"     "Tidevanns_kanaler"                                                                "Tidevannsinnfluert"         
4204.5 "6506_12-3" 10.19000 "Sandstone" "Shale"  -999.25  97.0000  3.00000     0.0 "c/vc"     "c/vc"     "Tidevanns_kanaler"                                                                "Tidevannsinnfluert"         
4204.6 "6506_12-3" 10.40000 "Sandstone" "Shale"  -999.25  97.0000  3.00000     0.0 "c/vc"     "c/vc"     "Tidevanns_kanaler"                                                                "Tidevannsinnfluert"         
4204.7 "6506_12-3" 10.61000 "Sandstone" "Shale"  -999.25  97.0000  3.00000     0.0 "c/vc"     "c/vc"     "Tidevanns_kanaler"                                                                "Tidevannsinnfluert"         
4204.8 "6506_12-3" 10.72000 "Sandstone" "Shale"  -999.25  97.0000  3.00000     0.0 "c/vc"     "c/vc"     "Tidevanns_kanaler"                                                                "Tidevannsinnfluert"         
4204.9 "6506_12-3" 10.66000 "Sandstone" "Shale"  -999.25  97.0000  3.00000     0.0 "c/vc"     "c/vc"     "Tidevanns_kanaler"                                                                "Tidevannsinnfluert"         
4205.0 "6506_12-3" 10.60000 "Sandstone" "Shale"  -999.25  97.0000  3.00000     0.0 "c/vc"     "c/vc"     "Tidevanns_kanaler"                                                                "Tidevannsinnfluert"         
4205.1 "6506_12-3" 10.65000 "Sandstone" "Shale"  -999.25  97.0000  3.00000     0.0 "c/vc"     "c/vc"     "Tidevanns_kanaler"                                                                "Tidevannsinnfluert"         
