~Version
VERS  .                                 3.0 : CWLS LAS ASCII Standard - Version 3.0
WRAP  . NO                                  : One line per depth step
DLM   . SPACE                               : Column data section delimiter
SOURCE. Converted to LAS by Log Studio 4.76 : GeoProvider

~Well
STRT.         3836.0 : Start depth
STOP.         4268.0 : Stop depth
STEP.              1 : Step
NULL.        -999.25 : No-value
COMP.                : Company
WELL. 6506/12-3      : Well
FLD .                : Field
LOC .                : Location
LATI.                : Latitude
LONG.                : Longitude
GDAT.                : Geodetic datum
CNTY.                : County
STAT.                : State
CTRY.                : Country
SRVC. GeoProvider AS : Service company
DATE.                : Date
API .                : API number
RUN .                : Run number

~Parameters
WellboreName.  : Wellbore name
RigName     .  : Rig name
StartDate   .  : Start date

~Curves
DEPTH.m            .  : null {F}Depth mMD
Hole_ID.-          .  : null {S}Hole ID
GR.API             .  : null {F}Gamma Ray
Lithology1.-       .  : null {S}Lithology 1
Lithology2.-       .  : null {S}Lithology 2
Lithology3.-       .  : null {S}Lithology 3
Lithology1.%       .  : null {F}Lithology 1 percentage
Lithology2.%       .  : null {F}Lithology 2 percentage
Lithology3.%       .  : null {F}Lithology 3 percentage
Grain_size_Top.-   .  : null {S}Grain size at the top 
Grain_size_Base.-  .  : null {S}Grain size at the bottom
Sub_Environment.-  .  : null {S}Sub Environment
Gross_Environment.-.  : null {S}Gross Environment

~Ascii
# ...
3962.3 "6506_12-3" 25.60000 "Sandstone" "Shale"  -999.25  95.0000  5.00000     0.0 "f/m"      "f/m"      "Tidevanns_-kanaler"                                                               "Prograderende_Delta_Front"  
3962.4 "6506_12-3" 26.40000 "Sandstone" "Shale"  -999.25  95.0000  5.00000     0.0 "f/m"      "f/m"      "Tidevanns_-kanaler"                                                               "Prograderende_Delta_Front"  
3962.5 "6506_12-3" 27.19000 "Sandstone" "Shale"  -999.25  95.0000  5.00000     0.0 "f/m"      "f/m"      "Tidevanns_-kanaler"                                                               "Prograderende_Delta_Front"  
3962.6 "6506_12-3" 27.79000 "Sandstone" "Shale"  -999.25  95.0000  5.00000     0.0 "f/m"      "f/m"      "Tidevanns_-kanaler"                                                               "Prograderende_Delta_Front"  
3962.7 "6506_12-3" 28.22000 "Sandstone" "Shale"  -999.25  95.0000  5.00000     0.0 "f/m"      "f/m"      "Tidevanns_-kanaler"                                                               "Prograderende_Delta_Front"  
3962.8 "6506_12-3" 28.65000 "Sandstone" "Shale"  -999.25  95.0000  5.00000     0.0 "f/m"      "f/m"      "Tidevanns_-kanaler"                                                               "Prograderende_Delta_Front"  
3962.9 "6506_12-3" 29.08000 "Sandstone" "Shale"  -999.25  95.0000  5.00000     0.0 "f/m"      "f/m"      "Tidevanns_-kanaler"                                                               "Prograderende_Delta_Front"  
3963.0 "6506_12-3" 29.51000 "Sandstone" "Shale"  -999.25  95.0000  5.00000     0.0 "f/m"      "f/m"      "Tidevanns_-kanaler"                                                               "Prograderende_Delta_Front"  
3963.1 "6506_12-3" 29.94000 "Sandstone" "Shale"  -999.25  95.0000  5.00000     0.0 "f/m"      "f/m"      "Tidevanns_-kanaler"                                                               "Prograderende_Delta_Front"  
3963.2 "6506_12-3" 30.37000 "Sandstone" "Shale"  -999.25  95.0000  5.00000     0.0 "f/m"      "f/m"      "Tidevanns_-kanaler"                                                               "Prograderende_Delta_Front"  
3963.3 "6506_12-3" 30.71000 "Sandstone" "Shale"  -999.25  95.0000  5.00000     0.0 "f/m"      "f/m"      "Tidevanns_-kanaler"                                                               "Prograderende_Delta_Front"  
3963.4 "6506_12-3" 31.03000 "Sandstone" "Shale"  -999.25  95.0000  5.00000     0.0 "f/m"      "f/m"      "Tidevanns_-kanaler"                                                               "Prograderende_Delta_Front"  
3963.5 "6506_12-3" 31.34000 "Sandstone" "Shale"  -999.25  95.0000  5.00000     0.0 "f/m"      "f/m"      "Tidevanns_-kanaler"                                                               "Prograderende_Delta_Front"  
3963.6 "6506_12-3" 31.41000 "Sandstone" "Shale"  -999.25  95.0000  5.00000     0.0 "f/m"      "f/m"      "Tidevanns_-kanaler"                                                               "Prograderende_Delta_Front"  
3963.7 "6506_12-3" 30.80000 "Sandstone" "Shale"  -999.25  95.0000  5.00000     0.0 "f/m"      "f/m"      "Tidevanns_-kanaler"                                                               "Prograderende_Delta_Front"  
3963.8 "6506_12-3" 29.73000 "Sandstone" "Shale"  -999.25  95.0000  5.00000     0.0 "f/m"      "f/m"      "Tidevanns_-kanaler"                                                               "Prograderende_Delta_Front"  
3963.9 "6506_12-3" 28.25000 "Sandstone" "Shale"  -999.25  95.0000  5.00000     0.0 "f/m"      "f/m"      "Tidevanns_-kanaler"                                                               "Prograderende_Delta_Front"  
3964.0 "6506_12-3" 26.70000 "Sandstone" -999.25  -999.25 100.0000      0.0     0.0 "c/vc"     "c"        "Hovedsajlig_intertidale_og_subtidale_avsetninger_I_et_marindominert_estuariemilije" "Prograderende_Delta_Front"  
3964.1 "6506_12-3" 24.94000 "Sandstone" -999.25  -999.25 100.0000      0.0     0.0 "c/vc"     "c"        "Hovedsajlig_intertidale_og_subtidale_avsetninger_I_et_marindominert_estuariemilije" "Prograderende_Delta_Front"  
3964.2 "6506_12-3" 23.14000 "Sandstone" -999.25  -999.25 100.0000      0.0     0.0 "c/vc"     "c"        "Hovedsajlig_intertidale_og_subtidale_avsetninger_I_et_marindominert_estuariemilije" "Prograderende_Delta_Front"  
3964.3 "6506_12-3" 21.33000 "Sandstone" -999.25  -999.25 100.0000      0.0     0.0 "c/vc"     "c"        "Hovedsajlig_intertidale_og_subtidale_avsetninger_I_et_marindominert_estuariemilije" "Prograderende_Delta_Front"  
3964.4 "6506_12-3" 20.05000 "Sandstone" -999.25  -999.25 100.0000      0.0     0.0 "c/vc"     "c"        "Hovedsajlig_intertidale_og_subtidale_avsetninger_I_et_marindominert_estuariemilije" "Prograderende_Delta_Front"  
3964.5 "6506_12-3" 19.49000 "Sandstone" -999.25  -999.25 100.0000      0.0     0.0 "c/vc"     "c"        "Hovedsajlig_intertidale_og_subtidale_avsetninger_I_et_marindominert_estuariemilije" "Prograderende_Delta_Front"  
3964.6 "6506_12-3" 18.94000 "Sandstone" -999.25  -999.25 100.0000      0.0     0.0 "c/vc"     "c"        "Hovedsajlig_intertidale_og_subtidale_avsetninger_I_et_marindominert_estuariemilije" "Prograderende_Delta_Front"  
3964.7 "6506_12-3" 18.38000 "Sandstone" -999.25  -999.25 100.0000      0.0     0.0 "c/vc"     "c"        "Hovedsajlig_intertidale_og_subtidale_avsetninger_I_et_marindominert_estuariemilije" "Prograderende_Delta_Front"  
3964.8 "6506_12-3" 18.10000 "Sandstone" -999.25  -999.25 100.0000      0.0     0.0 "c/vc"     "c"        "Hovedsajlig_intertidale_og_subtidale_avsetninger_I_et_marindominert_estuariemilije" "Prograderende_Delta_Front"  
3964.9 "6506_12-3" 18.36000 "Sandstone" -999.25  -999.25 100.0000      0.0     0.0 "c/vc"     "c"        "Hovedsajlig_intertidale_og_subtidale_avsetninger_I_et_marindominert_estuariemilije" "Prograderende_Delta_Front"  
3965.0 "6506_12-3" 18.97000 "Sandstone" -999.25  -999.25 100.0000      0.0     0.0 "c/vc"     "c"        "Hovedsajlig_intertidale_og_subtidale_avsetninger_I_et_marindominert_estuariemilije" "Prograderende_Delta_Front"  
3965.1 "6506_12-3" 22.95000 "Sandstone" -999.25  -999.25 100.0000      0.0     0.0 "f"        "m"        "Hovedsajlig_intertidale_og_subtidale_avsetninger_I_et_marindominert_estuariemilije" "Prograderende_Delta_Front"  
3965.2 "6506_12-3" 27.95000 "Sandstone" -999.25  -999.25 100.0000      0.0     0.0 "f"        "m"        "Hovedsajlig_intertidale_og_subtidale_avsetninger_I_et_marindominert_estuariemilije" "Prograderende_Delta_Front"  
3965.3 "6506_12-3" 30.39000 "Sandstone" -999.25  -999.25 100.0000      0.0     0.0 "f"        "m"        "Hovedsajlig_intertidale_og_subtidale_avsetninger_I_et_marindominert_estuariemilije" "Prograderende_Delta_Front"  
3965.4 "6506_12-3" 32.35000 "Sandstone" -999.25  -999.25 100.0000      0.0     0.0 "f"        "m"        "Hovedsajlig_intertidale_og_subtidale_avsetninger_I_et_marindominert_estuariemilije" "Prograderende_Delta_Front"  
3965.5 "6506_12-3" 33.84000 "Sandstone" -999.25  -999.25 100.0000      0.0     0.0 "f"        "m"        "Hovedsajlig_intertidale_og_subtidale_avsetninger_I_et_marindominert_estuariemilije" "Prograderende_Delta_Front"  
3965.6 "6506_12-3" 34.68000 "Sandstone" -999.25  -999.25 100.0000      0.0     0.0 "f"        "m"        "Hovedsajlig_intertidale_og_subtidale_avsetninger_I_et_marindominert_estuariemilije" "Prograderende_Delta_Front"  
3965.7 "6506_12-3" 35.17000 "Sandstone" -999.25  -999.25 100.0000      0.0     0.0 "f"        "m"        "Hovedsajlig_intertidale_og_subtidale_avsetninger_I_et_marindominert_estuariemilije" "Prograderende_Delta_Front"  
3965.8 "6506_12-3" 35.08000 "Sandstone" -999.25  -999.25 100.0000      0.0     0.0 "f"        "m"        "Hovedsajlig_intertidale_og_subtidale_avsetninger_I_et_marindominert_estuariemilije" "Prograderende_Delta_Front"  
3965.9 "6506_12-3" 34.77000 "Sandstone" -999.25  -999.25 100.0000      0.0     0.0 "f"        "m"        "Hovedsajlig_intertidale_og_subtidale_avsetninger_I_et_marindominert_estuariemilije" "Prograderende_Delta_Front"  
