~Version
VERS  .                                 3.0 : CWLS LAS ASCII Standard - Version 3.0
WRAP  . NO                                  : One line per depth step
DLM   . SPACE                               : Column data section delimiter
SOURCE. Converted to LAS by Log Studio 4.76 : GeoProvider

~Well
STRT.         3836.0 : Start depth
STOP.         4268.0 : Stop depth
STEP.              1 : Step
NULL.        -999.25 : No-value
COMP.                : Company
WELL. 6506/12-3      : Well
FLD .                : Field
LOC .                : Location
LATI.                : Latitude
LONG.                : Longitude
GDAT.                : Geodetic datum
CNTY.                : County
STAT.                : State
CTRY.                : Country
SRVC. GeoProvider AS : Service company
DATE.                : Date
API .                : API number
RUN .                : Run number

~Parameters
WellboreName.  : Wellbore name
RigName     .  : Rig name
StartDate   .  : Start date

~Curves
DEPTH.m            .  : null {F}Depth mMD
Hole_ID.-          .  : null {S}Hole ID
GR.API             .  : null {F}Gamma Ray
Lithology1.-       .  : null {S}Lithology 1
Lithology2.-       .  : null {S}Lithology 2
Lithology3.-       .  : null {S}Lithology 3
Lithology1.%       .  : null {F}Lithology 1 percentage
Lithology2.%       .  : null {F}Lithology 2 percentage
Lithology3.%       .  : null {F}Lithology 3 percentage
Grain_size_Top.-   .  : null {S}Grain size at the top 
Grain_size_Base.-  .  : null {S}Grain size at the bottom
Sub_Environment.-  .  : null {S}Sub Environment
Gross_Environment.-.  : null {S}Gross Environment

~Ascii
# ...
4242.2 "6506_12-3" 30.13000 "Sandstone" -999.25  -999.25 100.0000      0.0     0.0 "c"        "c"        "Sandig_of_konglomeratisk_tidevannsdominert_bukt"                                  "Tidevannsinnfluert"         
4242.3 "6506_12-3" 31.80000 "Sandstone" -999.25  -999.25 100.0000      0.0     0.0 "c"        "c"        "Sandig_of_konglomeratisk_tidevannsdominert_bukt"                                  "Tidevannsinnfluert"         
4242.4 "6506_12-3" 32.25000 "Sandstone" -999.25  -999.25 100.0000      0.0     0.0 "c"        "c"        "Sandig_of_konglomeratisk_tidevannsdominert_bukt"                                  "Tidevannsinnfluert"         
4242.5 "6506_12-3" 32.25000 "Sandstone" -999.25  -999.25 100.0000      0.0     0.0 "c"        "c"        "Sandig_of_konglomeratisk_tidevannsdominert_bukt"                                  "Tidevannsinnfluert"         
4242.6 "6506_12-3" 32.07000 "Sandstone" -999.25  -999.25 100.0000      0.0     0.0 "c"        "c"        "Sandig_of_konglomeratisk_tidevannsdominert_bukt"                                  "Tidevannsinnfluert"         
4242.7 "6506_12-3" 31.12000 "Sandstone" -999.25  -999.25 100.0000      0.0     0.0 "c"        "c"        "Sandig_of_konglomeratisk_tidevannsdominert_bukt"                                  "Tidevannsinnfluert"         
4242.8 "6506_12-3" 30.71000 "Sandstone" -999.25  -999.25 100.0000      0.0     0.0 "c"        "c"        "Sandig_of_konglomeratisk_tidevannsdominert_bukt"                                  "Tidevannsinnfluert"         
4242.9 "6506_12-3" 31.08000 "Sandstone" -999.25  -999.25 100.0000      0.0     0.0 "c"        "c"        "Sandig_of_konglomeratisk_tidevannsdominert_bukt"                                  "Tidevannsinnfluert"         
4243.0 "6506_12-3" 31.41000 "Sandstone" -999.25  -999.25 100.0000      0.0     0.0 "c"        "c"        "Sandig_of_konglomeratisk_tidevannsdominert_bukt"                                  "Tidevannsinnfluert"         
4243.1 "6506_12-3" 31.64000 "Sandstone" -999.25  -999.25 100.0000      0.0     0.0 "c"        "c"        "Sandig_of_konglomeratisk_tidevannsdominert_bukt"                                  "Tidevannsinnfluert"         
4243.2 "6506_12-3" 31.38000 "Sandstone" -999.25  -999.25 100.0000      0.0     0.0 "c"        "c"        "Sandig_of_konglomeratisk_tidevannsdominert_bukt"                                  "Tidevannsinnfluert"         
4243.3 "6506_12-3" 30.28000 "Sandstone" -999.25  -999.25 100.0000      0.0     0.0 "c"        "c"        "Sandig_of_konglomeratisk_tidevannsdominert_bukt"                                  "Tidevannsinnfluert"         
4243.4 "6506_12-3" 28.86000 "Sandstone" -999.25  -999.25 100.0000      0.0     0.0 "c"        "c"        "Sandig_of_konglomeratisk_tidevannsdominert_bukt"                                  "Tidevannsinnfluert"         
4243.5 "6506_12-3" 27.44000 "Sandstone" -999.25  -999.25 100.0000      0.0     0.0 "c"        "c"        "Sandig_of_konglomeratisk_tidevannsdominert_bukt"                                  "Tidevannsinnfluert"         
4243.6 "6506_12-3" 26.01000 "Sandstone" -999.25  -999.25 100.0000      0.0     0.0 "c"        "c"        "Sandig_of_konglomeratisk_tidevannsdominert_bukt"                                  "Tidevannsinnfluert"         
4243.7 "6506_12-3" 24.59000 "Sandstone" -999.25  -999.25 100.0000      0.0     0.0 "c"        "c"        "Sandig_of_konglomeratisk_tidevannsdominert_bukt"                                  "Tidevannsinnfluert"         
4243.8 "6506_12-3" 23.17000 "Sandstone" -999.25  -999.25 100.0000      0.0     0.0 "c"        "c"        "Sandig_of_konglomeratisk_tidevannsdominert_bukt"                                  "Tidevannsinnfluert"         
4243.9 "6506_12-3" 21.35000 "Sandstone" -999.25  -999.25 100.0000      0.0     0.0 "c"        "c"        "Sandig_of_konglomeratisk_tidevannsdominert_bukt"                                  "Tidevannsinnfluert"         
4244.0 "6506_12-3" 19.23000 "Sandstone" -999.25  -999.25 100.0000      0.0     0.0 "c"        "c"        "Sandig_of_konglomeratisk_tidevannsdominert_bukt"                                  "Tidevannsinnfluert"         
4244.1 "6506_12-3" 17.11000 "Sandstone" -999.25  -999.25 100.0000      0.0     0.0 "c"        "c"        "Sandig_of_konglomeratisk_tidevannsdominert_bukt"                                  "Tidevannsinnfluert"         
4244.2 "6506_12-3" 15.74000 "Sandstone" -999.25  -999.25 100.0000      0.0     0.0 "c"        "c"        "Sandig_of_konglomeratisk_tidevannsdominert_bukt"                                  "Tidevannsinnfluert"         
4244.3 "6506_12-3" 14.93000 "Sandstone" -999.25  -999.25 100.0000      0.0     0.0 "c"        "c"        "Sandig_of_konglomeratisk_tidevannsdominert_bukt"                                  "Tidevannsinnfluert"         
4244.4 "6506_12-3" 14.84000 "Sandstone" -999.25  -999.25 100.0000      0.0     0.0 "c"        "c"        "Sandig_of_konglomeratisk_tidevannsdominert_bukt"                                  "Tidevannsinnfluert"         
4244.5 "6506_12-3" 14.93000 "Sandstone" -999.25  -999.25 100.0000      0.0     0.0 "c"        "c"        "Sandig_of_konglomeratisk_tidevannsdominert_bukt"                                  "Tidevannsinnfluert"         
4244.6 "6506_12-3" 15.03000 "Sandstone" -999.25  -999.25 100.0000      0.0     0.0 "c"        "c"        "Sandig_of_konglomeratisk_tidevannsdominert_bukt"                                  "Tidevannsinnfluert"         
4244.7 "6506_12-3" 15.13000 "Sandstone" -999.25  -999.25 100.0000      0.0     0.0 "c"        "c"        "Sandig_of_konglomeratisk_tidevannsdominert_bukt"                                  "Tidevannsinnfluert"         
4244.8 "6506_12-3" 15.23000 "Sandstone" -999.25  -999.25 100.0000      0.0     0.0 "c"        "c"        "Sandig_of_konglomeratisk_tidevannsdominert_bukt"                                  "Tidevannsinnfluert"         
4244.9 "6506_12-3" 15.15000 "Sandstone" "Shale"  -999.25  60.0000 40.00000     0.0 "f"        "f"        "Sandig_of_konglomeratisk_tidevannsdominert_bukt"                                  "Tidevannsinnfluert"         
4245.0 "6506_12-3" 14.94000 "Sandstone" "Shale"  -999.25  60.0000 40.00000     0.0 "f"        "f"        "Sandig_of_konglomeratisk_tidevannsdominert_bukt"                                  "Tidevannsinnfluert"         
4245.1 "6506_12-3" 14.73000 "Sandstone" "Shale"  -999.25  60.0000 40.00000     0.0 "f"        "f"        "Sandig_of_konglomeratisk_tidevannsdominert_bukt"                                  "Tidevannsinnfluert"         
4245.2 "6506_12-3" 14.52000 "Sandstone" "Shale"  -999.25  60.0000 40.00000     0.0 "f"        "f"        "Sandig_of_konglomeratisk_tidevannsdominert_bukt"                                  "Tidevannsinnfluert"         
4245.3 "6506_12-3" 14.31000 "Sandstone" "Shale"  -999.25  60.0000 40.00000     0.0 "f"        "f"        "Sandig_of_konglomeratisk_tidevannsdominert_bukt"                                  "Tidevannsinnfluert"         
4245.4 "6506_12-3" 14.10000 "Sandstone" "Shale"  -999.25  60.0000 40.00000     0.0 "f"        "f"        "Sandig_of_konglomeratisk_tidevannsdominert_bukt"                                  "Tidevannsinnfluert"         
4245.5 "6506_12-3" 13.99000 "Sandstone" "Shale"  -999.25  60.0000 40.00000     0.0 "f"        "f"        "Sandig_of_konglomeratisk_tidevannsdominert_bukt"                                  "Tidevannsinnfluert"         
4245.6 "6506_12-3" 13.94000 "Sandstone" "Shale"  -999.25  60.0000 40.00000     0.0 "f"        "f"        "Sandig_of_konglomeratisk_tidevannsdominert_bukt"                                  "Tidevannsinnfluert"         
4245.7 "6506_12-3" 13.90000 "Sandstone" "Shale"  -999.25  60.0000 40.00000     0.0 "f"        "f"        "Sandig_of_konglomeratisk_tidevannsdominert_bukt"                                  "Tidevannsinnfluert"         
4245.8 "6506_12-3" 14.07000 "Sandstone" "Shale"  -999.25  60.0000 40.00000     0.0 "f"        "f"        "Sandig_of_konglomeratisk_tidevannsdominert_bukt"                                  "Tidevannsinnfluert"         
