~Version
VERS  .                                 3.0 : CWLS LAS ASCII Standard - Version 3.0
WRAP  . NO                                  : One line per depth step
DLM   . SPACE                               : Column data section delimiter
SOURCE. Converted to LAS by Log Studio 4.76 : GeoProvider

~Well
STRT.         3836.0 : Start depth
STOP.         4268.0 : Stop depth
STEP.              1 : Step
NULL.        -999.25 : No-value
COMP.                : Company
WELL. 6506/12-3      : Well
FLD .                : Field
LOC .                : Location
LATI.                : Latitude
LONG.                : Longitude
GDAT.                : Geodetic datum
CNTY.                : County
STAT.                : State
CTRY.                : Country
SRVC. GeoProvider AS : Service company
DATE.                : Date
API .                : API number
RUN .                : Run number

~Parameters
WellboreName.  : Wellbore name
RigName     .  : Rig name
StartDate   .  : Start date

~Curves
DEPTH.m            .  : null {F}Depth mMD
Hole_ID.-          .  : null {S}Hole ID
GR.API             .  : null {F}Gamma Ray
Lithology1.-       .  : null {S}Lithology 1
Lithology2.-       .  : null {S}Lithology 2
Lithology3.-       .  : null {S}Lithology 3
Lithology1.%       .  : null {F}Lithology 1 percentage
Lithology2.%       .  : null {F}Lithology 2 percentage
Lithology3.%       .  : null {F}Lithology 3 percentage
Grain_size_Top.-   .  : null {S}Grain size at the top 
Grain_size_Base.-  .  : null {S}Grain size at the bottom
Sub_Environment.-  .  : null {S}Sub Environment
Gross_Environment.-.  : null {S}Gross Environment

~Ascii
3836.0 "6506_12-3" 21.52000 "Sandstone" "Shale"  -999.25  90.0000 10.00000     0.0 "f/m"      "f/m"      "Hovedsakelig_øvre_strandskråning"                                                 "Proksimal_Delta_Front"      
3836.1 "6506_12-3" 21.30000 "Sandstone" "Shale"  -999.25  90.0000 10.00000     0.0 "f/m"      "f/m"      "Hovedsakelig_øvre_strandskråning"                                                 "Proksimal_Delta_Front"      
3836.2 "6506_12-3" 21.56000 "Sandstone" "Shale"  -999.25  90.0000 10.00000     0.0 "f/m"      "f/m"      "Hovedsakelig_øvre_strandskråning"                                                 "Proksimal_Delta_Front"      
3836.3 "6506_12-3" 21.91000 "Sandstone" "Shale"  -999.25  90.0000 10.00000     0.0 "f/m"      "f/m"      "Hovedsakelig_øvre_strandskråning"                                                 "Proksimal_Delta_Front"      
3836.4 "6506_12-3" 22.67000 "Sandstone" "Shale"  -999.25  90.0000 10.00000     0.0 "f/m"      "f/m"      "Hovedsakelig_øvre_strandskråning"                                                 "Proksimal_Delta_Front"      
3836.5 "6506_12-3" 23.72000 "Sandstone" "Shale"  -999.25  90.0000 10.00000     0.0 "f/m"      "f/m"      "Hovedsakelig_øvre_strandskråning"                                                 "Proksimal_Delta_Front"      
3836.6 "6506_12-3" 25.24000 "Sandstone" "Shale"  -999.25  90.0000 10.00000     0.0 "f/m"      "f/m"      "Hovedsakelig_øvre_strandskråning"                                                 "Proksimal_Delta_Front"      
3836.7 "6506_12-3" 26.95000 "Sandstone" "Shale"  -999.25  90.0000 10.00000     0.0 "f/m"      "f/m"      "Hovedsakelig_øvre_strandskråning"                                                 "Proksimal_Delta_Front"      
3836.8 "6506_12-3" 28.67000 "Sandstone" "Shale"  -999.25  90.0000 10.00000     0.0 "f/m"      "f/m"      "Hovedsakelig_øvre_strandskråning"                                                 "Proksimal_Delta_Front"      
3836.9 "6506_12-3" 30.18000 "Sandstone" "Shale"  -999.25  90.0000 10.00000     0.0 "f/m"      "f/m"      "Hovedsakelig_øvre_strandskråning"                                                 "Proksimal_Delta_Front"      
3837.0 "6506_12-3" 30.72000 "Sandstone" "Shale"  -999.25  90.0000 10.00000     0.0 "f/m"      "f/m"      "Hovedsakelig_øvre_strandskråning"                                                 "Proksimal_Delta_Front"      
3837.1 "6506_12-3" 30.56000 "Sandstone" "Shale"  -999.25  90.0000 10.00000     0.0 "f/m"      "f/m"      "Hovedsakelig_øvre_strandskråning"                                                 "Proksimal_Delta_Front"      
3837.2 "6506_12-3" 29.18000 "Sandstone" "Shale"  -999.25  90.0000 10.00000     0.0 "f/m"      "f/m"      "Hovedsakelig_øvre_strandskråning"                                                 "Proksimal_Delta_Front"      
3837.3 "6506_12-3" 27.39000 "Sandstone" "Shale"  -999.25  90.0000 10.00000     0.0 "f/m"      "f/m"      "Hovedsakelig_øvre_strandskråning"                                                 "Proksimal_Delta_Front"      
3837.4 "6506_12-3" 25.60000 "Sandstone" "Shale"  -999.25  90.0000 10.00000     0.0 "f/m"      "f/m"      "Hovedsakelig_øvre_strandskråning"                                                 "Proksimal_Delta_Front"      
3837.5 "6506_12-3" 23.66000 "Sandstone" "Shale"  -999.25  90.0000 10.00000     0.0 "f/m"      "f/m"      "Hovedsakelig_øvre_strandskråning"                                                 "Proksimal_Delta_Front"      
3837.6 "6506_12-3" 21.67000 "Sandstone" "Shale"  -999.25  90.0000 10.00000     0.0 "f/m"      "f/m"      "Hovedsakelig_øvre_strandskråning"                                                 "Proksimal_Delta_Front"      
3837.7 "6506_12-3" 18.27000 "Sandstone" "Shale"  -999.25  90.0000 10.00000     0.0 "f/m"      "f/m"      "Hovedsakelig_øvre_strandskråning"                                                 "Proksimal_Delta_Front"      
3837.8 "6506_12-3" 17.21000 "Sandstone" "Shale"  -999.25  90.0000 10.00000     0.0 "f/m"      "f/m"      "Hovedsakelig_øvre_strandskråning"                                                 "Proksimal_Delta_Front"      
3837.9 "6506_12-3" 16.80000 "Sandstone" "Shale"  -999.25  90.0000 10.00000     0.0 "f/m"      "f/m"      "Hovedsakelig_øvre_strandskråning"                                                 "Proksimal_Delta_Front"      
3838.0 "6506_12-3" 16.48000 "Sandstone" "Shale"  -999.25  90.0000 10.00000     0.0 "f/m"      "f/m"      "Hovedsakelig_øvre_strandskråning"                                                 "Proksimal_Delta_Front"      
3838.1 "6506_12-3" 16.16000 "Sandstone" "Shale"  -999.25  90.0000 10.00000     0.0 "f/m"      "f/m"      "Hovedsakelig_øvre_strandskråning"                                                 "Proksimal_Delta_Front"      
3838.2 "6506_12-3" 15.85000 "Sandstone" "Shale"  -999.25  90.0000 10.00000     0.0 "f/m"      "f/m"      "Hovedsakelig_øvre_strandskråning"                                                 "Proksimal_Delta_Front"      
3838.3 "6506_12-3" 15.47000 "Sandstone" "Shale"  -999.25  90.0000 10.00000     0.0 "f/m"      "f/m"      "Hovedsakelig_øvre_strandskråning"                                                 "Proksimal_Delta_Front"      
3838.4 "6506_12-3" 15.04000 "Sandstone" "Shale"  -999.25  90.0000 10.00000     0.0 "f/m"      "f/m"      "Hovedsakelig_øvre_strandskråning"                                                 "Proksimal_Delta_Front"      
3838.5 "6506_12-3" 14.61000 "Sandstone" "Shale"  -999.25  90.0000 10.00000     0.0 "f/m"      "f/m"      "Hovedsakelig_øvre_strandskråning"                                                 "Proksimal_Delta_Front"      
3838.6 "6506_12-3" 14.19000 "Sandstone" "Shale"  -999.25  90.0000 10.00000     0.0 "f/m"      "f/m"      "Hovedsakelig_øvre_strandskråning"                                                 "Proksimal_Delta_Front"      
3838.7 "6506_12-3" 14.25000 "Sandstone" "Shale"  -999.25  90.0000 10.00000     0.0 "f/m"      "f/m"      "Hovedsakelig_øvre_strandskråning"                                                 "Proksimal_Delta_Front"      
3838.8 "6506_12-3" 14.31000 "Sandstone" "Shale"  -999.25  90.0000 10.00000     0.0 "f/m"      "f/m"      "Hovedsakelig_øvre_strandskråning"                                                 "Proksimal_Delta_Front"      
3838.9 "6506_12-3" 14.52000 "Sandstone" "Shale"  -999.25  90.0000 10.00000     0.0 "f/m"      "f/m"      "Hovedsakelig_øvre_strandskråning"                                                 "Proksimal_Delta_Front"      
3839.0 "6506_12-3" 14.78000 "Sandstone" "Shale"  -999.25  90.0000 10.00000     0.0 "f/m"      "f/m"      "Hovedsakelig_øvre_strandskråning"                                                 "Proksimal_Delta_Front"      
3839.1 "6506_12-3" 15.04000 "Sandstone" "Shale"  -999.25  90.0000 10.00000     0.0 "f/m"      "f/m"      "Hovedsakelig_øvre_strandskråning"                                                 "Proksimal_Delta_Front"      
3839.2 "6506_12-3" 15.26000 "Sandstone" "Shale"  -999.25  90.0000 10.00000     0.0 "f/m"      "f/m"      "Hovedsakelig_øvre_strandskråning"                                                 "Proksimal_Delta_Front"      
3839.3 "6506_12-3" 15.48000 "Sandstone" "Shale"  -999.25  90.0000 10.00000     0.0 "f/m"      "f/m"      "Hovedsakelig_øvre_strandskråning"                                                 "Proksimal_Delta_Front"      
3839.4 "6506_12-3" 15.69000 "Sandstone" "Shale"  -999.25  90.0000 10.00000     0.0 "f/m"      "f/m"      "Hovedsakelig_øvre_strandskråning"                                                 "Proksimal_Delta_Front"      
3839.5 "6506_12-3" 15.91000 "Sandstone" "Shale"  -999.25  90.0000 10.00000     0.0 "f/m"      "f/m"      "Hovedsakelig_øvre_strandskråning"                                                 "Proksimal_Delta_Front"      
3839.6 "6506_12-3" 16.07000 "Sandstone" "Shale"  -999.25  90.0000 10.00000     0.0 "f/m"      "f/m"      "Hovedsakelig_øvre_strandskråning"                                                 "Proksimal_Delta_Front"      
