~Version
VERS  .                                 3.0 : CWLS LAS ASCII Standard - Version 3.0
WRAP  . NO                                  : One line per depth step
DLM   . SPACE                               : Column data section delimiter
SOURCE. Converted to LAS by Log Studio 4.76 : GeoProvider

~Well
STRT.         3836.0 : Start depth
STOP.         4268.0 : Stop depth
STEP.              1 : Step
NULL.        -999.25 : No-value
COMP.                : Company
WELL. 6506/12-3      : Well
FLD .                : Field
LOC .                : Location
LATI.                : Latitude
LONG.                : Longitude
GDAT.                : Geodetic datum
CNTY.                : County
STAT.                : State
CTRY.                : Country
SRVC. GeoProvider AS : Service company
DATE.                : Date
API .                : API number
RUN .                : Run number

~Parameters
WellboreName.  : Wellbore name
RigName     .  : Rig name
StartDate   .  : Start date

~Curves
DEPTH.m            .  : null {F}Depth mMD
Hole_ID.-          .  : null {S}Hole ID
GR.API             .  : null {F}Gamma Ray
Lithology1.-       .  : null {S}Lithology 1
Lithology2.-       .  : null {S}Lithology 2
Lithology3.-       .  : null {S}Lithology 3
Lithology1.%       .  : null {F}Lithology 1 percentage
Lithology2.%       .  : null {F}Lithology 2 percentage
Lithology3.%       .  : null {F}Lithology 3 percentage
Grain_size_Top.-   .  : null {S}Grain size at the top 
Grain_size_Base.-  .  : null {S}Grain size at the bottom
Sub_Environment.-  .  : null {S}Sub Environment
Gross_Environment.-.  : null {S}Gross Environment

~Ascii
# ...
3980.8 "6506_12-3" 22.90000 "Sandstone" "Shale"  -999.25  90.0000 10.00000     0.0 "m/c"      "m/c"      "Bak-barriere_kompleks"                                                            "Prograderende_Delta_Front"  
3980.9 "6506_12-3" 23.43000 "Sandstone" -999.25  -999.25 100.0000      0.0     0.0 "m/c"      "m/c"      "Bak-barriere_kompleks"                                                            "Prograderende_Delta_Front"  
3981.0 "6506_12-3" 24.16000 "Sandstone" -999.25  -999.25 100.0000      0.0     0.0 "m/c"      "m/c"      "Bak-barriere_kompleks"                                                            "Prograderende_Delta_Front"  
3981.1 "6506_12-3" 24.94000 "Sandstone" -999.25  -999.25 100.0000      0.0     0.0 "m/c"      "m/c"      "Bak-barriere_kompleks"                                                            "Prograderende_Delta_Front"  
3981.2 "6506_12-3" 25.71000 "Sandstone" -999.25  -999.25 100.0000      0.0     0.0 "m/c"      "m/c"      "Bak-barriere_kompleks"                                                            "Prograderende_Delta_Front"  
3981.3 "6506_12-3" 26.40000 "Sandstone" -999.25  -999.25 100.0000      0.0     0.0 "m/c"      "m/c"      "Bak-barriere_kompleks"                                                            "Prograderende_Delta_Front"  
3981.4 "6506_12-3" 26.88000 "Sandstone" -999.25  -999.25 100.0000      0.0     0.0 "m/c"      "m/c"      "Bak-barriere_kompleks"                                                            "Prograderende_Delta_Front"  
3981.5 "6506_12-3" 26.71000 "Sandstone" -999.25  -999.25 100.0000      0.0     0.0 "m/c"      "m/c"      "Bak-barriere_kompleks"                                                            "Prograderende_Delta_Front"  
3981.6 "6506_12-3" 26.38000 "Sandstone" -999.25  -999.25 100.0000      0.0     0.0 "m/c"      "m/c"      "Bak-barriere_kompleks"                                                            "Prograderende_Delta_Front"  
3981.7 "6506_12-3" 25.71000 "Sandstone" -999.25  -999.25 100.0000      0.0     0.0 "m/c"      "m/c"      "Bak-barriere_kompleks"                                                            "Prograderende_Delta_Front"  
3981.8 "6506_12-3" 24.49000 "Sandstone" -999.25  -999.25 100.0000      0.0     0.0 "m/c"      "m/c"      "Bak-barriere_kompleks"                                                            "Prograderende_Delta_Front"  
3981.9 "6506_12-3" 23.27000 "Sandstone" -999.25  -999.25 100.0000      0.0     0.0 "m/c"      "m/c"      "Bak-barriere_kompleks"                                                            "Prograderende_Delta_Front"  
3982.0 "6506_12-3" 22.05000 "Sandstone" -999.25  -999.25 100.0000      0.0     0.0 "m/c"      "m/c"      "Bak-barriere_kompleks"                                                            "Prograderende_Delta_Front"  
3982.1 "6506_12-3" 20.83000 "Sandstone" -999.25  -999.25 100.0000      0.0     0.0 "m/c"      "m/c"      "Bak-barriere_kompleks"                                                            "Prograderende_Delta_Front"  
3982.2 "6506_12-3" 20.19000 "Sandstone" -999.25  -999.25 100.0000      0.0     0.0 "m/c"      "m/c"      "Bak-barriere_kompleks"                                                            "Prograderende_Delta_Front"  
3982.3 "6506_12-3" 20.06000 "Sandstone" -999.25  -999.25 100.0000      0.0     0.0 "m/c"      "m/c"      "Bak-barriere_kompleks"                                                            "Prograderende_Delta_Front"  
3982.4 "6506_12-3" 19.93000 "Sandstone" -999.25  -999.25 100.0000      0.0     0.0 "m/c"      "m/c"      "Bak-barriere_kompleks"                                                            "Prograderende_Delta_Front"  
3982.5 "6506_12-3" 19.74000 "Sandstone" -999.25  -999.25 100.0000      0.0     0.0 "m/c"      "m/c"      "Bak-barriere_kompleks"                                                            "Prograderende_Delta_Front"  
3982.6 "6506_12-3" 19.54000 "Sandstone" -999.25  -999.25 100.0000      0.0     0.0 "m/c"      "m/c"      "Bak-barriere_kompleks"                                                            "Prograderende_Delta_Front"  
3982.7 "6506_12-3" 19.33000 "Sandstone" -999.25  -999.25 100.0000      0.0     0.0 "m/c"      "m/c"      "Bak-barriere_kompleks"                                                            "Prograderende_Delta_Front"  
3982.8 "6506_12-3" 18.67000 "Sandstone" -999.25  -999.25 100.0000      0.0     0.0 "m/c"      "m/c"      "Bak-barriere_kompleks"                                                            "Prograderende_Delta_Front"  
3982.9 "6506_12-3" 17.63000 "Sandstone" -999.25  -999.25 100.0000      0.0     0.0 "m/c"      "m/c"      "Bak-barriere_kompleks"                                                            "Prograderende_Delta_Front"  
3983.0 "6506_12-3" 16.59000 "Sandstone" -999.25  -999.25 100.0000      0.0     0.0 "m/c"      "m/c"      "Bak-barriere_kompleks"                                                            "Prograderende_Delta_Front"  
3983.1 "6506_12-3" 15.81000 "Sandstone" -999.25  -999.25 100.0000      0.0     0.0 "m/c"      "m/c"      "Bak-barriere_kompleks"                                                            "Prograderende_Delta_Front"  
3983.2 "6506_12-3" 15.23000 "Sandstone" -999.25  -999.25 100.0000      0.0     0.0 "m/c"      "m/c"      "Bak-barriere_kompleks"                                                            "Prograderende_Delta_Front"  
3983.3 "6506_12-3" 15.02000 "Sandstone" -999.25  -999.25 100.0000      0.0     0.0 "m/c"      "m/c"      "Bak-barriere_kompleks"                                                            "Prograderende_Delta_Front"  
3983.4 "6506_12-3" 14.97000 "Sandstone" -999.25  -999.25 100.0000      0.0     0.0 "m/c"      "m/c"      "Bak-barriere_kompleks"                                                            "Prograderende_Delta_Front"  
3983.5 "6506_12-3" 14.92000 "Sandstone" -999.25  -999.25 100.0000      0.0     0.0 "m/c"      "m/c"      "Bak-barriere_kompleks"                                                            "Prograderende_Delta_Front"  
3983.6 "6506_12-3" 15.20000 "Sandstone" -999.25  -999.25 100.0000      0.0     0.0 "m/c"      "m/c"      "Bak-barriere_kompleks"                                                            "Prograderende_Delta_Front"  
3983.7 "6506_12-3" 15.62000 "Sandstone" -999.25  -999.25 100.0000      0.0     0.0 "m/c"      "m/c"      "Bak-barriere_kompleks"                                                            "Prograderende_Delta_Front"  
3983.8 "6506_12-3" 16.23000 "Sandstone" -999.25  -999.25 100.0000      0.0     0.0 "m/c"      "m/c"      "Bak-barriere_kompleks"                                                            "Prograderende_Delta_Front"  
3983.9 "6506_12-3" 18.72000 "Sandstone" -999.25  -999.25 100.0000      0.0     0.0 "m/c"      "m/c"      "Bak-barriere_kompleks"                                                            "Prograderende_Delta_Front"  
3984.0 "6506_12-3" 21.01000 "Sandstone" -999.25  -999.25 100.0000      0.0     0.0 "m/c"      "m/c"      "Bak-barriere_kompleks"                                                            "Prograderende_Delta_Front"  
3984.1 "6506_12-3" 21.51000 "Sandstone" -999.25  -999.25 100.0000      0.0     0.0 "m/c"      "m/c"      "Bak-barriere_kompleks"                                                            "Prograderende_Delta_Front"  
3984.2 "6506_12-3" 21.61000 "Sandstone" -999.25  -999.25 100.0000      0.0     0.0 "m/c"      "m/c"      "Bak-barriere_kompleks"                                                            "Prograderende_Delta_Front"  
3984.3 "6506_12-3" 21.14000 "Shale"   -999.25  -999.25 100.0000      0.0     0.0 "silt"     "silt"     "Bak-barriere_kompleks"                                                            "Prograderende_Delta_Front"  
3984.4 "6506_12-3" 20.54000 "Sandstone" -999.25  -999.25 100.0000      0.0     0.0 "c"        "c"        "Bak-barriere_kompleks"                                                            "Prograderende_Delta_Front"  
