~Version
VERS  .                                 3.0 : CWLS LAS ASCII Standard - Version 3.0
WRAP  . NO                                  : One line per depth step
DLM   . SPACE                               : Column data section delimiter
SOURCE. Converted to LAS by Log Studio 4.76 : GeoProvider

~Well
STRT.         2673.0 : Start depth
STOP.         2913.6 : Stop depth
STEP.              1 : Step
NULL.        -999.25 : No-value
COMP.                : Company
WELL. 6407/7-2       : Well
FLD .                : Field
LOC .                : Location
LATI.                : Latitude
LONG.                : Longitude
GDAT.                : Geodetic datum
CNTY.                : County
STAT.                : State
CTRY.                : Country
SRVC. GeoProvider AS : Service company
DATE.                : Date
API .                : API number
RUN .                : Run number

~Parameters
WellboreName.  : Wellbore name
RigName     .  : Rig name
StartDate   .  : Start date

~Curves
DEPTH.m            .  : null {F}Depth mMD
Hole_ID.-          .  : null {S}Hole ID
GR.API             .  : null {F}Gamma Ray
Lithology1.-       .  : null {S}Lithology 1
Lithology2.-       .  : null {S}Lithology 2
Lithology3.-       .  : null {S}Lithology 3
Lithology1.%       .  : null {F}Lithology 1 percentage
Lithology2.%       .  : null {F}Lithology 2 percentage
Lithology3.%       .  : null {F}Lithology 3 percentage
Grain_size_Top.-   .  : null {S}Grain size at the top 
Grain_size_Base.-  .  : null {S}Grain size at the bottom
Sub_Environment.-  .  : null {S}Sub Environment
Gross_Environment.-.  : null {S}Gross Environment

~Ascii
# ...
2862.0 "6407_7-2"  50.5800 "Sandstone" "Claystone" "Limestone"  80.0000 10.00000 10.00000 "c"            "vf/f"    "Relatively_distal_mouthbar-deposits,_rich_in_sideritic_mud._High_influx_of_freshwater._Fluvial_influence_important." "MAINLY_PROXIMAL_FLUVIAL_DOMINATED_DELTA_FRONT_SEDIMENTS,_SUBJECTED_TO_FREQUENT_SHIFTS_OF_DEPOCENTERS_AND_FLUCTUATING_DISCHARGE._LOW_DEGREE_OF_BASINAL_REWORKING._HIGH_INFLUX_OF_FRESH_WATER._VERTICAL_AGGRADATION_IMPORTANT."
2862.1 "6407_7-2"  50.1700 "Sandstone" "Claystone" "Limestone"  80.0000 10.00000 10.00000 "c"            "vf/f"    "Relatively_distal_mouthbar-deposits,_rich_in_sideritic_mud._High_influx_of_freshwater._Fluvial_influence_important." "MAINLY_PROXIMAL_FLUVIAL_DOMINATED_DELTA_FRONT_SEDIMENTS,_SUBJECTED_TO_FREQUENT_SHIFTS_OF_DEPOCENTERS_AND_FLUCTUATING_DISCHARGE._LOW_DEGREE_OF_BASINAL_REWORKING._HIGH_INFLUX_OF_FRESH_WATER._VERTICAL_AGGRADATION_IMPORTANT."
2862.2 "6407_7-2"  50.1300 "Sandstone" "Claystone" "Limestone"  80.0000 10.00000 10.00000 "c"            "vf/f"    "Relatively_distal_mouthbar-deposits,_rich_in_sideritic_mud._High_influx_of_freshwater._Fluvial_influence_important." "MAINLY_PROXIMAL_FLUVIAL_DOMINATED_DELTA_FRONT_SEDIMENTS,_SUBJECTED_TO_FREQUENT_SHIFTS_OF_DEPOCENTERS_AND_FLUCTUATING_DISCHARGE._LOW_DEGREE_OF_BASINAL_REWORKING._HIGH_INFLUX_OF_FRESH_WATER._VERTICAL_AGGRADATION_IMPORTANT."
2862.3 "6407_7-2"  50.9900 "Sandstone" "Claystone" "Limestone"  80.0000 10.00000 10.00000 "c"            "vf/f"    "Relatively_distal_mouthbar-deposits,_rich_in_sideritic_mud._High_influx_of_freshwater._Fluvial_influence_important." "MAINLY_PROXIMAL_FLUVIAL_DOMINATED_DELTA_FRONT_SEDIMENTS,_SUBJECTED_TO_FREQUENT_SHIFTS_OF_DEPOCENTERS_AND_FLUCTUATING_DISCHARGE._LOW_DEGREE_OF_BASINAL_REWORKING._HIGH_INFLUX_OF_FRESH_WATER._VERTICAL_AGGRADATION_IMPORTANT."
2862.4 "6407_7-2"  53.0200 "Sandstone" "Claystone" "Limestone"  80.0000 10.00000 10.00000 "c"            "vf/f"    "Relatively_distal_mouthbar-deposits,_rich_in_sideritic_mud._High_influx_of_freshwater._Fluvial_influence_important." "MAINLY_PROXIMAL_FLUVIAL_DOMINATED_DELTA_FRONT_SEDIMENTS,_SUBJECTED_TO_FREQUENT_SHIFTS_OF_DEPOCENTERS_AND_FLUCTUATING_DISCHARGE._LOW_DEGREE_OF_BASINAL_REWORKING._HIGH_INFLUX_OF_FRESH_WATER._VERTICAL_AGGRADATION_IMPORTANT."
2862.5 "6407_7-2"  54.3700 "Sandstone" "Claystone" "Limestone"  80.0000 10.00000 10.00000 "c"            "vf/f"    "Relatively_distal_mouthbar-deposits,_rich_in_sideritic_mud._High_influx_of_freshwater._Fluvial_influence_important." "MAINLY_PROXIMAL_FLUVIAL_DOMINATED_DELTA_FRONT_SEDIMENTS,_SUBJECTED_TO_FREQUENT_SHIFTS_OF_DEPOCENTERS_AND_FLUCTUATING_DISCHARGE._LOW_DEGREE_OF_BASINAL_REWORKING._HIGH_INFLUX_OF_FRESH_WATER._VERTICAL_AGGRADATION_IMPORTANT."
2862.6 "6407_7-2"  54.4400 "Sandstone" "Claystone" "Limestone"  80.0000 10.00000 10.00000 "c"            "vf/f"    "Relatively_distal_mouthbar-deposits,_rich_in_sideritic_mud._High_influx_of_freshwater._Fluvial_influence_important." "MAINLY_PROXIMAL_FLUVIAL_DOMINATED_DELTA_FRONT_SEDIMENTS,_SUBJECTED_TO_FREQUENT_SHIFTS_OF_DEPOCENTERS_AND_FLUCTUATING_DISCHARGE._LOW_DEGREE_OF_BASINAL_REWORKING._HIGH_INFLUX_OF_FRESH_WATER._VERTICAL_AGGRADATION_IMPORTANT."
2862.7 "6407_7-2"  54.9300 "Sandstone" "Claystone" "Limestone"  80.0000 10.00000 10.00000 "c"            "vf/f"    "Relatively_distal_mouthbar-deposits,_rich_in_sideritic_mud._High_influx_of_freshwater._Fluvial_influence_important." "MAINLY_PROXIMAL_FLUVIAL_DOMINATED_DELTA_FRONT_SEDIMENTS,_SUBJECTED_TO_FREQUENT_SHIFTS_OF_DEPOCENTERS_AND_FLUCTUATING_DISCHARGE._LOW_DEGREE_OF_BASINAL_REWORKING._HIGH_INFLUX_OF_FRESH_WATER._VERTICAL_AGGRADATION_IMPORTANT."
2862.8 "6407_7-2"  54.1900 "Sandstone" "Claystone" "Limestone"  80.0000 10.00000 10.00000 "c"            "vf/f"    "Relatively_distal_mouthbar-deposits,_rich_in_sideritic_mud._High_influx_of_freshwater._Fluvial_influence_important." "MAINLY_PROXIMAL_FLUVIAL_DOMINATED_DELTA_FRONT_SEDIMENTS,_SUBJECTED_TO_FREQUENT_SHIFTS_OF_DEPOCENTERS_AND_FLUCTUATING_DISCHARGE._LOW_DEGREE_OF_BASINAL_REWORKING._HIGH_INFLUX_OF_FRESH_WATER._VERTICAL_AGGRADATION_IMPORTANT."
2862.9 "6407_7-2"  52.5400 "Sandstone" "Claystone" "Limestone"  80.0000 10.00000 10.00000 "c"            "vf/f"    "Relatively_distal_mouthbar-deposits,_rich_in_sideritic_mud._High_influx_of_freshwater._Fluvial_influence_important." "MAINLY_PROXIMAL_FLUVIAL_DOMINATED_DELTA_FRONT_SEDIMENTS,_SUBJECTED_TO_FREQUENT_SHIFTS_OF_DEPOCENTERS_AND_FLUCTUATING_DISCHARGE._LOW_DEGREE_OF_BASINAL_REWORKING._HIGH_INFLUX_OF_FRESH_WATER._VERTICAL_AGGRADATION_IMPORTANT."
2863.0 "6407_7-2"  51.0000 "Sandstone" "Claystone" "Limestone"  80.0000 10.00000 10.00000 "c"            "vf/f"    "Relatively_distal_mouthbar-deposits,_rich_in_sideritic_mud._High_influx_of_freshwater._Fluvial_influence_important." "MAINLY_PROXIMAL_FLUVIAL_DOMINATED_DELTA_FRONT_SEDIMENTS,_SUBJECTED_TO_FREQUENT_SHIFTS_OF_DEPOCENTERS_AND_FLUCTUATING_DISCHARGE._LOW_DEGREE_OF_BASINAL_REWORKING._HIGH_INFLUX_OF_FRESH_WATER._VERTICAL_AGGRADATION_IMPORTANT."
2863.1 "6407_7-2"  49.7500 "Sandstone" "Claystone" "Limestone"  80.0000 10.00000 10.00000 "c"            "vf/f"    "Relatively_distal_mouthbar-deposits,_rich_in_sideritic_mud._High_influx_of_freshwater._Fluvial_influence_important." "MAINLY_PROXIMAL_FLUVIAL_DOMINATED_DELTA_FRONT_SEDIMENTS,_SUBJECTED_TO_FREQUENT_SHIFTS_OF_DEPOCENTERS_AND_FLUCTUATING_DISCHARGE._LOW_DEGREE_OF_BASINAL_REWORKING._HIGH_INFLUX_OF_FRESH_WATER._VERTICAL_AGGRADATION_IMPORTANT."
2863.2 "6407_7-2"  48.5000 "Sandstone" "Claystone" "Limestone"  80.0000 10.00000 10.00000 "c"            "vf/f"    "Relatively_distal_mouthbar-deposits,_rich_in_sideritic_mud._High_influx_of_freshwater._Fluvial_influence_important." "MAINLY_PROXIMAL_FLUVIAL_DOMINATED_DELTA_FRONT_SEDIMENTS,_SUBJECTED_TO_FREQUENT_SHIFTS_OF_DEPOCENTERS_AND_FLUCTUATING_DISCHARGE._LOW_DEGREE_OF_BASINAL_REWORKING._HIGH_INFLUX_OF_FRESH_WATER._VERTICAL_AGGRADATION_IMPORTANT."
2863.3 "6407_7-2"  49.0300 "Sandstone" "Claystone" "Limestone"  80.0000 10.00000 10.00000 "c"            "vf/f"    "Relatively_distal_mouthbar-deposits,_rich_in_sideritic_mud._High_influx_of_freshwater._Fluvial_influence_important." "MAINLY_PROXIMAL_FLUVIAL_DOMINATED_DELTA_FRONT_SEDIMENTS,_SUBJECTED_TO_FREQUENT_SHIFTS_OF_DEPOCENTERS_AND_FLUCTUATING_DISCHARGE._LOW_DEGREE_OF_BASINAL_REWORKING._HIGH_INFLUX_OF_FRESH_WATER._VERTICAL_AGGRADATION_IMPORTANT."
2863.4 "6407_7-2"  52.0400 "Sandstone" "Claystone" "Limestone"  80.0000 10.00000 10.00000 "c"            "vf/f"    "Relatively_distal_mouthbar-deposits,_rich_in_sideritic_mud._High_influx_of_freshwater._Fluvial_influence_important." "MAINLY_PROXIMAL_FLUVIAL_DOMINATED_DELTA_FRONT_SEDIMENTS,_SUBJECTED_TO_FREQUENT_SHIFTS_OF_DEPOCENTERS_AND_FLUCTUATING_DISCHARGE._LOW_DEGREE_OF_BASINAL_REWORKING._HIGH_INFLUX_OF_FRESH_WATER._VERTICAL_AGGRADATION_IMPORTANT."
2863.5 "6407_7-2"  52.8600 "Sandstone" "Claystone" "Limestone"  80.0000 10.00000 10.00000 "c"            "vf/f"    "Relatively_distal_mouthbar-deposits,_rich_in_sideritic_mud._High_influx_of_freshwater._Fluvial_influence_important." "MAINLY_PROXIMAL_FLUVIAL_DOMINATED_DELTA_FRONT_SEDIMENTS,_SUBJECTED_TO_FREQUENT_SHIFTS_OF_DEPOCENTERS_AND_FLUCTUATING_DISCHARGE._LOW_DEGREE_OF_BASINAL_REWORKING._HIGH_INFLUX_OF_FRESH_WATER._VERTICAL_AGGRADATION_IMPORTANT."
2863.6 "6407_7-2"  52.7200 "Sandstone" "Claystone" "Limestone"  80.0000 10.00000 10.00000 "c"            "vf/f"    "Relatively_distal_mouthbar-deposits,_rich_in_sideritic_mud._High_influx_of_freshwater._Fluvial_influence_important." "MAINLY_PROXIMAL_FLUVIAL_DOMINATED_DELTA_FRONT_SEDIMENTS,_SUBJECTED_TO_FREQUENT_SHIFTS_OF_DEPOCENTERS_AND_FLUCTUATING_DISCHARGE._LOW_DEGREE_OF_BASINAL_REWORKING._HIGH_INFLUX_OF_FRESH_WATER._VERTICAL_AGGRADATION_IMPORTANT."
2863.7 "6407_7-2"  52.1800 "Sandstone" "Claystone" "Limestone"  80.0000 10.00000 10.00000 "c"            "vf/f"    "Relatively_distal_mouthbar-deposits,_rich_in_sideritic_mud._High_influx_of_freshwater._Fluvial_influence_important." "MAINLY_PROXIMAL_FLUVIAL_DOMINATED_DELTA_FRONT_SEDIMENTS,_SUBJECTED_TO_FREQUENT_SHIFTS_OF_DEPOCENTERS_AND_FLUCTUATING_DISCHARGE._LOW_DEGREE_OF_BASINAL_REWORKING._HIGH_INFLUX_OF_FRESH_WATER._VERTICAL_AGGRADATION_IMPORTANT."
