~Version
VERS  .                                 3.0 : CWLS LAS ASCII Standard - Version 3.0
WRAP  . NO                                  : One line per depth step
DLM   . SPACE                               : Column data section delimiter
SOURCE. Converted to LAS by Log Studio 4.76 : GeoProvider

~Well
STRT.         2673.0 : Start depth
STOP.         2913.6 : Stop depth
STEP.              1 : Step
NULL.        -999.25 : No-value
COMP.                : Company
WELL. 6407/7-2       : Well
FLD .                : Field
LOC .                : Location
LATI.                : Latitude
LONG.                : Longitude
GDAT.                : Geodetic datum
CNTY.                : County
STAT.                : State
CTRY.                : Country
SRVC. GeoProvider AS : Service company
DATE.                : Date
API .                : API number
RUN .                : Run number

~Parameters
WellboreName.  : Wellbore name
RigName     .  : Rig name
StartDate   .  : Start date

~Curves
DEPTH.m            .  : null {F}Depth mMD
Hole_ID.-          .  : null {S}Hole ID
GR.API             .  : null {F}Gamma Ray
Lithology1.-       .  : null {S}Lithology 1
Lithology2.-       .  : null {S}Lithology 2
Lithology3.-       .  : null {S}Lithology 3
Lithology1.%       .  : null {F}Lithology 1 percentage
Lithology2.%       .  : null {F}Lithology 2 percentage
Lithology3.%       .  : null {F}Lithology 3 percentage
Grain_size_Top.-   .  : null {S}Grain size at the top 
Grain_size_Base.-  .  : null {S}Grain size at the bottom
Sub_Environment.-  .  : null {S}Sub Environment
Gross_Environment.-.  : null {S}Gross Environment

~Ascii
# ...
2784.6 "6407_7-2"  49.7500 "Sandstone" "Claystone" -999.25    70.0000 30.00000      0.0 "silt/vf"      "vf/f"    "Proximal_mouthbar"                                                                                                 "MAINLY_PROXIMAL_FLUVIAL_DOMINATED_DELTA_FRONT_SEDIMENTS,_SUBJECTED_TO_FREQUENT_SHIFTS_OF_DEPOCENTERS_AND_FLUCTUATING_DISCHARGE._LOW_DEGREE_OF_BASINAL_REWORKING._HIGH_INFLUX_OF_FRESH_WATER._VERTICAL_AGGRADATION_IMPORTANT."
2784.7 "6407_7-2"  57.1400 "Sandstone" "Claystone" -999.25    70.0000 30.00000      0.0 "silt/vf"      "vf/f"    "Proximal_mouthbar"                                                                                                 "MAINLY_PROXIMAL_FLUVIAL_DOMINATED_DELTA_FRONT_SEDIMENTS,_SUBJECTED_TO_FREQUENT_SHIFTS_OF_DEPOCENTERS_AND_FLUCTUATING_DISCHARGE._LOW_DEGREE_OF_BASINAL_REWORKING._HIGH_INFLUX_OF_FRESH_WATER._VERTICAL_AGGRADATION_IMPORTANT."
2784.8 "6407_7-2"  62.3300 "Sandstone" "Claystone" -999.25    70.0000 30.00000      0.0 "silt/vf"      "vf/f"    "Proximal_mouthbar"                                                                                                 "MAINLY_PROXIMAL_FLUVIAL_DOMINATED_DELTA_FRONT_SEDIMENTS,_SUBJECTED_TO_FREQUENT_SHIFTS_OF_DEPOCENTERS_AND_FLUCTUATING_DISCHARGE._LOW_DEGREE_OF_BASINAL_REWORKING._HIGH_INFLUX_OF_FRESH_WATER._VERTICAL_AGGRADATION_IMPORTANT."
2784.9 "6407_7-2"  67.5400 "Sandstone" "Claystone" -999.25    70.0000 30.00000      0.0 "silt/vf"      "vf/f"    "Proximal_mouthbar"                                                                                                 "MAINLY_PROXIMAL_FLUVIAL_DOMINATED_DELTA_FRONT_SEDIMENTS,_SUBJECTED_TO_FREQUENT_SHIFTS_OF_DEPOCENTERS_AND_FLUCTUATING_DISCHARGE._LOW_DEGREE_OF_BASINAL_REWORKING._HIGH_INFLUX_OF_FRESH_WATER._VERTICAL_AGGRADATION_IMPORTANT."
2785.0 "6407_7-2"  71.4000 "Sandstone" "Claystone" -999.25    70.0000 30.00000      0.0 "silt/vf"      "vf/f"    "Proximal_mouthbar"                                                                                                 "MAINLY_PROXIMAL_FLUVIAL_DOMINATED_DELTA_FRONT_SEDIMENTS,_SUBJECTED_TO_FREQUENT_SHIFTS_OF_DEPOCENTERS_AND_FLUCTUATING_DISCHARGE._LOW_DEGREE_OF_BASINAL_REWORKING._HIGH_INFLUX_OF_FRESH_WATER._VERTICAL_AGGRADATION_IMPORTANT."
2785.1 "6407_7-2"  74.4800 "Sandstone" "Claystone" -999.25    70.0000 30.00000      0.0 "silt/vf"      "vf/f"    "Proximal_mouthbar"                                                                                                 "MAINLY_PROXIMAL_FLUVIAL_DOMINATED_DELTA_FRONT_SEDIMENTS,_SUBJECTED_TO_FREQUENT_SHIFTS_OF_DEPOCENTERS_AND_FLUCTUATING_DISCHARGE._LOW_DEGREE_OF_BASINAL_REWORKING._HIGH_INFLUX_OF_FRESH_WATER._VERTICAL_AGGRADATION_IMPORTANT."
2785.2 "6407_7-2"  76.5600 "Sandstone" "Claystone" -999.25    70.0000 30.00000      0.0 "silt/vf"      "vf/f"    "Proximal_mouthbar"                                                                                                 "MAINLY_PROXIMAL_FLUVIAL_DOMINATED_DELTA_FRONT_SEDIMENTS,_SUBJECTED_TO_FREQUENT_SHIFTS_OF_DEPOCENTERS_AND_FLUCTUATING_DISCHARGE._LOW_DEGREE_OF_BASINAL_REWORKING._HIGH_INFLUX_OF_FRESH_WATER._VERTICAL_AGGRADATION_IMPORTANT."
2785.3 "6407_7-2"  78.6300 "Sandstone" "Claystone" -999.25    70.0000 30.00000      0.0 "silt/vf"      "vf/f"    "Proximal_mouthbar"                                                                                                 "MAINLY_PROXIMAL_FLUVIAL_DOMINATED_DELTA_FRONT_SEDIMENTS,_SUBJECTED_TO_FREQUENT_SHIFTS_OF_DEPOCENTERS_AND_FLUCTUATING_DISCHARGE._LOW_DEGREE_OF_BASINAL_REWORKING._HIGH_INFLUX_OF_FRESH_WATER._VERTICAL_AGGRADATION_IMPORTANT."
2785.4 "6407_7-2"  79.4400 "Sandstone" "Claystone" -999.25    70.0000 30.00000      0.0 "silt/vf"      "vf/f"    "Proximal_mouthbar"                                                                                                 "MAINLY_PROXIMAL_FLUVIAL_DOMINATED_DELTA_FRONT_SEDIMENTS,_SUBJECTED_TO_FREQUENT_SHIFTS_OF_DEPOCENTERS_AND_FLUCTUATING_DISCHARGE._LOW_DEGREE_OF_BASINAL_REWORKING._HIGH_INFLUX_OF_FRESH_WATER._VERTICAL_AGGRADATION_IMPORTANT."
2785.5 "6407_7-2"  79.1100 "Sandstone" "Claystone" -999.25    70.0000 30.00000      0.0 "silt/vf"      "vf/f"    "Proximal_mouthbar"                                                                                                 "MAINLY_PROXIMAL_FLUVIAL_DOMINATED_DELTA_FRONT_SEDIMENTS,_SUBJECTED_TO_FREQUENT_SHIFTS_OF_DEPOCENTERS_AND_FLUCTUATING_DISCHARGE._LOW_DEGREE_OF_BASINAL_REWORKING._HIGH_INFLUX_OF_FRESH_WATER._VERTICAL_AGGRADATION_IMPORTANT."
2785.6 "6407_7-2"  80.0800 "Sandstone" "Claystone" -999.25    70.0000 30.00000      0.0 "silt/vf"      "vf/f"    "Proximal_mouthbar"                                                                                                 "MAINLY_PROXIMAL_FLUVIAL_DOMINATED_DELTA_FRONT_SEDIMENTS,_SUBJECTED_TO_FREQUENT_SHIFTS_OF_DEPOCENTERS_AND_FLUCTUATING_DISCHARGE._LOW_DEGREE_OF_BASINAL_REWORKING._HIGH_INFLUX_OF_FRESH_WATER._VERTICAL_AGGRADATION_IMPORTANT."
2785.7 "6407_7-2"  81.2200 "Sandstone" "Claystone" -999.25    70.0000 30.00000      0.0 "silt/vf"      "vf/f"    "Proximal_mouthbar"                                                                                                 "MAINLY_PROXIMAL_FLUVIAL_DOMINATED_DELTA_FRONT_SEDIMENTS,_SUBJECTED_TO_FREQUENT_SHIFTS_OF_DEPOCENTERS_AND_FLUCTUATING_DISCHARGE._LOW_DEGREE_OF_BASINAL_REWORKING._HIGH_INFLUX_OF_FRESH_WATER._VERTICAL_AGGRADATION_IMPORTANT."
2785.8 "6407_7-2"  80.9200 "Sandstone" "Claystone" -999.25    70.0000 30.00000      0.0 "silt/vf"      "vf/f"    "Interdistributary_bay_or_delta_front_at_time_when_distributary_channels_stood_elsewhere."                          "MAINLY_PROXIMAL_FLUVIAL_DOMINATED_DELTA_FRONT_SEDIMENTS,_SUBJECTED_TO_FREQUENT_SHIFTS_OF_DEPOCENTERS_AND_FLUCTUATING_DISCHARGE._LOW_DEGREE_OF_BASINAL_REWORKING._HIGH_INFLUX_OF_FRESH_WATER._VERTICAL_AGGRADATION_IMPORTANT."
2785.9 "6407_7-2"  78.0900 "Sandstone" "Claystone" -999.25    70.0000 30.00000      0.0 "silt/vf"      "vf/f"    "Interdistributary_bay_or_delta_front_at_time_when_distributary_channels_stood_elsewhere."                          "MAINLY_PROXIMAL_FLUVIAL_DOMINATED_DELTA_FRONT_SEDIMENTS,_SUBJECTED_TO_FREQUENT_SHIFTS_OF_DEPOCENTERS_AND_FLUCTUATING_DISCHARGE._LOW_DEGREE_OF_BASINAL_REWORKING._HIGH_INFLUX_OF_FRESH_WATER._VERTICAL_AGGRADATION_IMPORTANT."
2786.0 "6407_7-2"  75.4100 "Sandstone" "Claystone" -999.25    70.0000 30.00000      0.0 "silt/vf"      "vf/f"    "Interdistributary_bay_or_delta_front_at_time_when_distributary_channels_stood_elsewhere."                          "MAINLY_PROXIMAL_FLUVIAL_DOMINATED_DELTA_FRONT_SEDIMENTS,_SUBJECTED_TO_FREQUENT_SHIFTS_OF_DEPOCENTERS_AND_FLUCTUATING_DISCHARGE._LOW_DEGREE_OF_BASINAL_REWORKING._HIGH_INFLUX_OF_FRESH_WATER._VERTICAL_AGGRADATION_IMPORTANT."
2786.1 "6407_7-2"  75.5100 "Sandstone" "Claystone" -999.25    70.0000 30.00000      0.0 "silt/vf"      "vf/f"    "Interdistributary_bay_or_delta_front_at_time_when_distributary_channels_stood_elsewhere."                          "MAINLY_PROXIMAL_FLUVIAL_DOMINATED_DELTA_FRONT_SEDIMENTS,_SUBJECTED_TO_FREQUENT_SHIFTS_OF_DEPOCENTERS_AND_FLUCTUATING_DISCHARGE._LOW_DEGREE_OF_BASINAL_REWORKING._HIGH_INFLUX_OF_FRESH_WATER._VERTICAL_AGGRADATION_IMPORTANT."
2786.2 "6407_7-2"  78.5900 "Sandstone" "Claystone" -999.25    70.0000 30.00000      0.0 "silt/vf"      "vf/f"    "Interdistributary_bay_or_delta_front_at_time_when_distributary_channels_stood_elsewhere."                          "MAINLY_PROXIMAL_FLUVIAL_DOMINATED_DELTA_FRONT_SEDIMENTS,_SUBJECTED_TO_FREQUENT_SHIFTS_OF_DEPOCENTERS_AND_FLUCTUATING_DISCHARGE._LOW_DEGREE_OF_BASINAL_REWORKING._HIGH_INFLUX_OF_FRESH_WATER._VERTICAL_AGGRADATION_IMPORTANT."
2786.3 "6407_7-2"  77.9300 "Sandstone" "Claystone" -999.25    70.0000 30.00000      0.0 "silt/vf"      "vf/f"    "Interdistributary_bay_or_delta_front_at_time_when_distributary_channels_stood_elsewhere."                          "MAINLY_PROXIMAL_FLUVIAL_DOMINATED_DELTA_FRONT_SEDIMENTS,_SUBJECTED_TO_FREQUENT_SHIFTS_OF_DEPOCENTERS_AND_FLUCTUATING_DISCHARGE._LOW_DEGREE_OF_BASINAL_REWORKING._HIGH_INFLUX_OF_FRESH_WATER._VERTICAL_AGGRADATION_IMPORTANT."
