~Version
VERS  .                                 3.0 : CWLS LAS ASCII Standard - Version 3.0
WRAP  . NO                                  : One line per depth step
DLM   . SPACE                               : Column data section delimiter
SOURCE. Converted to LAS by Log Studio 4.76 : GeoProvider

~Well
STRT.         2673.0 : Start depth
STOP.         2913.6 : Stop depth
STEP.              1 : Step
NULL.        -999.25 : No-value
COMP.                : Company
WELL. 6407/7-2       : Well
FLD .                : Field
LOC .                : Location
LATI.                : Latitude
LONG.                : Longitude
GDAT.                : Geodetic datum
CNTY.                : County
STAT.                : State
CTRY.                : Country
SRVC. GeoProvider AS : Service company
DATE.                : Date
API .                : API number
RUN .                : Run number

~Parameters
WellboreName.  : Wellbore name
RigName     .  : Rig name
StartDate   .  : Start date

~Curves
DEPTH.m            .  : null {F}Depth mMD
Hole_ID.-          .  : null {S}Hole ID
GR.API             .  : null {F}Gamma Ray
Lithology1.-       .  : null {S}Lithology 1
Lithology2.-       .  : null {S}Lithology 2
Lithology3.-       .  : null {S}Lithology 3
Lithology1.%       .  : null {F}Lithology 1 percentage
Lithology2.%       .  : null {F}Lithology 2 percentage
Lithology3.%       .  : null {F}Lithology 3 percentage
Grain_size_Top.-   .  : null {S}Grain size at the top 
Grain_size_Base.-  .  : null {S}Grain size at the bottom
Sub_Environment.-  .  : null {S}Sub Environment
Gross_Environment.-.  : null {S}Gross Environment

~Ascii
# ...
2912.4 "6407_7-2"  42.8800 "Sandstone" "Claystone" -999.25    90.0000 10.00000      0.0 "granule/pebble" "c/vc"    "Stacked_proximal_channel-deposits,_probably_deposited_by_high-discharge_braided_rivers."                           "Alluvial_plain/upper_delta_plain,_close_to_source_area"                                                                                                                                                                    
2912.5 "6407_7-2"  42.3800 "Sandstone" "Claystone" -999.25    90.0000 10.00000      0.0 "granule/pebble" "c/vc"    "Stacked_proximal_channel-deposits,_probably_deposited_by_high-discharge_braided_rivers."                           "Alluvial_plain/upper_delta_plain,_close_to_source_area"                                                                                                                                                                    
2912.6 "6407_7-2"  42.1400 "Sandstone" "Claystone" -999.25    90.0000 10.00000      0.0 "granule/pebble" "c/vc"    "Stacked_proximal_channel-deposits,_probably_deposited_by_high-discharge_braided_rivers."                           "Alluvial_plain/upper_delta_plain,_close_to_source_area"                                                                                                                                                                    
2912.7 "6407_7-2"  41.9900 "Sandstone" "Claystone" -999.25    90.0000 10.00000      0.0 "granule/pebble" "c/vc"    "Stacked_proximal_channel-deposits,_probably_deposited_by_high-discharge_braided_rivers."                           "Alluvial_plain/upper_delta_plain,_close_to_source_area"                                                                                                                                                                    
2912.8 "6407_7-2"  42.9000 "Sandstone" "Claystone" -999.25    90.0000 10.00000      0.0 "granule/pebble" "c/vc"    "Stacked_proximal_channel-deposits,_probably_deposited_by_high-discharge_braided_rivers."                           "Alluvial_plain/upper_delta_plain,_close_to_source_area"                                                                                                                                                                    
2912.9 "6407_7-2"  43.3500 "Sandstone" "Claystone" -999.25    90.0000 10.00000      0.0 "granule/pebble" "c/vc"    "Stacked_proximal_channel-deposits,_probably_deposited_by_high-discharge_braided_rivers."                           "Alluvial_plain/upper_delta_plain,_close_to_source_area"                                                                                                                                                                    
2913.0 "6407_7-2"  43.6600 "Sandstone" "Claystone" -999.25    90.0000 10.00000      0.0 "granule/pebble" "c/vc"    "Stacked_proximal_channel-deposits,_probably_deposited_by_high-discharge_braided_rivers."                           "Alluvial_plain/upper_delta_plain,_close_to_source_area"                                                                                                                                                                    
2913.1 "6407_7-2"  44.1400 "Sandstone" "Claystone" -999.25    90.0000 10.00000      0.0 "granule/pebble" "c/vc"    "Stacked_proximal_channel-deposits,_probably_deposited_by_high-discharge_braided_rivers."                           "Alluvial_plain/upper_delta_plain,_close_to_source_area"                                                                                                                                                                    
2913.2 "6407_7-2"  45.0100 "Sandstone" "Claystone" -999.25    90.0000 10.00000      0.0 "granule/pebble" "c/vc"    "Stacked_proximal_channel-deposits,_probably_deposited_by_high-discharge_braided_rivers."                           "Alluvial_plain/upper_delta_plain,_close_to_source_area"                                                                                                                                                                    
2913.3 "6407_7-2"  46.9000 "Sandstone" "Claystone" -999.25    90.0000 10.00000      0.0 "granule/pebble" "c/vc"    "Stacked_proximal_channel-deposits,_probably_deposited_by_high-discharge_braided_rivers."                           "Alluvial_plain/upper_delta_plain,_close_to_source_area"                                                                                                                                                                    
2913.4 "6407_7-2"  47.0600 "Sandstone" "Claystone" -999.25    90.0000 10.00000      0.0 "granule/pebble" "c/vc"    "Stacked_proximal_channel-deposits,_probably_deposited_by_high-discharge_braided_rivers."                           "Alluvial_plain/upper_delta_plain,_close_to_source_area"                                                                                                                                                                    
2913.5 "6407_7-2"  48.2300 "Sandstone" "Claystone" -999.25    90.0000 10.00000      0.0 "granule/pebble" "c/vc"    "Stacked_proximal_channel-deposits,_probably_deposited_by_high-discharge_braided_rivers."                           "Alluvial_plain/upper_delta_plain,_close_to_source_area"                                                                                                                                                                    
2913.6 "6407_7-2"  48.2300 "Sandstone" "Claystone" -999.25    90.0000 10.00000      0.0 "granule/pebble" "c/vc"    "Stacked_proximal_channel-deposits,_probably_deposited_by_high-discharge_braided_rivers."                           "Alluvial_plain/upper_delta_plain,_close_to_source_area"                                                                                                                                                                    
