~Version
VERS  .                                 3.0 : CWLS LAS ASCII Standard - Version 3.0
WRAP  . NO                                  : One line per depth step
DLM   . SPACE                               : Column data section delimiter
SOURCE. Converted to LAS by Log Studio 4.76 : GeoProvider

~Well
STRT.         2673.0 : Start depth
STOP.         2913.6 : Stop depth
STEP.              1 : Step
NULL.        -999.25 : No-value
COMP.                : Company
WELL. 6407/7-2       : Well
FLD .                : Field
LOC .                : Location
LATI.                : Latitude
LONG.                : Longitude
GDAT.                : Geodetic datum
CNTY.                : County
STAT.                : State
CTRY.                : Country
SRVC. GeoProvider AS : Service company
DATE.                : Date
API .                : API number
RUN .                : Run number

~Parameters
WellboreName.  : Wellbore name
RigName     .  : Rig name
StartDate   .  : Start date

~Curves
DEPTH.m            .  : null {F}Depth mMD
Hole_ID.-          .  : null {S}Hole ID
GR.API             .  : null {F}Gamma Ray
Lithology1.-       .  : null {S}Lithology 1
Lithology2.-       .  : null {S}Lithology 2
Lithology3.-       .  : null {S}Lithology 3
Lithology1.%       .  : null {F}Lithology 1 percentage
Lithology2.%       .  : null {F}Lithology 2 percentage
Lithology3.%       .  : null {F}Lithology 3 percentage
Grain_size_Top.-   .  : null {S}Grain size at the top 
Grain_size_Base.-  .  : null {S}Grain size at the bottom
Sub_Environment.-  .  : null {S}Sub Environment
Gross_Environment.-.  : null {S}Gross Environment

~Ascii
# ...
2800.8 "6407_7-2"  62.6200 "Sandstone" "Claystone" -999.25    60.0000 40.00000      0.0 "m/c"          "vf"      "Interdistributary_bay_or_delta_front_at_time_when_distributary_channels_stood_elsewhere."                          "MAINLY_PROXIMAL_FLUVIAL_DOMINATED_DELTA_FRONT_SEDIMENTS,_SUBJECTED_TO_FREQUENT_SHIFTS_OF_DEPOCENTERS_AND_FLUCTUATING_DISCHARGE._LOW_DEGREE_OF_BASINAL_REWORKING._HIGH_INFLUX_OF_FRESH_WATER._VERTICAL_AGGRADATION_IMPORTANT."
2800.9 "6407_7-2"  65.5700 "Sandstone" "Claystone" -999.25    60.0000 40.00000      0.0 "m/c"          "vf"      "Interdistributary_bay_or_delta_front_at_time_when_distributary_channels_stood_elsewhere."                          "MAINLY_PROXIMAL_FLUVIAL_DOMINATED_DELTA_FRONT_SEDIMENTS,_SUBJECTED_TO_FREQUENT_SHIFTS_OF_DEPOCENTERS_AND_FLUCTUATING_DISCHARGE._LOW_DEGREE_OF_BASINAL_REWORKING._HIGH_INFLUX_OF_FRESH_WATER._VERTICAL_AGGRADATION_IMPORTANT."
2801.0 "6407_7-2"  68.6700 "Sandstone" "Claystone" -999.25    60.0000 40.00000      0.0 "m/c"          "vf"      "Interdistributary_bay_or_delta_front_at_time_when_distributary_channels_stood_elsewhere."                          "MAINLY_PROXIMAL_FLUVIAL_DOMINATED_DELTA_FRONT_SEDIMENTS,_SUBJECTED_TO_FREQUENT_SHIFTS_OF_DEPOCENTERS_AND_FLUCTUATING_DISCHARGE._LOW_DEGREE_OF_BASINAL_REWORKING._HIGH_INFLUX_OF_FRESH_WATER._VERTICAL_AGGRADATION_IMPORTANT."
2801.1 "6407_7-2"  70.0800 "Sandstone" "Claystone" -999.25    60.0000 40.00000      0.0 "m/c"          "vf"      "Interdistributary_bay_or_delta_front_at_time_when_distributary_channels_stood_elsewhere."                          "MAINLY_PROXIMAL_FLUVIAL_DOMINATED_DELTA_FRONT_SEDIMENTS,_SUBJECTED_TO_FREQUENT_SHIFTS_OF_DEPOCENTERS_AND_FLUCTUATING_DISCHARGE._LOW_DEGREE_OF_BASINAL_REWORKING._HIGH_INFLUX_OF_FRESH_WATER._VERTICAL_AGGRADATION_IMPORTANT."
2801.2 "6407_7-2"  69.2400 "Sandstone" "Claystone" -999.25    60.0000 40.00000      0.0 "m/c"          "vf"      "Proximal_mouthbar,_influenced_by_fluctuating_fluvial_discharge_and_some_wave_reworking."                           "MAINLY_PROXIMAL_FLUVIAL_DOMINATED_DELTA_FRONT_SEDIMENTS,_SUBJECTED_TO_FREQUENT_SHIFTS_OF_DEPOCENTERS_AND_FLUCTUATING_DISCHARGE._LOW_DEGREE_OF_BASINAL_REWORKING._HIGH_INFLUX_OF_FRESH_WATER._VERTICAL_AGGRADATION_IMPORTANT."
2801.3 "6407_7-2"  68.7300 "Sandstone" "Claystone" -999.25    60.0000 40.00000      0.0 "m/c"          "vf"      "Proximal_mouthbar,_influenced_by_fluctuating_fluvial_discharge_and_some_wave_reworking."                           "MAINLY_PROXIMAL_FLUVIAL_DOMINATED_DELTA_FRONT_SEDIMENTS,_SUBJECTED_TO_FREQUENT_SHIFTS_OF_DEPOCENTERS_AND_FLUCTUATING_DISCHARGE._LOW_DEGREE_OF_BASINAL_REWORKING._HIGH_INFLUX_OF_FRESH_WATER._VERTICAL_AGGRADATION_IMPORTANT."
2801.4 "6407_7-2"  68.5200 "Sandstone" "Claystone" -999.25    60.0000 40.00000      0.0 "m/c"          "vf"      "Proximal_mouthbar,_influenced_by_fluctuating_fluvial_discharge_and_some_wave_reworking."                           "MAINLY_PROXIMAL_FLUVIAL_DOMINATED_DELTA_FRONT_SEDIMENTS,_SUBJECTED_TO_FREQUENT_SHIFTS_OF_DEPOCENTERS_AND_FLUCTUATING_DISCHARGE._LOW_DEGREE_OF_BASINAL_REWORKING._HIGH_INFLUX_OF_FRESH_WATER._VERTICAL_AGGRADATION_IMPORTANT."
2801.5 "6407_7-2"  68.4000 "Sandstone" "Claystone" -999.25    60.0000 40.00000      0.0 "m/c"          "vf"      "Proximal_mouthbar,_influenced_by_fluctuating_fluvial_discharge_and_some_wave_reworking."                           "MAINLY_PROXIMAL_FLUVIAL_DOMINATED_DELTA_FRONT_SEDIMENTS,_SUBJECTED_TO_FREQUENT_SHIFTS_OF_DEPOCENTERS_AND_FLUCTUATING_DISCHARGE._LOW_DEGREE_OF_BASINAL_REWORKING._HIGH_INFLUX_OF_FRESH_WATER._VERTICAL_AGGRADATION_IMPORTANT."
2801.6 "6407_7-2"  67.5200 "Sandstone" "Claystone" -999.25    60.0000 40.00000      0.0 "m/c"          "vf"      "Proximal_mouthbar,_influenced_by_fluctuating_fluvial_discharge_and_some_wave_reworking."                           "MAINLY_PROXIMAL_FLUVIAL_DOMINATED_DELTA_FRONT_SEDIMENTS,_SUBJECTED_TO_FREQUENT_SHIFTS_OF_DEPOCENTERS_AND_FLUCTUATING_DISCHARGE._LOW_DEGREE_OF_BASINAL_REWORKING._HIGH_INFLUX_OF_FRESH_WATER._VERTICAL_AGGRADATION_IMPORTANT."
2801.7 "6407_7-2"  65.5200 "Sandstone" "Claystone" -999.25    60.0000 40.00000      0.0 "m/c"          "vf"      "Proximal_mouthbar,_influenced_by_fluctuating_fluvial_discharge_and_some_wave_reworking."                           "MAINLY_PROXIMAL_FLUVIAL_DOMINATED_DELTA_FRONT_SEDIMENTS,_SUBJECTED_TO_FREQUENT_SHIFTS_OF_DEPOCENTERS_AND_FLUCTUATING_DISCHARGE._LOW_DEGREE_OF_BASINAL_REWORKING._HIGH_INFLUX_OF_FRESH_WATER._VERTICAL_AGGRADATION_IMPORTANT."
2801.8 "6407_7-2"  63.7200 "Sandstone" "Claystone" -999.25    60.0000 40.00000      0.0 "m/c"          "vf"      "Proximal_mouthbar,_influenced_by_fluctuating_fluvial_discharge_and_some_wave_reworking."                           "MAINLY_PROXIMAL_FLUVIAL_DOMINATED_DELTA_FRONT_SEDIMENTS,_SUBJECTED_TO_FREQUENT_SHIFTS_OF_DEPOCENTERS_AND_FLUCTUATING_DISCHARGE._LOW_DEGREE_OF_BASINAL_REWORKING._HIGH_INFLUX_OF_FRESH_WATER._VERTICAL_AGGRADATION_IMPORTANT."
2801.9 "6407_7-2"  62.6600 "Sandstone" "Claystone" -999.25    60.0000 40.00000      0.0 "m/c"          "vf"      "Proximal_mouthbar,_influenced_by_fluctuating_fluvial_discharge_and_some_wave_reworking."                           "MAINLY_PROXIMAL_FLUVIAL_DOMINATED_DELTA_FRONT_SEDIMENTS,_SUBJECTED_TO_FREQUENT_SHIFTS_OF_DEPOCENTERS_AND_FLUCTUATING_DISCHARGE._LOW_DEGREE_OF_BASINAL_REWORKING._HIGH_INFLUX_OF_FRESH_WATER._VERTICAL_AGGRADATION_IMPORTANT."
2802.0 "6407_7-2"  62.6000 "Sandstone" "Claystone" -999.25    60.0000 40.00000      0.0 "m/c"          "vf"      "Proximal_mouthbar,_influenced_by_fluctuating_fluvial_discharge_and_some_wave_reworking."                           "MAINLY_PROXIMAL_FLUVIAL_DOMINATED_DELTA_FRONT_SEDIMENTS,_SUBJECTED_TO_FREQUENT_SHIFTS_OF_DEPOCENTERS_AND_FLUCTUATING_DISCHARGE._LOW_DEGREE_OF_BASINAL_REWORKING._HIGH_INFLUX_OF_FRESH_WATER._VERTICAL_AGGRADATION_IMPORTANT."
2802.1 "6407_7-2"  62.5900 "Sandstone" "Claystone" -999.25    60.0000 40.00000      0.0 "m/c"          "vf"      "Proximal_mouthbar,_influenced_by_fluctuating_fluvial_discharge_and_some_wave_reworking."                           "MAINLY_PROXIMAL_FLUVIAL_DOMINATED_DELTA_FRONT_SEDIMENTS,_SUBJECTED_TO_FREQUENT_SHIFTS_OF_DEPOCENTERS_AND_FLUCTUATING_DISCHARGE._LOW_DEGREE_OF_BASINAL_REWORKING._HIGH_INFLUX_OF_FRESH_WATER._VERTICAL_AGGRADATION_IMPORTANT."
2802.2 "6407_7-2"  62.3800 "Sandstone" "Claystone" -999.25    60.0000 40.00000      0.0 "m/c"          "vf"      "Proximal_mouthbar,_influenced_by_fluctuating_fluvial_discharge_and_some_wave_reworking."                           "MAINLY_PROXIMAL_FLUVIAL_DOMINATED_DELTA_FRONT_SEDIMENTS,_SUBJECTED_TO_FREQUENT_SHIFTS_OF_DEPOCENTERS_AND_FLUCTUATING_DISCHARGE._LOW_DEGREE_OF_BASINAL_REWORKING._HIGH_INFLUX_OF_FRESH_WATER._VERTICAL_AGGRADATION_IMPORTANT."
2802.3 "6407_7-2"  61.4700 "Sandstone" "Claystone" -999.25    60.0000 40.00000      0.0 "m/c"          "vf"      "Proximal_mouthbar,_influenced_by_fluctuating_fluvial_discharge_and_some_wave_reworking."                           "MAINLY_PROXIMAL_FLUVIAL_DOMINATED_DELTA_FRONT_SEDIMENTS,_SUBJECTED_TO_FREQUENT_SHIFTS_OF_DEPOCENTERS_AND_FLUCTUATING_DISCHARGE._LOW_DEGREE_OF_BASINAL_REWORKING._HIGH_INFLUX_OF_FRESH_WATER._VERTICAL_AGGRADATION_IMPORTANT."
2802.4 "6407_7-2"  61.3600 "Sandstone" "Claystone" -999.25    60.0000 40.00000      0.0 "m/c"          "vf"      "Proximal_mouthbar,_influenced_by_fluctuating_fluvial_discharge_and_some_wave_reworking."                           "MAINLY_PROXIMAL_FLUVIAL_DOMINATED_DELTA_FRONT_SEDIMENTS,_SUBJECTED_TO_FREQUENT_SHIFTS_OF_DEPOCENTERS_AND_FLUCTUATING_DISCHARGE._LOW_DEGREE_OF_BASINAL_REWORKING._HIGH_INFLUX_OF_FRESH_WATER._VERTICAL_AGGRADATION_IMPORTANT."
2802.5 "6407_7-2"  61.2600 "Sandstone" "Claystone" -999.25    60.0000 40.00000      0.0 "m/c"          "vf"      "Proximal_mouthbar,_influenced_by_fluctuating_fluvial_discharge_and_some_wave_reworking."                           "MAINLY_PROXIMAL_FLUVIAL_DOMINATED_DELTA_FRONT_SEDIMENTS,_SUBJECTED_TO_FREQUENT_SHIFTS_OF_DEPOCENTERS_AND_FLUCTUATING_DISCHARGE._LOW_DEGREE_OF_BASINAL_REWORKING._HIGH_INFLUX_OF_FRESH_WATER._VERTICAL_AGGRADATION_IMPORTANT."
