~Version
VERS  .                                 3.0 : CWLS LAS ASCII Standard - Version 3.0
WRAP  . NO                                  : One line per depth step
DLM   . SPACE                               : Column data section delimiter
SOURCE. Converted to LAS by Log Studio 4.76 : GeoProvider

~Well
STRT.         2673.0 : Start depth
STOP.         2913.6 : Stop depth
STEP.              1 : Step
NULL.        -999.25 : No-value
COMP.                : Company
WELL. 6407/7-2       : Well
FLD .                : Field
LOC .                : Location
LATI.                : Latitude
LONG.                : Longitude
GDAT.                : Geodetic datum
CNTY.                : County
STAT.                : State
CTRY.                : Country
SRVC. GeoProvider AS : Service company
DATE.                : Date
API .                : API number
RUN .                : Run number

~Parameters
WellboreName.  : Wellbore name
RigName     .  : Rig name
StartDate   .  : Start date

~Curves
DEPTH.m            .  : null {F}Depth mMD
Hole_ID.-          .  : null {S}Hole ID
GR.API             .  : null {F}Gamma Ray
Lithology1.-       .  : null {S}Lithology 1
Lithology2.-       .  : null {S}Lithology 2
Lithology3.-       .  : null {S}Lithology 3
Lithology1.%       .  : null {F}Lithology 1 percentage
Lithology2.%       .  : null {F}Lithology 2 percentage
Lithology3.%       .  : null {F}Lithology 3 percentage
Grain_size_Top.-   .  : null {S}Grain size at the top 
Grain_size_Base.-  .  : null {S}Grain size at the bottom
Sub_Environment.-  .  : null {S}Sub Environment
Gross_Environment.-.  : null {S}Gross Environment

~Ascii
# ...
2813.4 "6407_7-2"  62.1700 "Limestone" -999.25   -999.25   100.0000      0.0      0.0 "vf"           "vf"      "Aband._mouthbar."                                                                                                  "MAINLY_PROXIMAL_FLUVIAL_DOMINATED_DELTA_FRONT_SEDIMENTS,_SUBJECTED_TO_FREQUENT_SHIFTS_OF_DEPOCENTERS_AND_FLUCTUATING_DISCHARGE._LOW_DEGREE_OF_BASINAL_REWORKING._HIGH_INFLUX_OF_FRESH_WATER._VERTICAL_AGGRADATION_IMPORTANT."
2813.5 "6407_7-2"  63.0300 "Limestone" -999.25   -999.25   100.0000      0.0      0.0 "vf"           "vf"      "Aband._mouthbar."                                                                                                  "MAINLY_PROXIMAL_FLUVIAL_DOMINATED_DELTA_FRONT_SEDIMENTS,_SUBJECTED_TO_FREQUENT_SHIFTS_OF_DEPOCENTERS_AND_FLUCTUATING_DISCHARGE._LOW_DEGREE_OF_BASINAL_REWORKING._HIGH_INFLUX_OF_FRESH_WATER._VERTICAL_AGGRADATION_IMPORTANT."
2813.6 "6407_7-2"  58.8500 "Limestone" -999.25   -999.25   100.0000      0.0      0.0 "vf"           "vf"      "Very_proximal_fluvial-dominated_mouthbar-deposits._Pulselike_sedimentation._Low_degree_of_basinal_reworking."      "MAINLY_PROXIMAL_FLUVIAL_DOMINATED_DELTA_FRONT_SEDIMENTS,_SUBJECTED_TO_FREQUENT_SHIFTS_OF_DEPOCENTERS_AND_FLUCTUATING_DISCHARGE._LOW_DEGREE_OF_BASINAL_REWORKING._HIGH_INFLUX_OF_FRESH_WATER._VERTICAL_AGGRADATION_IMPORTANT."
2813.7 "6407_7-2"  56.2400 "Limestone" -999.25   -999.25   100.0000      0.0      0.0 "vf"           "vf"      "Very_proximal_fluvial-dominated_mouthbar-deposits._Pulselike_sedimentation._Low_degree_of_basinal_reworking."      "MAINLY_PROXIMAL_FLUVIAL_DOMINATED_DELTA_FRONT_SEDIMENTS,_SUBJECTED_TO_FREQUENT_SHIFTS_OF_DEPOCENTERS_AND_FLUCTUATING_DISCHARGE._LOW_DEGREE_OF_BASINAL_REWORKING._HIGH_INFLUX_OF_FRESH_WATER._VERTICAL_AGGRADATION_IMPORTANT."
2813.8 "6407_7-2"  55.2800 "Limestone" -999.25   -999.25   100.0000      0.0      0.0 "vf"           "vf"      "Very_proximal_fluvial-dominated_mouthbar-deposits._Pulselike_sedimentation._Low_degree_of_basinal_reworking."      "MAINLY_PROXIMAL_FLUVIAL_DOMINATED_DELTA_FRONT_SEDIMENTS,_SUBJECTED_TO_FREQUENT_SHIFTS_OF_DEPOCENTERS_AND_FLUCTUATING_DISCHARGE._LOW_DEGREE_OF_BASINAL_REWORKING._HIGH_INFLUX_OF_FRESH_WATER._VERTICAL_AGGRADATION_IMPORTANT."
2813.9 "6407_7-2"  58.0400 "Limestone" -999.25   -999.25   100.0000      0.0      0.0 "vf"           "vf"      "Very_proximal_fluvial-dominated_mouthbar-deposits._Pulselike_sedimentation._Low_degree_of_basinal_reworking."      "MAINLY_PROXIMAL_FLUVIAL_DOMINATED_DELTA_FRONT_SEDIMENTS,_SUBJECTED_TO_FREQUENT_SHIFTS_OF_DEPOCENTERS_AND_FLUCTUATING_DISCHARGE._LOW_DEGREE_OF_BASINAL_REWORKING._HIGH_INFLUX_OF_FRESH_WATER._VERTICAL_AGGRADATION_IMPORTANT."
2814.0 "6407_7-2"  60.1000 "Limestone" -999.25   -999.25   100.0000      0.0      0.0 "vf"           "vf"      "Very_proximal_fluvial-dominated_mouthbar-deposits._Pulselike_sedimentation._Low_degree_of_basinal_reworking."      "MAINLY_PROXIMAL_FLUVIAL_DOMINATED_DELTA_FRONT_SEDIMENTS,_SUBJECTED_TO_FREQUENT_SHIFTS_OF_DEPOCENTERS_AND_FLUCTUATING_DISCHARGE._LOW_DEGREE_OF_BASINAL_REWORKING._HIGH_INFLUX_OF_FRESH_WATER._VERTICAL_AGGRADATION_IMPORTANT."
2814.1 "6407_7-2"  58.4600 "Limestone" -999.25   -999.25   100.0000      0.0      0.0 "vf"           "vf"      "Very_proximal_fluvial-dominated_mouthbar-deposits._Pulselike_sedimentation._Low_degree_of_basinal_reworking."      "MAINLY_PROXIMAL_FLUVIAL_DOMINATED_DELTA_FRONT_SEDIMENTS,_SUBJECTED_TO_FREQUENT_SHIFTS_OF_DEPOCENTERS_AND_FLUCTUATING_DISCHARGE._LOW_DEGREE_OF_BASINAL_REWORKING._HIGH_INFLUX_OF_FRESH_WATER._VERTICAL_AGGRADATION_IMPORTANT."
2814.2 "6407_7-2"  57.5200 "Limestone" -999.25   -999.25   100.0000      0.0      0.0 "vf"           "vf"      "Very_proximal_fluvial-dominated_mouthbar-deposits._Pulselike_sedimentation._Low_degree_of_basinal_reworking."      "MAINLY_PROXIMAL_FLUVIAL_DOMINATED_DELTA_FRONT_SEDIMENTS,_SUBJECTED_TO_FREQUENT_SHIFTS_OF_DEPOCENTERS_AND_FLUCTUATING_DISCHARGE._LOW_DEGREE_OF_BASINAL_REWORKING._HIGH_INFLUX_OF_FRESH_WATER._VERTICAL_AGGRADATION_IMPORTANT."
2814.3 "6407_7-2"  58.9200 "Sandstone" "Claystone" -999.25    65.0000 35.00000      0.0 "m"            "vf"      "Very_proximal_fluvial-dominated_mouthbar-deposits._Pulselike_sedimentation._Low_degree_of_basinal_reworking."      "MAINLY_PROXIMAL_FLUVIAL_DOMINATED_DELTA_FRONT_SEDIMENTS,_SUBJECTED_TO_FREQUENT_SHIFTS_OF_DEPOCENTERS_AND_FLUCTUATING_DISCHARGE._LOW_DEGREE_OF_BASINAL_REWORKING._HIGH_INFLUX_OF_FRESH_WATER._VERTICAL_AGGRADATION_IMPORTANT."
2814.4 "6407_7-2"  60.4800 "Sandstone" "Claystone" -999.25    65.0000 35.00000      0.0 "m"            "vf"      "Very_proximal_fluvial-dominated_mouthbar-deposits._Pulselike_sedimentation._Low_degree_of_basinal_reworking."      "MAINLY_PROXIMAL_FLUVIAL_DOMINATED_DELTA_FRONT_SEDIMENTS,_SUBJECTED_TO_FREQUENT_SHIFTS_OF_DEPOCENTERS_AND_FLUCTUATING_DISCHARGE._LOW_DEGREE_OF_BASINAL_REWORKING._HIGH_INFLUX_OF_FRESH_WATER._VERTICAL_AGGRADATION_IMPORTANT."
2814.5 "6407_7-2"  61.9000 "Sandstone" "Claystone" -999.25    65.0000 35.00000      0.0 "m"            "vf"      "Very_proximal_fluvial-dominated_mouthbar-deposits._Pulselike_sedimentation._Low_degree_of_basinal_reworking."      "MAINLY_PROXIMAL_FLUVIAL_DOMINATED_DELTA_FRONT_SEDIMENTS,_SUBJECTED_TO_FREQUENT_SHIFTS_OF_DEPOCENTERS_AND_FLUCTUATING_DISCHARGE._LOW_DEGREE_OF_BASINAL_REWORKING._HIGH_INFLUX_OF_FRESH_WATER._VERTICAL_AGGRADATION_IMPORTANT."
2814.6 "6407_7-2"  63.0900 "Sandstone" "Claystone" -999.25    65.0000 35.00000      0.0 "m"            "vf"      "Very_proximal_fluvial-dominated_mouthbar-deposits._Pulselike_sedimentation._Low_degree_of_basinal_reworking."      "MAINLY_PROXIMAL_FLUVIAL_DOMINATED_DELTA_FRONT_SEDIMENTS,_SUBJECTED_TO_FREQUENT_SHIFTS_OF_DEPOCENTERS_AND_FLUCTUATING_DISCHARGE._LOW_DEGREE_OF_BASINAL_REWORKING._HIGH_INFLUX_OF_FRESH_WATER._VERTICAL_AGGRADATION_IMPORTANT."
2814.7 "6407_7-2"  64.2800 "Sandstone" "Claystone" -999.25    65.0000 35.00000      0.0 "m"            "vf"      "Very_proximal_fluvial-dominated_mouthbar-deposits._Pulselike_sedimentation._Low_degree_of_basinal_reworking."      "MAINLY_PROXIMAL_FLUVIAL_DOMINATED_DELTA_FRONT_SEDIMENTS,_SUBJECTED_TO_FREQUENT_SHIFTS_OF_DEPOCENTERS_AND_FLUCTUATING_DISCHARGE._LOW_DEGREE_OF_BASINAL_REWORKING._HIGH_INFLUX_OF_FRESH_WATER._VERTICAL_AGGRADATION_IMPORTANT."
2814.8 "6407_7-2"  61.3000 "Sandstone" "Claystone" -999.25    65.0000 35.00000      0.0 "m"            "vf"      "Very_proximal_fluvial-dominated_mouthbar-deposits._Pulselike_sedimentation._Low_degree_of_basinal_reworking."      "MAINLY_PROXIMAL_FLUVIAL_DOMINATED_DELTA_FRONT_SEDIMENTS,_SUBJECTED_TO_FREQUENT_SHIFTS_OF_DEPOCENTERS_AND_FLUCTUATING_DISCHARGE._LOW_DEGREE_OF_BASINAL_REWORKING._HIGH_INFLUX_OF_FRESH_WATER._VERTICAL_AGGRADATION_IMPORTANT."
2814.9 "6407_7-2"  59.1500 "Sandstone" "Claystone" -999.25    65.0000 35.00000      0.0 "m"            "vf"      "Very_proximal_fluvial-dominated_mouthbar-deposits._Pulselike_sedimentation._Low_degree_of_basinal_reworking."      "MAINLY_PROXIMAL_FLUVIAL_DOMINATED_DELTA_FRONT_SEDIMENTS,_SUBJECTED_TO_FREQUENT_SHIFTS_OF_DEPOCENTERS_AND_FLUCTUATING_DISCHARGE._LOW_DEGREE_OF_BASINAL_REWORKING._HIGH_INFLUX_OF_FRESH_WATER._VERTICAL_AGGRADATION_IMPORTANT."
2815.0 "6407_7-2"  57.1800 "Sandstone" "Claystone" -999.25    65.0000 35.00000      0.0 "m"            "vf"      "Very_proximal_fluvial-dominated_mouthbar-deposits._Pulselike_sedimentation._Low_degree_of_basinal_reworking."      "MAINLY_PROXIMAL_FLUVIAL_DOMINATED_DELTA_FRONT_SEDIMENTS,_SUBJECTED_TO_FREQUENT_SHIFTS_OF_DEPOCENTERS_AND_FLUCTUATING_DISCHARGE._LOW_DEGREE_OF_BASINAL_REWORKING._HIGH_INFLUX_OF_FRESH_WATER._VERTICAL_AGGRADATION_IMPORTANT."
2815.1 "6407_7-2"  55.4800 "Sandstone" "Claystone" -999.25    65.0000 35.00000      0.0 "m"            "vf"      "Very_proximal_fluvial-dominated_mouthbar-deposits._Pulselike_sedimentation._Low_degree_of_basinal_reworking."      "MAINLY_PROXIMAL_FLUVIAL_DOMINATED_DELTA_FRONT_SEDIMENTS,_SUBJECTED_TO_FREQUENT_SHIFTS_OF_DEPOCENTERS_AND_FLUCTUATING_DISCHARGE._LOW_DEGREE_OF_BASINAL_REWORKING._HIGH_INFLUX_OF_FRESH_WATER._VERTICAL_AGGRADATION_IMPORTANT."
