~Version
VERS  .                                 3.0 : CWLS LAS ASCII Standard - Version 3.0
WRAP  . NO                                  : One line per depth step
DLM   . SPACE                               : Column data section delimiter
SOURCE. Converted to LAS by Log Studio 4.76 : GeoProvider

~Well
STRT.         2673.0 : Start depth
STOP.         2913.6 : Stop depth
STEP.              1 : Step
NULL.        -999.25 : No-value
COMP.                : Company
WELL. 6407/7-2       : Well
FLD .                : Field
LOC .                : Location
LATI.                : Latitude
LONG.                : Longitude
GDAT.                : Geodetic datum
CNTY.                : County
STAT.                : State
CTRY.                : Country
SRVC. GeoProvider AS : Service company
DATE.                : Date
API .                : API number
RUN .                : Run number

~Parameters
WellboreName.  : Wellbore name
RigName     .  : Rig name
StartDate   .  : Start date

~Curves
DEPTH.m            .  : null {F}Depth mMD
Hole_ID.-          .  : null {S}Hole ID
GR.API             .  : null {F}Gamma Ray
Lithology1.-       .  : null {S}Lithology 1
Lithology2.-       .  : null {S}Lithology 2
Lithology3.-       .  : null {S}Lithology 3
Lithology1.%       .  : null {F}Lithology 1 percentage
Lithology2.%       .  : null {F}Lithology 2 percentage
Lithology3.%       .  : null {F}Lithology 3 percentage
Grain_size_Top.-   .  : null {S}Grain size at the top 
Grain_size_Base.-  .  : null {S}Grain size at the bottom
Sub_Environment.-  .  : null {S}Sub Environment
Gross_Environment.-.  : null {S}Gross Environment

~Ascii
# ...
2887.2 "6407_7-2"  48.3400 "Sandstone" "Claystone" -999.25    90.0000 10.00000      0.0 "granule/pebble" "c/vc"    "Re-establishment_of_fluvial_channels._Abandonment-paleosoil_on_top."                                               "Alluvial_plain/upper_delta_plain,_close_to_source_area"                                                                                                                                                                    
2887.3 "6407_7-2"  49.0800 "Sandstone" "Claystone" -999.25    90.0000 10.00000      0.0 "granule/pebble" "c/vc"    "Re-establishment_of_fluvial_channels._Abandonment-paleosoil_on_top."                                               "Alluvial_plain/upper_delta_plain,_close_to_source_area"                                                                                                                                                                    
2887.4 "6407_7-2"  52.6000 "Sandstone" "Claystone" -999.25    90.0000 10.00000      0.0 "granule/pebble" "c/vc"    "Re-establishment_of_fluvial_channels._Abandonment-paleosoil_on_top."                                               "Alluvial_plain/upper_delta_plain,_close_to_source_area"                                                                                                                                                                    
2887.5 "6407_7-2"  56.2200 "Sandstone" "Claystone" -999.25    90.0000 10.00000      0.0 "granule/pebble" "c/vc"    "Re-establishment_of_fluvial_channels._Abandonment-paleosoil_on_top."                                               "Alluvial_plain/upper_delta_plain,_close_to_source_area"                                                                                                                                                                    
2887.6 "6407_7-2"  58.0100 "Sandstone" "Claystone" -999.25    90.0000 10.00000      0.0 "granule/pebble" "c/vc"    "Re-establishment_of_fluvial_channels._Abandonment-paleosoil_on_top."                                               "Alluvial_plain/upper_delta_plain,_close_to_source_area"                                                                                                                                                                    
2887.7 "6407_7-2"  57.5900 "Sandstone" "Claystone" -999.25    90.0000 10.00000      0.0 "granule/pebble" "c/vc"    "Re-establishment_of_fluvial_channels._Abandonment-paleosoil_on_top."                                               "Alluvial_plain/upper_delta_plain,_close_to_source_area"                                                                                                                                                                    
2887.8 "6407_7-2"  56.9600 "Sandstone" "Claystone" -999.25    90.0000 10.00000      0.0 "granule/pebble" "c/vc"    "Re-establishment_of_fluvial_channels._Abandonment-paleosoil_on_top."                                               "Alluvial_plain/upper_delta_plain,_close_to_source_area"                                                                                                                                                                    
2887.9 "6407_7-2"  68.3200 "Sandstone" "Claystone" -999.25    90.0000 10.00000      0.0 "granule/pebble" "c/vc"    "Re-establishment_of_fluvial_channels._Abandonment-paleosoil_on_top."                                               "Alluvial_plain/upper_delta_plain,_close_to_source_area"                                                                                                                                                                    
2888.0 "6407_7-2"  73.1400 "Sandstone" "Claystone" -999.25    90.0000 10.00000      0.0 "granule/pebble" "c/vc"    "Re-establishment_of_fluvial_channels._Abandonment-paleosoil_on_top."                                               "Alluvial_plain/upper_delta_plain,_close_to_source_area"                                                                                                                                                                    
2888.1 "6407_7-2"  76.9400 "Sandstone" "Claystone" -999.25    90.0000 10.00000      0.0 "granule/pebble" "c/vc"    "Re-establishment_of_fluvial_channels._Abandonment-paleosoil_on_top."                                               "Alluvial_plain/upper_delta_plain,_close_to_source_area"                                                                                                                                                                    
2888.2 "6407_7-2"  81.3200 "Sandstone" "Claystone" -999.25    90.0000 10.00000      0.0 "granule/pebble" "c/vc"    "Abandoned_channel_fill/poorly_drained_floodplain"                                                                  "Alluvial_plain/upper_delta_plain,_close_to_source_area"                                                                                                                                                                    
2888.3 "6407_7-2"  81.0200 "Sandstone" "Claystone" -999.25    90.0000 10.00000      0.0 "granule/pebble" "c/vc"    "Abandoned_channel_fill/poorly_drained_floodplain"                                                                  "Alluvial_plain/upper_delta_plain,_close_to_source_area"                                                                                                                                                                    
2888.4 "6407_7-2"  83.1300 "Sandstone" "Claystone" -999.25    90.0000 10.00000      0.0 "granule/pebble" "c/vc"    "Abandoned_channel_fill/poorly_drained_floodplain"                                                                  "Alluvial_plain/upper_delta_plain,_close_to_source_area"                                                                                                                                                                    
2888.5 "6407_7-2"  85.5300 "Sandstone" "Claystone" -999.25    90.0000 10.00000      0.0 "granule/pebble" "c/vc"    "Abandoned_channel_fill/poorly_drained_floodplain"                                                                  "Alluvial_plain/upper_delta_plain,_close_to_source_area"                                                                                                                                                                    
2888.6 "6407_7-2"  87.9300 "Sandstone" "Claystone" -999.25    90.0000 10.00000      0.0 "granule/pebble" "c/vc"    "Abandoned_channel_fill/poorly_drained_floodplain"                                                                  "Alluvial_plain/upper_delta_plain,_close_to_source_area"                                                                                                                                                                    
2888.7 "6407_7-2"  90.3200 "Sandstone" "Claystone" -999.25    90.0000 10.00000      0.0 "granule/pebble" "c/vc"    "Abandoned_channel_fill/poorly_drained_floodplain"                                                                  "Alluvial_plain/upper_delta_plain,_close_to_source_area"                                                                                                                                                                    
2888.8 "6407_7-2"  92.2400 "Sandstone" "Claystone" -999.25    90.0000 10.00000      0.0 "granule/pebble" "c/vc"    "Abandoned_channel_fill/poorly_drained_floodplain"                                                                  "Alluvial_plain/upper_delta_plain,_close_to_source_area"                                                                                                                                                                    
2888.9 "6407_7-2"  93.1700 "Sandstone" "Claystone" -999.25    90.0000 10.00000      0.0 "granule/pebble" "c/vc"    "Abandoned_channel_fill/poorly_drained_floodplain"                                                                  "Alluvial_plain/upper_delta_plain,_close_to_source_area"                                                                                                                                                                    
