~Version
VERS  .                                 3.0 : CWLS LAS ASCII Standard - Version 3.0
WRAP  . NO                                  : One line per depth step
DLM   . SPACE                               : Column data section delimiter
SOURCE. Converted to LAS by Log Studio 4.76 : GeoProvider

~Well
STRT.         2673.0 : Start depth
STOP.         2913.6 : Stop depth
STEP.              1 : Step
NULL.        -999.25 : No-value
COMP.                : Company
WELL. 6407/7-2       : Well
FLD .                : Field
LOC .                : Location
LATI.                : Latitude
LONG.                : Longitude
GDAT.                : Geodetic datum
CNTY.                : County
STAT.                : State
CTRY.                : Country
SRVC. GeoProvider AS : Service company
DATE.                : Date
API .                : API number
RUN .                : Run number

~Parameters
WellboreName.  : Wellbore name
RigName     .  : Rig name
StartDate   .  : Start date

~Curves
DEPTH.m            .  : null {F}Depth mMD
Hole_ID.-          .  : null {S}Hole ID
GR.API             .  : null {F}Gamma Ray
Lithology1.-       .  : null {S}Lithology 1
Lithology2.-       .  : null {S}Lithology 2
Lithology3.-       .  : null {S}Lithology 3
Lithology1.%       .  : null {F}Lithology 1 percentage
Lithology2.%       .  : null {F}Lithology 2 percentage
Lithology3.%       .  : null {F}Lithology 3 percentage
Grain_size_Top.-   .  : null {S}Grain size at the top 
Grain_size_Base.-  .  : null {S}Grain size at the bottom
Sub_Environment.-  .  : null {S}Sub Environment
Gross_Environment.-.  : null {S}Gross Environment

~Ascii
# ...
2874.6 "6407_7-2"  47.0600 "Sandstone" "Claystone" "Siltstone"  60.0000 30.00000 10.00000 "clay/silt"    "granule" -999.25                                                                                                             -999.25                                                                                                                                                                                                                     
2874.7 "6407_7-2"  48.5700 "Sandstone" "Claystone" "Siltstone"  60.0000 30.00000 10.00000 "clay/silt"    "granule" -999.25                                                                                                             -999.25                                                                                                                                                                                                                     
2874.8 "6407_7-2"  45.1900 "Sandstone" "Claystone" "Siltstone"  60.0000 30.00000 10.00000 "clay/silt"    "granule" -999.25                                                                                                             -999.25                                                                                                                                                                                                                     
2874.9 "6407_7-2"  45.7200 "Sandstone" "Claystone" "Siltstone"  60.0000 30.00000 10.00000 "clay/silt"    "granule" -999.25                                                                                                             -999.25                                                                                                                                                                                                                     
2875.0 "6407_7-2"  47.9500 "Sandstone" "Claystone" "Siltstone"  60.0000 30.00000 10.00000 "clay/silt"    "granule" -999.25                                                                                                             -999.25                                                                                                                                                                                                                     
2875.1 "6407_7-2"  48.0800 "Sandstone" "Claystone" "Siltstone"  60.0000 30.00000 10.00000 "clay/silt"    "granule" -999.25                                                                                                             -999.25                                                                                                                                                                                                                     
2875.2 "6407_7-2"  49.8300 "Sandstone" "Claystone" "Siltstone"  60.0000 30.00000 10.00000 "clay/silt"    "granule" -999.25                                                                                                             -999.25                                                                                                                                                                                                                     
2875.3 "6407_7-2"  55.8400 "Sandstone" "Claystone" "Siltstone"  60.0000 30.00000 10.00000 "clay/silt"    "granule" -999.25                                                                                                             -999.25                                                                                                                                                                                                                     
2875.4 "6407_7-2"  64.1900 "Sandstone" "Claystone" "Siltstone"  60.0000 30.00000 10.00000 "clay/silt"    "granule" -999.25                                                                                                             -999.25                                                                                                                                                                                                                     
2875.5 "6407_7-2"  69.4800 "Sandstone" "Claystone" "Siltstone"  60.0000 30.00000 10.00000 "clay/silt"    "granule" -999.25                                                                                                             -999.25                                                                                                                                                                                                                     
2875.6 "6407_7-2"  74.5700 "Sandstone" "Claystone" "Siltstone"  60.0000 30.00000 10.00000 "clay/silt"    "granule" -999.25                                                                                                             -999.25                                                                                                                                                                                                                     
2875.7 "6407_7-2"  78.8400 "Sandstone" "Claystone" "Siltstone"  60.0000 30.00000 10.00000 "clay/silt"    "granule" -999.25                                                                                                             -999.25                                                                                                                                                                                                                     
2875.8 "6407_7-2"  81.1000 "Sandstone" "Claystone" "Siltstone"  60.0000 30.00000 10.00000 "clay/silt"    "granule" -999.25                                                                                                             -999.25                                                                                                                                                                                                                     
2875.9 "6407_7-2"  82.7300 "Sandstone" "Claystone" "Siltstone"  60.0000 30.00000 10.00000 "clay/silt"    "granule" -999.25                                                                                                             -999.25                                                                                                                                                                                                                     
2876.0 "6407_7-2"  81.3500 "Sandstone" "Claystone" "Siltstone"  60.0000 30.00000 10.00000 "clay/silt"    "granule" -999.25                                                                                                             -999.25                                                                                                                                                                                                                     
2876.1 "6407_7-2"  83.2700 "Sandstone" "Claystone" "Siltstone"  60.0000 30.00000 10.00000 "clay/silt"    "granule" -999.25                                                                                                             -999.25                                                                                                                                                                                                                     
2876.2 "6407_7-2"  88.4200 "Sandstone" "Claystone" "Siltstone"  60.0000 30.00000 10.00000 "clay/silt"    "granule" -999.25                                                                                                             -999.25                                                                                                                                                                                                                     
2876.3 "6407_7-2"  90.7800 "Sandstone" "Claystone" "Siltstone"  60.0000 30.00000 10.00000 "clay/silt"    "granule" -999.25                                                                                                             -999.25                                                                                                                                                                                                                     
