~Version
VERS  .                                 3.0 : CWLS LAS ASCII Standard - Version 3.0
WRAP  . NO                                  : One line per depth step
DLM   . SPACE                               : Column data section delimiter
SOURCE. Converted to LAS by Log Studio 4.76 : GeoProvider

~Well
STRT.         2673.0 : Start depth
STOP.         2913.6 : Stop depth
STEP.              1 : Step
NULL.        -999.25 : No-value
COMP.                : Company
WELL. 6407/7-2       : Well
FLD .                : Field
LOC .                : Location
LATI.                : Latitude
LONG.                : Longitude
GDAT.                : Geodetic datum
CNTY.                : County
STAT.                : State
CTRY.                : Country
SRVC. GeoProvider AS : Service company
DATE.                : Date
API .                : API number
RUN .                : Run number

~Parameters
WellboreName.  : Wellbore name
RigName     .  : Rig name
StartDate   .  : Start date

~Curves
DEPTH.m            .  : null {F}Depth mMD
Hole_ID.-          .  : null {S}Hole ID
GR.API             .  : null {F}Gamma Ray
Lithology1.-       .  : null {S}Lithology 1
Lithology2.-       .  : null {S}Lithology 2
Lithology3.-       .  : null {S}Lithology 3
Lithology1.%       .  : null {F}Lithology 1 percentage
Lithology2.%       .  : null {F}Lithology 2 percentage
Lithology3.%       .  : null {F}Lithology 3 percentage
Grain_size_Top.-   .  : null {S}Grain size at the top 
Grain_size_Base.-  .  : null {S}Grain size at the bottom
Sub_Environment.-  .  : null {S}Sub Environment
Gross_Environment.-.  : null {S}Gross Environment

~Ascii
# ...
2824.2 "6407_7-2"  66.5600 "Sandstone" "Claystone" -999.25    58.0000 42.00000      0.0 "f/m"          "m/c"     "Very_proximal_fluvial-dominated_mouthbar-deposits._Pulselike_sedimentation._Low_degree_of_basinal_reworking."      "MAINLY_PROXIMAL_FLUVIAL_DOMINATED_DELTA_FRONT_SEDIMENTS,_SUBJECTED_TO_FREQUENT_SHIFTS_OF_DEPOCENTERS_AND_FLUCTUATING_DISCHARGE._LOW_DEGREE_OF_BASINAL_REWORKING._HIGH_INFLUX_OF_FRESH_WATER._VERTICAL_AGGRADATION_IMPORTANT."
2824.3 "6407_7-2"  61.1200 "Sandstone" "Claystone" -999.25    58.0000 42.00000      0.0 "f/m"          "m/c"     "Very_proximal_fluvial-dominated_mouthbar-deposits._Pulselike_sedimentation._Low_degree_of_basinal_reworking."      "MAINLY_PROXIMAL_FLUVIAL_DOMINATED_DELTA_FRONT_SEDIMENTS,_SUBJECTED_TO_FREQUENT_SHIFTS_OF_DEPOCENTERS_AND_FLUCTUATING_DISCHARGE._LOW_DEGREE_OF_BASINAL_REWORKING._HIGH_INFLUX_OF_FRESH_WATER._VERTICAL_AGGRADATION_IMPORTANT."
2824.4 "6407_7-2"  59.4000 "Sandstone" "Claystone" -999.25    58.0000 42.00000      0.0 "f/m"          "m/c"     "Very_proximal_fluvial-dominated_mouthbar-deposits._Pulselike_sedimentation._Low_degree_of_basinal_reworking."      "MAINLY_PROXIMAL_FLUVIAL_DOMINATED_DELTA_FRONT_SEDIMENTS,_SUBJECTED_TO_FREQUENT_SHIFTS_OF_DEPOCENTERS_AND_FLUCTUATING_DISCHARGE._LOW_DEGREE_OF_BASINAL_REWORKING._HIGH_INFLUX_OF_FRESH_WATER._VERTICAL_AGGRADATION_IMPORTANT."
2824.5 "6407_7-2"  58.5700 "Sandstone" "Claystone" -999.25    58.0000 42.00000      0.0 "f/m"          "m/c"     "Very_proximal_fluvial-dominated_mouthbar-deposits._Pulselike_sedimentation._Low_degree_of_basinal_reworking."      "MAINLY_PROXIMAL_FLUVIAL_DOMINATED_DELTA_FRONT_SEDIMENTS,_SUBJECTED_TO_FREQUENT_SHIFTS_OF_DEPOCENTERS_AND_FLUCTUATING_DISCHARGE._LOW_DEGREE_OF_BASINAL_REWORKING._HIGH_INFLUX_OF_FRESH_WATER._VERTICAL_AGGRADATION_IMPORTANT."
2824.6 "6407_7-2"  61.6500 "Sandstone" "Claystone" -999.25    58.0000 42.00000      0.0 "f/m"          "m/c"     "Very_proximal_fluvial-dominated_mouthbar-deposits._Pulselike_sedimentation._Low_degree_of_basinal_reworking."      "MAINLY_PROXIMAL_FLUVIAL_DOMINATED_DELTA_FRONT_SEDIMENTS,_SUBJECTED_TO_FREQUENT_SHIFTS_OF_DEPOCENTERS_AND_FLUCTUATING_DISCHARGE._LOW_DEGREE_OF_BASINAL_REWORKING._HIGH_INFLUX_OF_FRESH_WATER._VERTICAL_AGGRADATION_IMPORTANT."
2824.7 "6407_7-2"  63.8000 "Sandstone" "Claystone" -999.25    58.0000 42.00000      0.0 "f/m"          "m/c"     "Very_proximal_fluvial-dominated_mouthbar-deposits._Pulselike_sedimentation._Low_degree_of_basinal_reworking."      "MAINLY_PROXIMAL_FLUVIAL_DOMINATED_DELTA_FRONT_SEDIMENTS,_SUBJECTED_TO_FREQUENT_SHIFTS_OF_DEPOCENTERS_AND_FLUCTUATING_DISCHARGE._LOW_DEGREE_OF_BASINAL_REWORKING._HIGH_INFLUX_OF_FRESH_WATER._VERTICAL_AGGRADATION_IMPORTANT."
2824.8 "6407_7-2"  64.9300 "Sandstone" "Claystone" -999.25    58.0000 42.00000      0.0 "f/m"          "m/c"     "Very_proximal_fluvial-dominated_mouthbar-deposits._Pulselike_sedimentation._Low_degree_of_basinal_reworking."      "MAINLY_PROXIMAL_FLUVIAL_DOMINATED_DELTA_FRONT_SEDIMENTS,_SUBJECTED_TO_FREQUENT_SHIFTS_OF_DEPOCENTERS_AND_FLUCTUATING_DISCHARGE._LOW_DEGREE_OF_BASINAL_REWORKING._HIGH_INFLUX_OF_FRESH_WATER._VERTICAL_AGGRADATION_IMPORTANT."
2824.9 "6407_7-2"  65.0200 "Sandstone" "Claystone" -999.25    58.0000 42.00000      0.0 "f/m"          "m/c"     "Very_proximal_fluvial-dominated_mouthbar-deposits._Pulselike_sedimentation._Low_degree_of_basinal_reworking."      "MAINLY_PROXIMAL_FLUVIAL_DOMINATED_DELTA_FRONT_SEDIMENTS,_SUBJECTED_TO_FREQUENT_SHIFTS_OF_DEPOCENTERS_AND_FLUCTUATING_DISCHARGE._LOW_DEGREE_OF_BASINAL_REWORKING._HIGH_INFLUX_OF_FRESH_WATER._VERTICAL_AGGRADATION_IMPORTANT."
2825.0 "6407_7-2"  65.3500 "Sandstone" "Claystone" -999.25    58.0000 42.00000      0.0 "f/m"          "m/c"     "Very_proximal_fluvial-dominated_mouthbar-deposits._Pulselike_sedimentation._Low_degree_of_basinal_reworking."      "MAINLY_PROXIMAL_FLUVIAL_DOMINATED_DELTA_FRONT_SEDIMENTS,_SUBJECTED_TO_FREQUENT_SHIFTS_OF_DEPOCENTERS_AND_FLUCTUATING_DISCHARGE._LOW_DEGREE_OF_BASINAL_REWORKING._HIGH_INFLUX_OF_FRESH_WATER._VERTICAL_AGGRADATION_IMPORTANT."
2825.1 "6407_7-2"  66.0300 "Sandstone" "Claystone" -999.25    58.0000 42.00000      0.0 "f/m"          "m/c"     "Very_proximal_fluvial-dominated_mouthbar-deposits._Pulselike_sedimentation._Low_degree_of_basinal_reworking."      "MAINLY_PROXIMAL_FLUVIAL_DOMINATED_DELTA_FRONT_SEDIMENTS,_SUBJECTED_TO_FREQUENT_SHIFTS_OF_DEPOCENTERS_AND_FLUCTUATING_DISCHARGE._LOW_DEGREE_OF_BASINAL_REWORKING._HIGH_INFLUX_OF_FRESH_WATER._VERTICAL_AGGRADATION_IMPORTANT."
2825.2 "6407_7-2"  66.8800 "Sandstone" "Claystone" -999.25    58.0000 42.00000      0.0 "f/m"          "m/c"     "Very_proximal_fluvial-dominated_mouthbar-deposits._Pulselike_sedimentation._Low_degree_of_basinal_reworking."      "MAINLY_PROXIMAL_FLUVIAL_DOMINATED_DELTA_FRONT_SEDIMENTS,_SUBJECTED_TO_FREQUENT_SHIFTS_OF_DEPOCENTERS_AND_FLUCTUATING_DISCHARGE._LOW_DEGREE_OF_BASINAL_REWORKING._HIGH_INFLUX_OF_FRESH_WATER._VERTICAL_AGGRADATION_IMPORTANT."
2825.3 "6407_7-2"  68.2100 "Sandstone" "Claystone" -999.25    58.0000 42.00000      0.0 "f/m"          "m/c"     "Very_proximal_fluvial-dominated_mouthbar-deposits._Pulselike_sedimentation._Low_degree_of_basinal_reworking."      "MAINLY_PROXIMAL_FLUVIAL_DOMINATED_DELTA_FRONT_SEDIMENTS,_SUBJECTED_TO_FREQUENT_SHIFTS_OF_DEPOCENTERS_AND_FLUCTUATING_DISCHARGE._LOW_DEGREE_OF_BASINAL_REWORKING._HIGH_INFLUX_OF_FRESH_WATER._VERTICAL_AGGRADATION_IMPORTANT."
2825.4 "6407_7-2"  68.0800 "Sandstone" "Claystone" -999.25    58.0000 42.00000      0.0 "f/m"          "m/c"     "Prograding_fluvildominated_mouthbars._Deepwater_conditions_at_base."                                               "MAINLY_PROXIMAL_FLUVIAL_DOMINATED_DELTA_FRONT_SEDIMENTS,_SUBJECTED_TO_FREQUENT_SHIFTS_OF_DEPOCENTERS_AND_FLUCTUATING_DISCHARGE._LOW_DEGREE_OF_BASINAL_REWORKING._HIGH_INFLUX_OF_FRESH_WATER._VERTICAL_AGGRADATION_IMPORTANT."
2825.5 "6407_7-2"  63.8100 "Sandstone" "Claystone" -999.25    58.0000 42.00000      0.0 "f/m"          "m/c"     "Prograding_fluvildominated_mouthbars._Deepwater_conditions_at_base."                                               "MAINLY_PROXIMAL_FLUVIAL_DOMINATED_DELTA_FRONT_SEDIMENTS,_SUBJECTED_TO_FREQUENT_SHIFTS_OF_DEPOCENTERS_AND_FLUCTUATING_DISCHARGE._LOW_DEGREE_OF_BASINAL_REWORKING._HIGH_INFLUX_OF_FRESH_WATER._VERTICAL_AGGRADATION_IMPORTANT."
2825.6 "6407_7-2"  61.2800 "Sandstone" "Claystone" -999.25    58.0000 42.00000      0.0 "f/m"          "m/c"     "Prograding_fluvildominated_mouthbars._Deepwater_conditions_at_base."                                               "MAINLY_PROXIMAL_FLUVIAL_DOMINATED_DELTA_FRONT_SEDIMENTS,_SUBJECTED_TO_FREQUENT_SHIFTS_OF_DEPOCENTERS_AND_FLUCTUATING_DISCHARGE._LOW_DEGREE_OF_BASINAL_REWORKING._HIGH_INFLUX_OF_FRESH_WATER._VERTICAL_AGGRADATION_IMPORTANT."
2825.7 "6407_7-2"  59.7500 "Sandstone" "Claystone" -999.25    58.0000 42.00000      0.0 "f/m"          "m/c"     "Prograding_fluvildominated_mouthbars._Deepwater_conditions_at_base."                                               "MAINLY_PROXIMAL_FLUVIAL_DOMINATED_DELTA_FRONT_SEDIMENTS,_SUBJECTED_TO_FREQUENT_SHIFTS_OF_DEPOCENTERS_AND_FLUCTUATING_DISCHARGE._LOW_DEGREE_OF_BASINAL_REWORKING._HIGH_INFLUX_OF_FRESH_WATER._VERTICAL_AGGRADATION_IMPORTANT."
2825.8 "6407_7-2"  57.2700 "Sandstone" "Claystone" -999.25    58.0000 42.00000      0.0 "f/m"          "m/c"     "Prograding_fluvildominated_mouthbars._Deepwater_conditions_at_base."                                               "MAINLY_PROXIMAL_FLUVIAL_DOMINATED_DELTA_FRONT_SEDIMENTS,_SUBJECTED_TO_FREQUENT_SHIFTS_OF_DEPOCENTERS_AND_FLUCTUATING_DISCHARGE._LOW_DEGREE_OF_BASINAL_REWORKING._HIGH_INFLUX_OF_FRESH_WATER._VERTICAL_AGGRADATION_IMPORTANT."
2825.9 "6407_7-2"  57.1300 "Sandstone" "Claystone" -999.25    58.0000 42.00000      0.0 "f/m"          "m/c"     "Prograding_fluvildominated_mouthbars._Deepwater_conditions_at_base."                                               "MAINLY_PROXIMAL_FLUVIAL_DOMINATED_DELTA_FRONT_SEDIMENTS,_SUBJECTED_TO_FREQUENT_SHIFTS_OF_DEPOCENTERS_AND_FLUCTUATING_DISCHARGE._LOW_DEGREE_OF_BASINAL_REWORKING._HIGH_INFLUX_OF_FRESH_WATER._VERTICAL_AGGRADATION_IMPORTANT."
