~Version
VERS  .                                 3.0 : CWLS LAS ASCII Standard - Version 3.0
WRAP  . NO                                  : One line per depth step
DLM   . SPACE                               : Column data section delimiter
SOURCE. Converted to LAS by Log Studio 4.76 : GeoProvider

~Well
STRT.         2673.0 : Start depth
STOP.         2913.6 : Stop depth
STEP.              1 : Step
NULL.        -999.25 : No-value
COMP.                : Company
WELL. 6407/7-2       : Well
FLD .                : Field
LOC .                : Location
LATI.                : Latitude
LONG.                : Longitude
GDAT.                : Geodetic datum
CNTY.                : County
STAT.                : State
CTRY.                : Country
SRVC. GeoProvider AS : Service company
DATE.                : Date
API .                : API number
RUN .                : Run number

~Parameters
WellboreName.  : Wellbore name
RigName     .  : Rig name
StartDate   .  : Start date

~Curves
DEPTH.m            .  : null {F}Depth mMD
Hole_ID.-          .  : null {S}Hole ID
GR.API             .  : null {F}Gamma Ray
Lithology1.-       .  : null {S}Lithology 1
Lithology2.-       .  : null {S}Lithology 2
Lithology3.-       .  : null {S}Lithology 3
Lithology1.%       .  : null {F}Lithology 1 percentage
Lithology2.%       .  : null {F}Lithology 2 percentage
Lithology3.%       .  : null {F}Lithology 3 percentage
Grain_size_Top.-   .  : null {S}Grain size at the top 
Grain_size_Base.-  .  : null {S}Grain size at the bottom
Sub_Environment.-  .  : null {S}Sub Environment
Gross_Environment.-.  : null {S}Gross Environment

~Ascii
# ...
2725.2 "6407_7-2"  69.8000 "Sandstone" "Claystone" -999.25    50.0000 50.00000      0.0 "silt/vf"      "clay/silt" "Mainly_quiet_marine_conditions_in_a_middle/lower_shoreface_setting._Low_sedimentation_rates._Some_storm_influence." "Low-energy_marine_shelf_environment,_periodic_incursions_of_storm-generated-currents._Low_sedimentation_rate."                                                                                                             
2725.3 "6407_7-2"  69.8000 "Sandstone" "Claystone" -999.25    50.0000 50.00000      0.0 "silt/vf"      "clay/silt" "Mainly_quiet_marine_conditions_in_a_middle/lower_shoreface_setting._Low_sedimentation_rates._Some_storm_influence." "Low-energy_marine_shelf_environment,_periodic_incursions_of_storm-generated-currents._Low_sedimentation_rate."                                                                                                             
2725.4 "6407_7-2"  71.5400 "Sandstone" "Claystone" -999.25    50.0000 50.00000      0.0 "silt/vf"      "clay/silt" "Mainly_quiet_marine_conditions_in_a_middle/lower_shoreface_setting._Low_sedimentation_rates._Some_storm_influence." "Low-energy_marine_shelf_environment,_periodic_incursions_of_storm-generated-currents._Low_sedimentation_rate."                                                                                                             
2725.5 "6407_7-2"  76.1000 "Sandstone" "Claystone" -999.25    50.0000 50.00000      0.0 "silt/vf"      "clay/silt" "Mainly_quiet_marine_conditions_in_a_middle/lower_shoreface_setting._Low_sedimentation_rates._Some_storm_influence." "Low-energy_marine_shelf_environment,_periodic_incursions_of_storm-generated-currents._Low_sedimentation_rate."                                                                                                             
2725.6 "6407_7-2"  86.6200 "Sandstone" "Claystone" -999.25    50.0000 50.00000      0.0 "silt/vf"      "clay/silt" "Mainly_quiet_marine_conditions_in_a_middle/lower_shoreface_setting._Low_sedimentation_rates._Some_storm_influence." "Low-energy_marine_shelf_environment,_periodic_incursions_of_storm-generated-currents._Low_sedimentation_rate."                                                                                                             
2725.7 "6407_7-2"  87.2700 "Sandstone" "Claystone" -999.25    50.0000 50.00000      0.0 "silt/vf"      "clay/silt" "Mainly_quiet_marine_conditions_in_a_middle/lower_shoreface_setting._Low_sedimentation_rates._Some_storm_influence." "Low-energy_marine_shelf_environment,_periodic_incursions_of_storm-generated-currents._Low_sedimentation_rate."                                                                                                             
2725.8 "6407_7-2"  87.2500 "Sandstone" "Claystone" -999.25    50.0000 50.00000      0.0 "silt/vf"      "clay/silt" "Mainly_quiet_marine_conditions_in_a_middle/lower_shoreface_setting._Low_sedimentation_rates._Some_storm_influence." "Low-energy_marine_shelf_environment,_periodic_incursions_of_storm-generated-currents._Low_sedimentation_rate."                                                                                                             
2725.9 "6407_7-2"  87.2300 "Sandstone" "Claystone" -999.25    50.0000 50.00000      0.0 "silt/vf"      "clay/silt" "Mainly_quiet_marine_conditions_in_a_middle/lower_shoreface_setting._Low_sedimentation_rates._Some_storm_influence." "Low-energy_marine_shelf_environment,_periodic_incursions_of_storm-generated-currents._Low_sedimentation_rate."                                                                                                             
2726.0 "6407_7-2"  86.3600 "Sandstone" "Claystone" -999.25    50.0000 50.00000      0.0 "silt/vf"      "clay/silt" "Mainly_quiet_marine_conditions_in_a_middle/lower_shoreface_setting._Low_sedimentation_rates._Some_storm_influence." "Low-energy_marine_shelf_environment,_periodic_incursions_of_storm-generated-currents._Low_sedimentation_rate."                                                                                                             
2726.1 "6407_7-2"  80.7700 -999.25   -999.25   -999.25   100.0000      0.0      0.0 -999.25        -999.25   "Mainly_quiet_marine_conditions_in_a_middle/lower_shoreface_setting._Low_sedimentation_rates._Some_storm_influence." "Low-energy_marine_shelf_environment,_periodic_incursions_of_storm-generated-currents._Low_sedimentation_rate."                                                                                                             
2726.2 "6407_7-2"  76.8000 -999.25   -999.25   -999.25   100.0000      0.0      0.0 -999.25        -999.25   "Mainly_quiet_marine_conditions_in_a_middle/lower_shoreface_setting._Low_sedimentation_rates._Some_storm_influence." "Low-energy_marine_shelf_environment,_periodic_incursions_of_storm-generated-currents._Low_sedimentation_rate."                                                                                                             
2726.3 "6407_7-2"  72.7400 -999.25   -999.25   -999.25   100.0000      0.0      0.0 -999.25        -999.25   "Mainly_quiet_marine_conditions_in_a_middle/lower_shoreface_setting._Low_sedimentation_rates._Some_storm_influence." "Low-energy_marine_shelf_environment,_periodic_incursions_of_storm-generated-currents._Low_sedimentation_rate."                                                                                                             
2726.4 "6407_7-2"  72.6500 -999.25   -999.25   -999.25   100.0000      0.0      0.0 -999.25        -999.25   "Mainly_quiet_marine_conditions_in_a_middle/lower_shoreface_setting._Low_sedimentation_rates._Some_storm_influence." "Low-energy_marine_shelf_environment,_periodic_incursions_of_storm-generated-currents._Low_sedimentation_rate."                                                                                                             
2726.5 "6407_7-2"  81.0100 "Sandstone" "Claystone" "Siltstone"  58.0000 12.00000 30.00000 "vf"           "silt/vf" "Mainly_quiet_marine_conditions_in_a_middle/lower_shoreface_setting._Low_sedimentation_rates._Some_storm_influence." "Low-energy_marine_shelf_environment,_periodic_incursions_of_storm-generated-currents._Low_sedimentation_rate."                                                                                                             
2726.6 "6407_7-2"  86.7400 "Sandstone" "Claystone" "Siltstone"  58.0000 12.00000 30.00000 "vf"           "silt/vf" "Mainly_quiet_marine_conditions_in_a_middle/lower_shoreface_setting._Low_sedimentation_rates._Some_storm_influence." "Low-energy_marine_shelf_environment,_periodic_incursions_of_storm-generated-currents._Low_sedimentation_rate."                                                                                                             
2726.7 "6407_7-2"  87.0600 "Sandstone" "Claystone" "Siltstone"  58.0000 12.00000 30.00000 "vf"           "silt/vf" "Mainly_quiet_marine_conditions_in_a_middle/lower_shoreface_setting._Low_sedimentation_rates._Some_storm_influence." "Low-energy_marine_shelf_environment,_periodic_incursions_of_storm-generated-currents._Low_sedimentation_rate."                                                                                                             
2726.8 "6407_7-2"  87.0000 "Sandstone" "Claystone" "Siltstone"  58.0000 12.00000 30.00000 "vf"           "silt/vf" "Mainly_quiet_marine_conditions_in_a_middle/lower_shoreface_setting._Low_sedimentation_rates._Some_storm_influence." "Low-energy_marine_shelf_environment,_periodic_incursions_of_storm-generated-currents._Low_sedimentation_rate."                                                                                                             
2726.9 "6407_7-2"  85.1400 "Sandstone" "Claystone" "Siltstone"  58.0000 12.00000 30.00000 "vf"           "silt/vf" "Mainly_quiet_marine_conditions_in_a_middle/lower_shoreface_setting._Low_sedimentation_rates._Some_storm_influence." "Low-energy_marine_shelf_environment,_periodic_incursions_of_storm-generated-currents._Low_sedimentation_rate."                                                                                                             
