~Version
VERS  .                                 3.0 : CWLS LAS ASCII Standard - Version 3.0
WRAP  . NO                                  : One line per depth step
DLM   . SPACE                               : Column data section delimiter
SOURCE. Converted to LAS by Log Studio 4.76 : GeoProvider

~Well
STRT.         2673.0 : Start depth
STOP.         2913.6 : Stop depth
STEP.              1 : Step
NULL.        -999.25 : No-value
COMP.                : Company
WELL. 6407/7-2       : Well
FLD .                : Field
LOC .                : Location
LATI.                : Latitude
LONG.                : Longitude
GDAT.                : Geodetic datum
CNTY.                : County
STAT.                : State
CTRY.                : Country
SRVC. GeoProvider AS : Service company
DATE.                : Date
API .                : API number
RUN .                : Run number

~Parameters
WellboreName.  : Wellbore name
RigName     .  : Rig name
StartDate   .  : Start date

~Curves
DEPTH.m            .  : null {F}Depth mMD
Hole_ID.-          .  : null {S}Hole ID
GR.API             .  : null {F}Gamma Ray
Lithology1.-       .  : null {S}Lithology 1
Lithology2.-       .  : null {S}Lithology 2
Lithology3.-       .  : null {S}Lithology 3
Lithology1.%       .  : null {F}Lithology 1 percentage
Lithology2.%       .  : null {F}Lithology 2 percentage
Lithology3.%       .  : null {F}Lithology 3 percentage
Grain_size_Top.-   .  : null {S}Grain size at the top 
Grain_size_Base.-  .  : null {S}Grain size at the bottom
Sub_Environment.-  .  : null {S}Sub Environment
Gross_Environment.-.  : null {S}Gross Environment

~Ascii
# ...
2685.6 "6407_7-2" 124.0200 "Sandstone" "Siltstone" -999.25    15.0000 85.00000      0.0 "clay/silt"    "silt/vf" "Low_energy_marine_setting_below_storm_wave_base"                                                                   "Shelf/Prodelta"                                                                                                                                                                                                            
2685.7 "6407_7-2" 124.2700 "Sandstone" "Siltstone" -999.25    15.0000 85.00000      0.0 "clay/silt"    "silt/vf" "Low_energy_marine_setting_below_storm_wave_base"                                                                   "Shelf/Prodelta"                                                                                                                                                                                                            
2685.8 "6407_7-2" 119.3500 "Sandstone" "Siltstone" -999.25    15.0000 85.00000      0.0 "clay/silt"    "silt/vf" "Low_energy_marine_setting_below_storm_wave_base"                                                                   "Shelf/Prodelta"                                                                                                                                                                                                            
2685.9 "6407_7-2" 116.5700 "Sandstone" "Siltstone" -999.25    15.0000 85.00000      0.0 "clay/silt"    "silt/vf" "Low_energy_marine_setting_below_storm_wave_base"                                                                   "Shelf/Prodelta"                                                                                                                                                                                                            
2686.0 "6407_7-2" 114.5800 "Sandstone" "Siltstone" -999.25    15.0000 85.00000      0.0 "clay/silt"    "silt/vf" "Low_energy_marine_setting_below_storm_wave_base"                                                                   "Shelf/Prodelta"                                                                                                                                                                                                            
2686.1 "6407_7-2" 112.4100 "Sandstone" "Siltstone" -999.25    15.0000 85.00000      0.0 "clay/silt"    "silt/vf" "Low_energy_marine_setting_below_storm_wave_base"                                                                   "Shelf/Prodelta"                                                                                                                                                                                                            
2686.2 "6407_7-2" 111.7400 "Sandstone" "Siltstone" -999.25    15.0000 85.00000      0.0 "clay/silt"    "silt/vf" "Low_energy_marine_setting_below_storm_wave_base"                                                                   "Shelf/Prodelta"                                                                                                                                                                                                            
2686.3 "6407_7-2" 112.1300 "Sandstone" "Siltstone" -999.25    15.0000 85.00000      0.0 "clay/silt"    "silt/vf" "Low_energy_marine_setting_below_storm_wave_base"                                                                   "Shelf/Prodelta"                                                                                                                                                                                                            
2686.4 "6407_7-2" 109.7000 "Sandstone" "Siltstone" -999.25    15.0000 85.00000      0.0 "clay/silt"    "silt/vf" "Low_energy_marine_setting_below_storm_wave_base"                                                                   "Shelf/Prodelta"                                                                                                                                                                                                            
2686.5 "6407_7-2" 112.3300 "Sandstone" "Siltstone" -999.25    15.0000 85.00000      0.0 "clay/silt"    "silt/vf" "Low_energy_marine_setting_below_storm_wave_base"                                                                   "Shelf/Prodelta"                                                                                                                                                                                                            
2686.6 "6407_7-2" 116.5900 "Sandstone" "Siltstone" -999.25    15.0000 85.00000      0.0 "clay/silt"    "silt/vf" "Low_energy_marine_setting_below_storm_wave_base"                                                                   "Shelf/Prodelta"                                                                                                                                                                                                            
2686.7 "6407_7-2" 116.4300 "Sandstone" "Siltstone" -999.25    15.0000 85.00000      0.0 "clay/silt"    "silt/vf" "Low_energy_marine_setting_below_storm_wave_base"                                                                   "Shelf/Prodelta"                                                                                                                                                                                                            
2686.8 "6407_7-2" 117.6100 "Sandstone" "Siltstone" -999.25    15.0000 85.00000      0.0 "clay/silt"    "silt/vf" "Low_energy_marine_setting_below_storm_wave_base"                                                                   "Shelf/Prodelta"                                                                                                                                                                                                            
2686.9 "6407_7-2" 118.7800 "Sandstone" "Siltstone" -999.25    15.0000 85.00000      0.0 "clay/silt"    "silt/vf" "Low_energy_marine_setting_below_storm_wave_base"                                                                   "Shelf/Prodelta"                                                                                                                                                                                                            
2687.0 "6407_7-2" 118.3400 -999.25   -999.25   -999.25   100.0000      0.0      0.0 -999.25        -999.25   -999.25                                                                                                             -999.25                                                                                                                                                                                                                     
2687.1 "6407_7-2" 115.6800 -999.25   -999.25   -999.25   100.0000      0.0      0.0 -999.25        -999.25   -999.25                                                                                                             -999.25                                                                                                                                                                                                                     
2687.2 "6407_7-2" 111.1800 -999.25   -999.25   -999.25   100.0000      0.0      0.0 -999.25        -999.25   -999.25                                                                                                             -999.25                                                                                                                                                                                                                     
2687.3 "6407_7-2" 109.1400 -999.25   -999.25   -999.25   100.0000      0.0      0.0 -999.25        -999.25   -999.25                                                                                                             -999.25                                                                                                                                                                                                                     
