~Version
VERS  .                                 3.0 : CWLS LAS ASCII Standard - Version 3.0
WRAP  . NO                                  : One line per depth step
DLM   . SPACE                               : Column data section delimiter
SOURCE. Converted to LAS by Log Studio 4.76 : GeoProvider

~Well
STRT.         2673.0 : Start depth
STOP.         2913.6 : Stop depth
STEP.              1 : Step
NULL.        -999.25 : No-value
COMP.                : Company
WELL. 6407/7-2       : Well
FLD .                : Field
LOC .                : Location
LATI.                : Latitude
LONG.                : Longitude
GDAT.                : Geodetic datum
CNTY.                : County
STAT.                : State
CTRY.                : Country
SRVC. GeoProvider AS : Service company
DATE.                : Date
API .                : API number
RUN .                : Run number

~Parameters
WellboreName.  : Wellbore name
RigName     .  : Rig name
StartDate   .  : Start date

~Curves
DEPTH.m            .  : null {F}Depth mMD
Hole_ID.-          .  : null {S}Hole ID
GR.API             .  : null {F}Gamma Ray
Lithology1.-       .  : null {S}Lithology 1
Lithology2.-       .  : null {S}Lithology 2
Lithology3.-       .  : null {S}Lithology 3
Lithology1.%       .  : null {F}Lithology 1 percentage
Lithology2.%       .  : null {F}Lithology 2 percentage
Lithology3.%       .  : null {F}Lithology 3 percentage
Grain_size_Top.-   .  : null {S}Grain size at the top 
Grain_size_Base.-  .  : null {S}Grain size at the bottom
Sub_Environment.-  .  : null {S}Sub Environment
Gross_Environment.-.  : null {S}Gross Environment

~Ascii
2673.0 "6407_7-2"  83.6900 "Sandstone" "Siltstone" -999.25    15.0000 85.00000      0.0 "clay/silt"    "silt/vf" "Cyclic_influx_of_vfs._to_a_distal_marine_envir._Rapid_sea-level_fluctuations?"                                     "Shelf/Prodelta"                                                                                                                                                                                                            
2673.1 "6407_7-2"  84.9600 "Sandstone" "Siltstone" -999.25    15.0000 85.00000      0.0 "clay/silt"    "silt/vf" "Cyclic_influx_of_vfs._to_a_distal_marine_envir._Rapid_sea-level_fluctuations?"                                     "Shelf/Prodelta"                                                                                                                                                                                                            
2673.2 "6407_7-2"  86.2600 "Sandstone" "Siltstone" -999.25    15.0000 85.00000      0.0 "clay/silt"    "silt/vf" "Cyclic_influx_of_vfs._to_a_distal_marine_envir._Rapid_sea-level_fluctuations?"                                     "Shelf/Prodelta"                                                                                                                                                                                                            
2673.3 "6407_7-2"  88.1400 "Sandstone" "Siltstone" -999.25    15.0000 85.00000      0.0 "clay/silt"    "silt/vf" "Cyclic_influx_of_vfs._to_a_distal_marine_envir._Rapid_sea-level_fluctuations?"                                     "Shelf/Prodelta"                                                                                                                                                                                                            
2673.4 "6407_7-2"  89.1800 "Sandstone" "Siltstone" -999.25    15.0000 85.00000      0.0 "clay/silt"    "silt/vf" "Cyclic_influx_of_vfs._to_a_distal_marine_envir._Rapid_sea-level_fluctuations?"                                     "Shelf/Prodelta"                                                                                                                                                                                                            
2673.5 "6407_7-2"  89.0400 "Sandstone" "Siltstone" -999.25    15.0000 85.00000      0.0 "clay/silt"    "silt/vf" "Cyclic_influx_of_vfs._to_a_distal_marine_envir._Rapid_sea-level_fluctuations?"                                     "Shelf/Prodelta"                                                                                                                                                                                                            
2673.6 "6407_7-2"  90.1700 "Sandstone" "Siltstone" -999.25    15.0000 85.00000      0.0 "clay/silt"    "silt/vf" "Cyclic_influx_of_vfs._to_a_distal_marine_envir._Rapid_sea-level_fluctuations?"                                     "Shelf/Prodelta"                                                                                                                                                                                                            
2673.7 "6407_7-2"  91.5300 "Sandstone" "Siltstone" -999.25    15.0000 85.00000      0.0 "clay/silt"    "silt/vf" "Cyclic_influx_of_vfs._to_a_distal_marine_envir._Rapid_sea-level_fluctuations?"                                     "Shelf/Prodelta"                                                                                                                                                                                                            
2673.8 "6407_7-2"  92.0400 "Sandstone" "Siltstone" -999.25    15.0000 85.00000      0.0 "clay/silt"    "silt/vf" "Cyclic_influx_of_vfs._to_a_distal_marine_envir._Rapid_sea-level_fluctuations?"                                     "Shelf/Prodelta"                                                                                                                                                                                                            
2673.9 "6407_7-2"  91.5900 "Sandstone" "Siltstone" -999.25    15.0000 85.00000      0.0 "clay/silt"    "silt/vf" "Cyclic_influx_of_vfs._to_a_distal_marine_envir._Rapid_sea-level_fluctuations?"                                     "Shelf/Prodelta"                                                                                                                                                                                                            
2674.0 "6407_7-2"  90.7900 "Sandstone" "Siltstone" -999.25    15.0000 85.00000      0.0 "clay/silt"    "silt/vf" "Cyclic_influx_of_vfs._to_a_distal_marine_envir._Rapid_sea-level_fluctuations?"                                     "Shelf/Prodelta"                                                                                                                                                                                                            
2674.1 "6407_7-2"  90.7000 "Sandstone" "Siltstone" -999.25    15.0000 85.00000      0.0 "clay/silt"    "silt/vf" "Cyclic_influx_of_vfs._to_a_distal_marine_envir._Rapid_sea-level_fluctuations?"                                     "Shelf/Prodelta"                                                                                                                                                                                                            
2674.2 "6407_7-2"  91.0300 "Sandstone" "Siltstone" -999.25    15.0000 85.00000      0.0 "clay/silt"    "silt/vf" "Cyclic_influx_of_vfs._to_a_distal_marine_envir._Rapid_sea-level_fluctuations?"                                     "Shelf/Prodelta"                                                                                                                                                                                                            
2674.3 "6407_7-2"  91.7000 "Sandstone" "Siltstone" -999.25    15.0000 85.00000      0.0 "clay/silt"    "silt/vf" "Cyclic_influx_of_vfs._to_a_distal_marine_envir._Rapid_sea-level_fluctuations?"                                     "Shelf/Prodelta"                                                                                                                                                                                                            
2674.4 "6407_7-2"  89.8300 "Sandstone" "Siltstone" -999.25    15.0000 85.00000      0.0 "clay/silt"    "silt/vf" "Cyclic_influx_of_vfs._to_a_distal_marine_envir._Rapid_sea-level_fluctuations?"                                     "Shelf/Prodelta"                                                                                                                                                                                                            
2674.5 "6407_7-2"  89.1500 "Sandstone" "Siltstone" -999.25    15.0000 85.00000      0.0 "clay/silt"    "silt/vf" "Cyclic_influx_of_vfs._to_a_distal_marine_envir._Rapid_sea-level_fluctuations?"                                     "Shelf/Prodelta"                                                                                                                                                                                                            
2674.6 "6407_7-2"  89.1400 "Sandstone" "Siltstone" -999.25    15.0000 85.00000      0.0 "clay/silt"    "silt/vf" "Cyclic_influx_of_vfs._to_a_distal_marine_envir._Rapid_sea-level_fluctuations?"                                     "Shelf/Prodelta"                                                                                                                                                                                                            
2674.7 "6407_7-2"  89.1400 "Sandstone" "Siltstone" -999.25    15.0000 85.00000      0.0 "clay/silt"    "silt/vf" "Cyclic_influx_of_vfs._to_a_distal_marine_envir._Rapid_sea-level_fluctuations?"                                     "Shelf/Prodelta"                                                                                                                                                                                                            
