~Version
VERS  .                                 3.0 : CWLS LAS ASCII Standard - Version 3.0
WRAP  . NO                                  : One line per depth step
DLM   . SPACE                               : Column data section delimiter
SOURCE. Converted to LAS by Log Studio 4.76 : GeoProvider

~Well
STRT.         2673.0 : Start depth
STOP.         2913.6 : Stop depth
STEP.              1 : Step
NULL.        -999.25 : No-value
COMP.                : Company
WELL. 6407/7-2       : Well
FLD .                : Field
LOC .                : Location
LATI.                : Latitude
LONG.                : Longitude
GDAT.                : Geodetic datum
CNTY.                : County
STAT.                : State
CTRY.                : Country
SRVC. GeoProvider AS : Service company
DATE.                : Date
API .                : API number
RUN .                : Run number

~Parameters
WellboreName.  : Wellbore name
RigName     .  : Rig name
StartDate   .  : Start date

~Curves
DEPTH.m            .  : null {F}Depth mMD
Hole_ID.-          .  : null {S}Hole ID
GR.API             .  : null {F}Gamma Ray
Lithology1.-       .  : null {S}Lithology 1
Lithology2.-       .  : null {S}Lithology 2
Lithology3.-       .  : null {S}Lithology 3
Lithology1.%       .  : null {F}Lithology 1 percentage
Lithology2.%       .  : null {F}Lithology 2 percentage
Lithology3.%       .  : null {F}Lithology 3 percentage
Grain_size_Top.-   .  : null {S}Grain size at the top 
Grain_size_Base.-  .  : null {S}Grain size at the bottom
Sub_Environment.-  .  : null {S}Sub Environment
Gross_Environment.-.  : null {S}Gross Environment

~Ascii
# ...
2737.8 "6407_7-2"  98.3900 "Sandstone" "Claystone" -999.25    30.0000 70.00000      0.0 "clay/silt"    "f/m"     "Two_marine_CU-cycles,_spanding_approx._from_inner_shelf_to_middle_shoreface."                                      "Low-energy_marine_shelf_environment,_periodic_incursions_of_storm-generated-currents._Low_sedimentation_rate."                                                                                                             
2737.9 "6407_7-2"  96.3300 "Sandstone" "Claystone" -999.25    30.0000 70.00000      0.0 "clay/silt"    "f/m"     "Two_marine_CU-cycles,_spanding_approx._from_inner_shelf_to_middle_shoreface."                                      "Low-energy_marine_shelf_environment,_periodic_incursions_of_storm-generated-currents._Low_sedimentation_rate."                                                                                                             
2738.0 "6407_7-2"  93.9600 "Sandstone" "Claystone" -999.25    30.0000 70.00000      0.0 "clay/silt"    "f/m"     "Two_marine_CU-cycles,_spanding_approx._from_inner_shelf_to_middle_shoreface."                                      "Low-energy_marine_shelf_environment,_periodic_incursions_of_storm-generated-currents._Low_sedimentation_rate."                                                                                                             
2738.1 "6407_7-2"  87.9600 "Sandstone" "Claystone" -999.25    30.0000 70.00000      0.0 "clay/silt"    "f/m"     "Two_marine_CU-cycles,_spanding_approx._from_inner_shelf_to_middle_shoreface."                                      "Low-energy_marine_shelf_environment,_periodic_incursions_of_storm-generated-currents._Low_sedimentation_rate."                                                                                                             
2738.2 "6407_7-2"  87.5200 "Sandstone" "Claystone" -999.25    30.0000 70.00000      0.0 "clay/silt"    "f/m"     "Two_marine_CU-cycles,_spanding_approx._from_inner_shelf_to_middle_shoreface."                                      "Low-energy_marine_shelf_environment,_periodic_incursions_of_storm-generated-currents._Low_sedimentation_rate."                                                                                                             
2738.3 "6407_7-2"  87.8300 "Sandstone" "Claystone" -999.25    30.0000 70.00000      0.0 "clay/silt"    "f/m"     "Two_marine_CU-cycles,_spanding_approx._from_inner_shelf_to_middle_shoreface."                                      "Low-energy_marine_shelf_environment,_periodic_incursions_of_storm-generated-currents._Low_sedimentation_rate."                                                                                                             
2738.4 "6407_7-2"  86.6100 "Sandstone" "Claystone" -999.25    30.0000 70.00000      0.0 "clay/silt"    "f/m"     "Two_marine_CU-cycles,_spanding_approx._from_inner_shelf_to_middle_shoreface."                                      "Low-energy_marine_shelf_environment,_periodic_incursions_of_storm-generated-currents._Low_sedimentation_rate."                                                                                                             
2738.5 "6407_7-2"  86.1900 "Sandstone" "Claystone" -999.25    30.0000 70.00000      0.0 "clay/silt"    "f/m"     "Two_marine_CU-cycles,_spanding_approx._from_inner_shelf_to_middle_shoreface."                                      "Low-energy_marine_shelf_environment,_periodic_incursions_of_storm-generated-currents._Low_sedimentation_rate."                                                                                                             
2738.6 "6407_7-2"  86.5500 "Sandstone" "Claystone" -999.25    30.0000 70.00000      0.0 "clay/silt"    "f/m"     "Two_marine_CU-cycles,_spanding_approx._from_inner_shelf_to_middle_shoreface."                                      "Low-energy_marine_shelf_environment,_periodic_incursions_of_storm-generated-currents._Low_sedimentation_rate."                                                                                                             
2738.7 "6407_7-2"  87.8000 "Sandstone" "Claystone" -999.25    30.0000 70.00000      0.0 "clay/silt"    "f/m"     "Two_marine_CU-cycles,_spanding_approx._from_inner_shelf_to_middle_shoreface."                                      "Low-energy_marine_shelf_environment,_periodic_incursions_of_storm-generated-currents._Low_sedimentation_rate."                                                                                                             
2738.8 "6407_7-2"  90.4600 "Sandstone" "Claystone" -999.25    30.0000 70.00000      0.0 "clay/silt"    "f/m"     "Two_marine_CU-cycles,_spanding_approx._from_inner_shelf_to_middle_shoreface."                                      "Low-energy_marine_shelf_environment,_periodic_incursions_of_storm-generated-currents._Low_sedimentation_rate."                                                                                                             
2738.9 "6407_7-2"  92.9500 "Sandstone" "Claystone" -999.25    30.0000 70.00000      0.0 "clay/silt"    "f/m"     "Two_marine_CU-cycles,_spanding_approx._from_inner_shelf_to_middle_shoreface."                                      "Low-energy_marine_shelf_environment,_periodic_incursions_of_storm-generated-currents._Low_sedimentation_rate."                                                                                                             
2739.0 "6407_7-2"  94.9500 "Sandstone" "Claystone" -999.25    30.0000 70.00000      0.0 "clay/silt"    "f/m"     "Two_marine_CU-cycles,_spanding_approx._from_inner_shelf_to_middle_shoreface."                                      "Low-energy_marine_shelf_environment,_periodic_incursions_of_storm-generated-currents._Low_sedimentation_rate."                                                                                                             
2739.1 "6407_7-2"  94.5300 "Sandstone" "Claystone" -999.25    30.0000 70.00000      0.0 "clay/silt"    "f/m"     "Two_marine_CU-cycles,_spanding_approx._from_inner_shelf_to_middle_shoreface."                                      "Low-energy_marine_shelf_environment,_periodic_incursions_of_storm-generated-currents._Low_sedimentation_rate."                                                                                                             
2739.2 "6407_7-2"  92.5900 "Sandstone" "Claystone" -999.25    30.0000 70.00000      0.0 "clay/silt"    "f/m"     "Two_marine_CU-cycles,_spanding_approx._from_inner_shelf_to_middle_shoreface."                                      "Low-energy_marine_shelf_environment,_periodic_incursions_of_storm-generated-currents._Low_sedimentation_rate."                                                                                                             
2739.3 "6407_7-2"  94.1700 "Sandstone" "Claystone" -999.25    30.0000 70.00000      0.0 "clay/silt"    "f/m"     "Two_marine_CU-cycles,_spanding_approx._from_inner_shelf_to_middle_shoreface."                                      "Low-energy_marine_shelf_environment,_periodic_incursions_of_storm-generated-currents._Low_sedimentation_rate."                                                                                                             
2739.4 "6407_7-2"  92.9700 "Sandstone" "Claystone" -999.25    30.0000 70.00000      0.0 "clay/silt"    "f/m"     "Two_marine_CU-cycles,_spanding_approx._from_inner_shelf_to_middle_shoreface."                                      "Low-energy_marine_shelf_environment,_periodic_incursions_of_storm-generated-currents._Low_sedimentation_rate."                                                                                                             
2739.5 "6407_7-2"  91.6500 -999.25   -999.25   -999.25   100.0000      0.0      0.0 -999.25        -999.25   -999.25                                                                                                             -999.25                                                                                                                                                                                                                     
