~Version
VERS  .                                 3.0 : CWLS LAS ASCII Standard - Version 3.0
WRAP  . NO                                  : One line per depth step
DLM   . SPACE                               : Column data section delimiter
SOURCE. Converted to LAS by Log Studio 4.76 : GeoProvider

~Well
STRT.         2673.0 : Start depth
STOP.         2913.6 : Stop depth
STEP.              1 : Step
NULL.        -999.25 : No-value
COMP.                : Company
WELL. 6407/7-2       : Well
FLD .                : Field
LOC .                : Location
LATI.                : Latitude
LONG.                : Longitude
GDAT.                : Geodetic datum
CNTY.                : County
STAT.                : State
CTRY.                : Country
SRVC. GeoProvider AS : Service company
DATE.                : Date
API .                : API number
RUN .                : Run number

~Parameters
WellboreName.  : Wellbore name
RigName     .  : Rig name
StartDate   .  : Start date

~Curves
DEPTH.m            .  : null {F}Depth mMD
Hole_ID.-          .  : null {S}Hole ID
GR.API             .  : null {F}Gamma Ray
Lithology1.-       .  : null {S}Lithology 1
Lithology2.-       .  : null {S}Lithology 2
Lithology3.-       .  : null {S}Lithology 3
Lithology1.%       .  : null {F}Lithology 1 percentage
Lithology2.%       .  : null {F}Lithology 2 percentage
Lithology3.%       .  : null {F}Lithology 3 percentage
Grain_size_Top.-   .  : null {S}Grain size at the top 
Grain_size_Base.-  .  : null {S}Grain size at the bottom
Sub_Environment.-  .  : null {S}Sub Environment
Gross_Environment.-.  : null {S}Gross Environment

~Ascii
# ...
2849.4 "6407_7-2"  62.3800 "Sandstone" "Claystone" -999.25    70.0000 30.00000      0.0 "c"            "m/c"     "Quiet_phase_(ab.mouthbar)"                                                                                         "MAINLY_PROXIMAL_FLUVIAL_DOMINATED_DELTA_FRONT_SEDIMENTS,_SUBJECTED_TO_FREQUENT_SHIFTS_OF_DEPOCENTERS_AND_FLUCTUATING_DISCHARGE._LOW_DEGREE_OF_BASINAL_REWORKING._HIGH_INFLUX_OF_FRESH_WATER._VERTICAL_AGGRADATION_IMPORTANT."
2849.5 "6407_7-2"  59.4700 "Sandstone" "Claystone" -999.25    70.0000 30.00000      0.0 "c"            "m/c"     "Quiet_phase_(ab.mouthbar)"                                                                                         "MAINLY_PROXIMAL_FLUVIAL_DOMINATED_DELTA_FRONT_SEDIMENTS,_SUBJECTED_TO_FREQUENT_SHIFTS_OF_DEPOCENTERS_AND_FLUCTUATING_DISCHARGE._LOW_DEGREE_OF_BASINAL_REWORKING._HIGH_INFLUX_OF_FRESH_WATER._VERTICAL_AGGRADATION_IMPORTANT."
2849.6 "6407_7-2"  56.3700 "Sandstone" "Claystone" -999.25    70.0000 30.00000      0.0 "c"            "m/c"     "Quiet_phase_(ab.mouthbar)"                                                                                         "MAINLY_PROXIMAL_FLUVIAL_DOMINATED_DELTA_FRONT_SEDIMENTS,_SUBJECTED_TO_FREQUENT_SHIFTS_OF_DEPOCENTERS_AND_FLUCTUATING_DISCHARGE._LOW_DEGREE_OF_BASINAL_REWORKING._HIGH_INFLUX_OF_FRESH_WATER._VERTICAL_AGGRADATION_IMPORTANT."
2849.7 "6407_7-2"  57.3900 "Sandstone" "Claystone" -999.25    70.0000 30.00000      0.0 "c"            "m/c"     "Quiet_phase_(ab.mouthbar)"                                                                                         "MAINLY_PROXIMAL_FLUVIAL_DOMINATED_DELTA_FRONT_SEDIMENTS,_SUBJECTED_TO_FREQUENT_SHIFTS_OF_DEPOCENTERS_AND_FLUCTUATING_DISCHARGE._LOW_DEGREE_OF_BASINAL_REWORKING._HIGH_INFLUX_OF_FRESH_WATER._VERTICAL_AGGRADATION_IMPORTANT."
2849.8 "6407_7-2"  58.0000 "Sandstone" "Claystone" -999.25    70.0000 30.00000      0.0 "c"            "m/c"     "Quiet_phase_(ab.mouthbar)"                                                                                         "MAINLY_PROXIMAL_FLUVIAL_DOMINATED_DELTA_FRONT_SEDIMENTS,_SUBJECTED_TO_FREQUENT_SHIFTS_OF_DEPOCENTERS_AND_FLUCTUATING_DISCHARGE._LOW_DEGREE_OF_BASINAL_REWORKING._HIGH_INFLUX_OF_FRESH_WATER._VERTICAL_AGGRADATION_IMPORTANT."
2849.9 "6407_7-2"  56.3900 "Sandstone" "Claystone" -999.25    70.0000 30.00000      0.0 "c"            "m/c"     "Prograding_mouthbar_(distal_to_proximal)"                                                                          "MAINLY_PROXIMAL_FLUVIAL_DOMINATED_DELTA_FRONT_SEDIMENTS,_SUBJECTED_TO_FREQUENT_SHIFTS_OF_DEPOCENTERS_AND_FLUCTUATING_DISCHARGE._LOW_DEGREE_OF_BASINAL_REWORKING._HIGH_INFLUX_OF_FRESH_WATER._VERTICAL_AGGRADATION_IMPORTANT."
2850.0 "6407_7-2"  56.1000 "Sandstone" "Claystone" -999.25    70.0000 30.00000      0.0 "c"            "m/c"     "Prograding_mouthbar_(distal_to_proximal)"                                                                          "MAINLY_PROXIMAL_FLUVIAL_DOMINATED_DELTA_FRONT_SEDIMENTS,_SUBJECTED_TO_FREQUENT_SHIFTS_OF_DEPOCENTERS_AND_FLUCTUATING_DISCHARGE._LOW_DEGREE_OF_BASINAL_REWORKING._HIGH_INFLUX_OF_FRESH_WATER._VERTICAL_AGGRADATION_IMPORTANT."
2850.1 "6407_7-2"  55.9500 "Sandstone" "Claystone" -999.25    70.0000 30.00000      0.0 "c"            "m/c"     "Prograding_mouthbar_(distal_to_proximal)"                                                                          "MAINLY_PROXIMAL_FLUVIAL_DOMINATED_DELTA_FRONT_SEDIMENTS,_SUBJECTED_TO_FREQUENT_SHIFTS_OF_DEPOCENTERS_AND_FLUCTUATING_DISCHARGE._LOW_DEGREE_OF_BASINAL_REWORKING._HIGH_INFLUX_OF_FRESH_WATER._VERTICAL_AGGRADATION_IMPORTANT."
2850.2 "6407_7-2"  55.7300 "Sandstone" "Claystone" -999.25    70.0000 30.00000      0.0 "c"            "m/c"     "Prograding_mouthbar_(distal_to_proximal)"                                                                          "MAINLY_PROXIMAL_FLUVIAL_DOMINATED_DELTA_FRONT_SEDIMENTS,_SUBJECTED_TO_FREQUENT_SHIFTS_OF_DEPOCENTERS_AND_FLUCTUATING_DISCHARGE._LOW_DEGREE_OF_BASINAL_REWORKING._HIGH_INFLUX_OF_FRESH_WATER._VERTICAL_AGGRADATION_IMPORTANT."
2850.3 "6407_7-2"  55.5100 "Sandstone" "Claystone" -999.25    70.0000 30.00000      0.0 "c"            "m/c"     "Prograding_mouthbar_(distal_to_proximal)"                                                                          "MAINLY_PROXIMAL_FLUVIAL_DOMINATED_DELTA_FRONT_SEDIMENTS,_SUBJECTED_TO_FREQUENT_SHIFTS_OF_DEPOCENTERS_AND_FLUCTUATING_DISCHARGE._LOW_DEGREE_OF_BASINAL_REWORKING._HIGH_INFLUX_OF_FRESH_WATER._VERTICAL_AGGRADATION_IMPORTANT."
2850.4 "6407_7-2"  55.2900 "Sandstone" "Claystone" -999.25    70.0000 30.00000      0.0 "c"            "m/c"     "Prograding_mouthbar_(distal_to_proximal)"                                                                          "MAINLY_PROXIMAL_FLUVIAL_DOMINATED_DELTA_FRONT_SEDIMENTS,_SUBJECTED_TO_FREQUENT_SHIFTS_OF_DEPOCENTERS_AND_FLUCTUATING_DISCHARGE._LOW_DEGREE_OF_BASINAL_REWORKING._HIGH_INFLUX_OF_FRESH_WATER._VERTICAL_AGGRADATION_IMPORTANT."
2850.5 "6407_7-2"  54.8500 "Sandstone" "Claystone" -999.25    70.0000 30.00000      0.0 "c"            "m/c"     "Prograding_mouthbar_(distal_to_proximal)"                                                                          "MAINLY_PROXIMAL_FLUVIAL_DOMINATED_DELTA_FRONT_SEDIMENTS,_SUBJECTED_TO_FREQUENT_SHIFTS_OF_DEPOCENTERS_AND_FLUCTUATING_DISCHARGE._LOW_DEGREE_OF_BASINAL_REWORKING._HIGH_INFLUX_OF_FRESH_WATER._VERTICAL_AGGRADATION_IMPORTANT."
2850.6 "6407_7-2"  50.7200 "Sandstone" "Claystone" -999.25    70.0000 30.00000      0.0 "c"            "m/c"     "Prograding_mouthbar_(distal_to_proximal)"                                                                          "MAINLY_PROXIMAL_FLUVIAL_DOMINATED_DELTA_FRONT_SEDIMENTS,_SUBJECTED_TO_FREQUENT_SHIFTS_OF_DEPOCENTERS_AND_FLUCTUATING_DISCHARGE._LOW_DEGREE_OF_BASINAL_REWORKING._HIGH_INFLUX_OF_FRESH_WATER._VERTICAL_AGGRADATION_IMPORTANT."
2850.7 "6407_7-2"  48.5800 "Sandstone" "Claystone" -999.25    70.0000 30.00000      0.0 "c"            "m/c"     "Prograding_mouthbar_(distal_to_proximal)"                                                                          "MAINLY_PROXIMAL_FLUVIAL_DOMINATED_DELTA_FRONT_SEDIMENTS,_SUBJECTED_TO_FREQUENT_SHIFTS_OF_DEPOCENTERS_AND_FLUCTUATING_DISCHARGE._LOW_DEGREE_OF_BASINAL_REWORKING._HIGH_INFLUX_OF_FRESH_WATER._VERTICAL_AGGRADATION_IMPORTANT."
2850.8 "6407_7-2"  47.0100 "Sandstone" "Claystone" -999.25    70.0000 30.00000      0.0 "c"            "m/c"     "Prograding_mouthbar_(distal_to_proximal)"                                                                          "MAINLY_PROXIMAL_FLUVIAL_DOMINATED_DELTA_FRONT_SEDIMENTS,_SUBJECTED_TO_FREQUENT_SHIFTS_OF_DEPOCENTERS_AND_FLUCTUATING_DISCHARGE._LOW_DEGREE_OF_BASINAL_REWORKING._HIGH_INFLUX_OF_FRESH_WATER._VERTICAL_AGGRADATION_IMPORTANT."
2850.9 "6407_7-2"  53.0800 "Sandstone" "Claystone" -999.25    70.0000 30.00000      0.0 "c"            "m/c"     "Prograding_mouthbar_(distal_to_proximal)"                                                                          "MAINLY_PROXIMAL_FLUVIAL_DOMINATED_DELTA_FRONT_SEDIMENTS,_SUBJECTED_TO_FREQUENT_SHIFTS_OF_DEPOCENTERS_AND_FLUCTUATING_DISCHARGE._LOW_DEGREE_OF_BASINAL_REWORKING._HIGH_INFLUX_OF_FRESH_WATER._VERTICAL_AGGRADATION_IMPORTANT."
2851.0 "6407_7-2"  56.0800 "Sandstone" "Claystone" -999.25    70.0000 30.00000      0.0 "c"            "m/c"     "Prograding_mouthbar_(distal_to_proximal)"                                                                          "MAINLY_PROXIMAL_FLUVIAL_DOMINATED_DELTA_FRONT_SEDIMENTS,_SUBJECTED_TO_FREQUENT_SHIFTS_OF_DEPOCENTERS_AND_FLUCTUATING_DISCHARGE._LOW_DEGREE_OF_BASINAL_REWORKING._HIGH_INFLUX_OF_FRESH_WATER._VERTICAL_AGGRADATION_IMPORTANT."
2851.1 "6407_7-2"  58.5600 "Sandstone" "Claystone" -999.25    70.0000 30.00000      0.0 "c"            "m/c"     "Prograding_mouthbar_(distal_to_proximal)"                                                                          "MAINLY_PROXIMAL_FLUVIAL_DOMINATED_DELTA_FRONT_SEDIMENTS,_SUBJECTED_TO_FREQUENT_SHIFTS_OF_DEPOCENTERS_AND_FLUCTUATING_DISCHARGE._LOW_DEGREE_OF_BASINAL_REWORKING._HIGH_INFLUX_OF_FRESH_WATER._VERTICAL_AGGRADATION_IMPORTANT."
