~Version
VERS  .                                 3.0 : CWLS LAS ASCII Standard - Version 3.0
WRAP  . NO                                  : One line per depth step
DLM   . SPACE                               : Column data section delimiter
SOURCE. Converted to LAS by Log Studio 4.76 : GeoProvider

~Well
STRT.         2673.0 : Start depth
STOP.         2913.6 : Stop depth
STEP.              1 : Step
NULL.        -999.25 : No-value
COMP.                : Company
WELL. 6407/7-2       : Well
FLD .                : Field
LOC .                : Location
LATI.                : Latitude
LONG.                : Longitude
GDAT.                : Geodetic datum
CNTY.                : County
STAT.                : State
CTRY.                : Country
SRVC. GeoProvider AS : Service company
DATE.                : Date
API .                : API number
RUN .                : Run number

~Parameters
WellboreName.  : Wellbore name
RigName     .  : Rig name
StartDate   .  : Start date

~Curves
DEPTH.m            .  : null {F}Depth mMD
Hole_ID.-          .  : null {S}Hole ID
GR.API             .  : null {F}Gamma Ray
Lithology1.-       .  : null {S}Lithology 1
Lithology2.-       .  : null {S}Lithology 2
Lithology3.-       .  : null {S}Lithology 3
Lithology1.%       .  : null {F}Lithology 1 percentage
Lithology2.%       .  : null {F}Lithology 2 percentage
Lithology3.%       .  : null {F}Lithology 3 percentage
Grain_size_Top.-   .  : null {S}Grain size at the top 
Grain_size_Base.-  .  : null {S}Grain size at the bottom
Sub_Environment.-  .  : null {S}Sub Environment
Gross_Environment.-.  : null {S}Gross Environment

~Ascii
# ...
2710.8 "6407_7-2"  87.1000 "Sandstone" "Claystone" "Siltstone"  45.0000 25.00000 30.00000 "silt/vf"      "m"       "Reworked_marine_sandridge?"                                                                                        "Low-energy_marine_shelf_environment,_periodic_incursions_of_storm-generated-currents._Low_sedimentation_rate."                                                                                                             
2710.9 "6407_7-2"  84.0300 "Sandstone" "Claystone" "Siltstone"  45.0000 25.00000 30.00000 "silt/vf"      "m"       "Reworked_marine_sandridge?"                                                                                        "Low-energy_marine_shelf_environment,_periodic_incursions_of_storm-generated-currents._Low_sedimentation_rate."                                                                                                             
2711.0 "6407_7-2"  81.2300 "Sandstone" "Claystone" "Siltstone"  45.0000 25.00000 30.00000 "silt/vf"      "m"       "Reworked_marine_sandridge?"                                                                                        "Low-energy_marine_shelf_environment,_periodic_incursions_of_storm-generated-currents._Low_sedimentation_rate."                                                                                                             
2711.1 "6407_7-2"  78.2100 "Sandstone" "Claystone" "Siltstone"  45.0000 25.00000 30.00000 "silt/vf"      "m"       "Reworked_marine_sandridge?"                                                                                        "Low-energy_marine_shelf_environment,_periodic_incursions_of_storm-generated-currents._Low_sedimentation_rate."                                                                                                             
2711.2 "6407_7-2"  73.3300 "Sandstone" "Claystone" "Siltstone"  45.0000 25.00000 30.00000 "silt/vf"      "m"       "Reworked_marine_sandridge?"                                                                                        "Low-energy_marine_shelf_environment,_periodic_incursions_of_storm-generated-currents._Low_sedimentation_rate."                                                                                                             
2711.3 "6407_7-2"  73.4200 "Sandstone" "Claystone" "Siltstone"  45.0000 25.00000 30.00000 "silt/vf"      "m"       "Reworked_marine_sandridge?"                                                                                        "Low-energy_marine_shelf_environment,_periodic_incursions_of_storm-generated-currents._Low_sedimentation_rate."                                                                                                             
2711.4 "6407_7-2"  75.0300 "Sandstone" "Claystone" "Siltstone"  45.0000 25.00000 30.00000 "silt/vf"      "m"       "Reworked_marine_sandridge?"                                                                                        "Low-energy_marine_shelf_environment,_periodic_incursions_of_storm-generated-currents._Low_sedimentation_rate."                                                                                                             
2711.5 "6407_7-2"  79.5700 "Sandstone" "Claystone" "Siltstone"  45.0000 25.00000 30.00000 "silt/vf"      "m"       "Reworked_marine_sandridge?"                                                                                        "Low-energy_marine_shelf_environment,_periodic_incursions_of_storm-generated-currents._Low_sedimentation_rate."                                                                                                             
2711.6 "6407_7-2"  81.3000 "Sandstone" "Claystone" "Siltstone"  45.0000 25.00000 30.00000 "silt/vf"      "m"       "Reworked_marine_sandridge?"                                                                                        "Low-energy_marine_shelf_environment,_periodic_incursions_of_storm-generated-currents._Low_sedimentation_rate."                                                                                                             
2711.7 "6407_7-2"  81.5800 "Sandstone" "Claystone" "Siltstone"  45.0000 25.00000 30.00000 "silt/vf"      "m"       "Reworked_marine_sandridge?"                                                                                        "Low-energy_marine_shelf_environment,_periodic_incursions_of_storm-generated-currents._Low_sedimentation_rate."                                                                                                             
2711.8 "6407_7-2"  81.5600 "Sandstone" "Claystone" "Siltstone"  45.0000 25.00000 30.00000 "silt/vf"      "m"       "Mainly_quiet_marine_conditions_in_a_middle/lower_shoreface_setting._Low_sedimentation_rates._Some_storm_influence." "Low-energy_marine_shelf_environment,_periodic_incursions_of_storm-generated-currents._Low_sedimentation_rate."                                                                                                             
2711.9 "6407_7-2"  81.5400 "Sandstone" "Claystone" "Siltstone"  45.0000 25.00000 30.00000 "silt/vf"      "m"       "Mainly_quiet_marine_conditions_in_a_middle/lower_shoreface_setting._Low_sedimentation_rates._Some_storm_influence." "Low-energy_marine_shelf_environment,_periodic_incursions_of_storm-generated-currents._Low_sedimentation_rate."                                                                                                             
2712.0 "6407_7-2"  81.3300 "Sandstone" "Claystone" "Siltstone"  45.0000 25.00000 30.00000 "silt/vf"      "m"       "Mainly_quiet_marine_conditions_in_a_middle/lower_shoreface_setting._Low_sedimentation_rates._Some_storm_influence." "Low-energy_marine_shelf_environment,_periodic_incursions_of_storm-generated-currents._Low_sedimentation_rate."                                                                                                             
2712.1 "6407_7-2"  79.5500 "Sandstone" "Claystone" "Siltstone"  45.0000 25.00000 30.00000 "silt/vf"      "m"       "Mainly_quiet_marine_conditions_in_a_middle/lower_shoreface_setting._Low_sedimentation_rates._Some_storm_influence." "Low-energy_marine_shelf_environment,_periodic_incursions_of_storm-generated-currents._Low_sedimentation_rate."                                                                                                             
2712.2 "6407_7-2"  77.7400 "Sandstone" "Claystone" "Siltstone"  45.0000 25.00000 30.00000 "silt/vf"      "m"       "Mainly_quiet_marine_conditions_in_a_middle/lower_shoreface_setting._Low_sedimentation_rates._Some_storm_influence." "Low-energy_marine_shelf_environment,_periodic_incursions_of_storm-generated-currents._Low_sedimentation_rate."                                                                                                             
2712.3 "6407_7-2"  75.9100 "Sandstone" "Claystone" "Siltstone"  45.0000 25.00000 30.00000 "silt/vf"      "m"       "Mainly_quiet_marine_conditions_in_a_middle/lower_shoreface_setting._Low_sedimentation_rates._Some_storm_influence." "Low-energy_marine_shelf_environment,_periodic_incursions_of_storm-generated-currents._Low_sedimentation_rate."                                                                                                             
2712.4 "6407_7-2"  73.6600 "Sandstone" "Claystone" "Siltstone"  45.0000 25.00000 30.00000 "silt/vf"      "m"       "Mainly_quiet_marine_conditions_in_a_middle/lower_shoreface_setting._Low_sedimentation_rates._Some_storm_influence." "Low-energy_marine_shelf_environment,_periodic_incursions_of_storm-generated-currents._Low_sedimentation_rate."                                                                                                             
2712.5 "6407_7-2"  73.4300 "Sandstone" "Claystone" "Siltstone"  45.0000 25.00000 30.00000 "silt/vf"      "m"       "Mainly_quiet_marine_conditions_in_a_middle/lower_shoreface_setting._Low_sedimentation_rates._Some_storm_influence." "Low-energy_marine_shelf_environment,_periodic_incursions_of_storm-generated-currents._Low_sedimentation_rate."                                                                                                             
