~Version
VERS  .                                 3.0 : CWLS LAS ASCII Standard - Version 3.0
WRAP  . NO                                  : One line per depth step
DLM   . SPACE                               : Column data section delimiter
SOURCE. Converted to LAS by Log Studio 4.76 : GeoProvider

~Well
STRT.         2673.0 : Start depth
STOP.         2913.6 : Stop depth
STEP.              1 : Step
NULL.        -999.25 : No-value
COMP.                : Company
WELL. 6407/7-2       : Well
FLD .                : Field
LOC .                : Location
LATI.                : Latitude
LONG.                : Longitude
GDAT.                : Geodetic datum
CNTY.                : County
STAT.                : State
CTRY.                : Country
SRVC. GeoProvider AS : Service company
DATE.                : Date
API .                : API number
RUN .                : Run number

~Parameters
WellboreName.  : Wellbore name
RigName     .  : Rig name
StartDate   .  : Start date

~Curves
DEPTH.m            .  : null {F}Depth mMD
Hole_ID.-          .  : null {S}Hole ID
GR.API             .  : null {F}Gamma Ray
Lithology1.-       .  : null {S}Lithology 1
Lithology2.-       .  : null {S}Lithology 2
Lithology3.-       .  : null {S}Lithology 3
Lithology1.%       .  : null {F}Lithology 1 percentage
Lithology2.%       .  : null {F}Lithology 2 percentage
Lithology3.%       .  : null {F}Lithology 3 percentage
Grain_size_Top.-   .  : null {S}Grain size at the top 
Grain_size_Base.-  .  : null {S}Grain size at the bottom
Sub_Environment.-  .  : null {S}Sub Environment
Gross_Environment.-.  : null {S}Gross Environment

~Ascii
# ...
2836.8 "6407_7-2"  80.2800 "Sandstone" "Claystone" -999.25    58.0000 42.00000      0.0 "f/m"          "m/c"     "Prograding_fluvildominated_mouthbars._Deepwater_conditions_at_base."                                               "MAINLY_PROXIMAL_FLUVIAL_DOMINATED_DELTA_FRONT_SEDIMENTS,_SUBJECTED_TO_FREQUENT_SHIFTS_OF_DEPOCENTERS_AND_FLUCTUATING_DISCHARGE._LOW_DEGREE_OF_BASINAL_REWORKING._HIGH_INFLUX_OF_FRESH_WATER._VERTICAL_AGGRADATION_IMPORTANT."
2836.9 "6407_7-2"  79.7300 "Sandstone" "Claystone" -999.25    58.0000 42.00000      0.0 "f/m"          "m/c"     "Prograding_fluvildominated_mouthbars._Deepwater_conditions_at_base."                                               "MAINLY_PROXIMAL_FLUVIAL_DOMINATED_DELTA_FRONT_SEDIMENTS,_SUBJECTED_TO_FREQUENT_SHIFTS_OF_DEPOCENTERS_AND_FLUCTUATING_DISCHARGE._LOW_DEGREE_OF_BASINAL_REWORKING._HIGH_INFLUX_OF_FRESH_WATER._VERTICAL_AGGRADATION_IMPORTANT."
2837.0 "6407_7-2"  82.9800 "Sandstone" "Claystone" -999.25    58.0000 42.00000      0.0 "f/m"          "m/c"     "Prograding_fluvildominated_mouthbars._Deepwater_conditions_at_base."                                               "MAINLY_PROXIMAL_FLUVIAL_DOMINATED_DELTA_FRONT_SEDIMENTS,_SUBJECTED_TO_FREQUENT_SHIFTS_OF_DEPOCENTERS_AND_FLUCTUATING_DISCHARGE._LOW_DEGREE_OF_BASINAL_REWORKING._HIGH_INFLUX_OF_FRESH_WATER._VERTICAL_AGGRADATION_IMPORTANT."
2837.1 "6407_7-2"  89.1600 "Limestone" -999.25   -999.25   100.0000      0.0      0.0 "f/m"          "f/m"     "Prograding_fluvildominated_mouthbars._Deepwater_conditions_at_base."                                               "MAINLY_PROXIMAL_FLUVIAL_DOMINATED_DELTA_FRONT_SEDIMENTS,_SUBJECTED_TO_FREQUENT_SHIFTS_OF_DEPOCENTERS_AND_FLUCTUATING_DISCHARGE._LOW_DEGREE_OF_BASINAL_REWORKING._HIGH_INFLUX_OF_FRESH_WATER._VERTICAL_AGGRADATION_IMPORTANT."
2837.2 "6407_7-2"  86.9100 "Limestone" -999.25   -999.25   100.0000      0.0      0.0 "f/m"          "f/m"     "Prograding_fluvildominated_mouthbars._Deepwater_conditions_at_base."                                               "MAINLY_PROXIMAL_FLUVIAL_DOMINATED_DELTA_FRONT_SEDIMENTS,_SUBJECTED_TO_FREQUENT_SHIFTS_OF_DEPOCENTERS_AND_FLUCTUATING_DISCHARGE._LOW_DEGREE_OF_BASINAL_REWORKING._HIGH_INFLUX_OF_FRESH_WATER._VERTICAL_AGGRADATION_IMPORTANT."
2837.3 "6407_7-2"  83.0900 "Limestone" -999.25   -999.25   100.0000      0.0      0.0 "f/m"          "f/m"     "Prograding_fluvildominated_mouthbars._Deepwater_conditions_at_base."                                               "MAINLY_PROXIMAL_FLUVIAL_DOMINATED_DELTA_FRONT_SEDIMENTS,_SUBJECTED_TO_FREQUENT_SHIFTS_OF_DEPOCENTERS_AND_FLUCTUATING_DISCHARGE._LOW_DEGREE_OF_BASINAL_REWORKING._HIGH_INFLUX_OF_FRESH_WATER._VERTICAL_AGGRADATION_IMPORTANT."
2837.4 "6407_7-2"  78.8500 "Limestone" -999.25   -999.25   100.0000      0.0      0.0 "f/m"          "f/m"     "Prograding_fluvildominated_mouthbars._Deepwater_conditions_at_base."                                               "MAINLY_PROXIMAL_FLUVIAL_DOMINATED_DELTA_FRONT_SEDIMENTS,_SUBJECTED_TO_FREQUENT_SHIFTS_OF_DEPOCENTERS_AND_FLUCTUATING_DISCHARGE._LOW_DEGREE_OF_BASINAL_REWORKING._HIGH_INFLUX_OF_FRESH_WATER._VERTICAL_AGGRADATION_IMPORTANT."
2837.5 "6407_7-2"  74.3900 "Limestone" -999.25   -999.25   100.0000      0.0      0.0 "f/m"          "f/m"     "Prograding_fluvildominated_mouthbars._Deepwater_conditions_at_base."                                               "MAINLY_PROXIMAL_FLUVIAL_DOMINATED_DELTA_FRONT_SEDIMENTS,_SUBJECTED_TO_FREQUENT_SHIFTS_OF_DEPOCENTERS_AND_FLUCTUATING_DISCHARGE._LOW_DEGREE_OF_BASINAL_REWORKING._HIGH_INFLUX_OF_FRESH_WATER._VERTICAL_AGGRADATION_IMPORTANT."
2837.6 "6407_7-2"  62.5400 "Limestone" -999.25   -999.25   100.0000      0.0      0.0 "f/m"          "f/m"     "Prograding_fluvildominated_mouthbars._Deepwater_conditions_at_base."                                               "MAINLY_PROXIMAL_FLUVIAL_DOMINATED_DELTA_FRONT_SEDIMENTS,_SUBJECTED_TO_FREQUENT_SHIFTS_OF_DEPOCENTERS_AND_FLUCTUATING_DISCHARGE._LOW_DEGREE_OF_BASINAL_REWORKING._HIGH_INFLUX_OF_FRESH_WATER._VERTICAL_AGGRADATION_IMPORTANT."
2837.7 "6407_7-2"  62.9900 "Sandstone" "Claystone" -999.25    50.0000 50.00000      0.0 "vf/f"         "silt/vf" "Prograding_fluvildominated_mouthbars._Deepwater_conditions_at_base."                                               "MAINLY_PROXIMAL_FLUVIAL_DOMINATED_DELTA_FRONT_SEDIMENTS,_SUBJECTED_TO_FREQUENT_SHIFTS_OF_DEPOCENTERS_AND_FLUCTUATING_DISCHARGE._LOW_DEGREE_OF_BASINAL_REWORKING._HIGH_INFLUX_OF_FRESH_WATER._VERTICAL_AGGRADATION_IMPORTANT."
2837.8 "6407_7-2"  64.6500 "Sandstone" "Claystone" -999.25    50.0000 50.00000      0.0 "vf/f"         "silt/vf" "Prograding_fluvildominated_mouthbars._Deepwater_conditions_at_base."                                               "MAINLY_PROXIMAL_FLUVIAL_DOMINATED_DELTA_FRONT_SEDIMENTS,_SUBJECTED_TO_FREQUENT_SHIFTS_OF_DEPOCENTERS_AND_FLUCTUATING_DISCHARGE._LOW_DEGREE_OF_BASINAL_REWORKING._HIGH_INFLUX_OF_FRESH_WATER._VERTICAL_AGGRADATION_IMPORTANT."
2837.9 "6407_7-2"  71.8800 "Sandstone" "Claystone" -999.25    50.0000 50.00000      0.0 "vf/f"         "silt/vf" "Prograding_fluvildominated_mouthbars._Deepwater_conditions_at_base."                                               "MAINLY_PROXIMAL_FLUVIAL_DOMINATED_DELTA_FRONT_SEDIMENTS,_SUBJECTED_TO_FREQUENT_SHIFTS_OF_DEPOCENTERS_AND_FLUCTUATING_DISCHARGE._LOW_DEGREE_OF_BASINAL_REWORKING._HIGH_INFLUX_OF_FRESH_WATER._VERTICAL_AGGRADATION_IMPORTANT."
2838.0 "6407_7-2"  72.4900 "Sandstone" "Claystone" -999.25    50.0000 50.00000      0.0 "vf/f"         "silt/vf" "Prograding_fluvildominated_mouthbars._Deepwater_conditions_at_base."                                               "MAINLY_PROXIMAL_FLUVIAL_DOMINATED_DELTA_FRONT_SEDIMENTS,_SUBJECTED_TO_FREQUENT_SHIFTS_OF_DEPOCENTERS_AND_FLUCTUATING_DISCHARGE._LOW_DEGREE_OF_BASINAL_REWORKING._HIGH_INFLUX_OF_FRESH_WATER._VERTICAL_AGGRADATION_IMPORTANT."
2838.1 "6407_7-2"  74.0500 "Sandstone" "Claystone" -999.25    50.0000 50.00000      0.0 "vf/f"         "silt/vf" "Prograding_fluvildominated_mouthbars._Deepwater_conditions_at_base."                                               "MAINLY_PROXIMAL_FLUVIAL_DOMINATED_DELTA_FRONT_SEDIMENTS,_SUBJECTED_TO_FREQUENT_SHIFTS_OF_DEPOCENTERS_AND_FLUCTUATING_DISCHARGE._LOW_DEGREE_OF_BASINAL_REWORKING._HIGH_INFLUX_OF_FRESH_WATER._VERTICAL_AGGRADATION_IMPORTANT."
2838.2 "6407_7-2"  81.4500 "Sandstone" "Claystone" -999.25    50.0000 50.00000      0.0 "vf/f"         "silt/vf" "Prograding_fluvildominated_mouthbars._Deepwater_conditions_at_base."                                               "MAINLY_PROXIMAL_FLUVIAL_DOMINATED_DELTA_FRONT_SEDIMENTS,_SUBJECTED_TO_FREQUENT_SHIFTS_OF_DEPOCENTERS_AND_FLUCTUATING_DISCHARGE._LOW_DEGREE_OF_BASINAL_REWORKING._HIGH_INFLUX_OF_FRESH_WATER._VERTICAL_AGGRADATION_IMPORTANT."
2838.3 "6407_7-2"  81.8600 "Sandstone" "Claystone" -999.25    50.0000 50.00000      0.0 "vf/f"         "silt/vf" "Prograding_fluvildominated_mouthbars._Deepwater_conditions_at_base."                                               "MAINLY_PROXIMAL_FLUVIAL_DOMINATED_DELTA_FRONT_SEDIMENTS,_SUBJECTED_TO_FREQUENT_SHIFTS_OF_DEPOCENTERS_AND_FLUCTUATING_DISCHARGE._LOW_DEGREE_OF_BASINAL_REWORKING._HIGH_INFLUX_OF_FRESH_WATER._VERTICAL_AGGRADATION_IMPORTANT."
2838.4 "6407_7-2"  81.3500 "Sandstone" "Claystone" -999.25    50.0000 50.00000      0.0 "vf/f"         "silt/vf" "Prograding_fluvildominated_mouthbars._Deepwater_conditions_at_base."                                               "MAINLY_PROXIMAL_FLUVIAL_DOMINATED_DELTA_FRONT_SEDIMENTS,_SUBJECTED_TO_FREQUENT_SHIFTS_OF_DEPOCENTERS_AND_FLUCTUATING_DISCHARGE._LOW_DEGREE_OF_BASINAL_REWORKING._HIGH_INFLUX_OF_FRESH_WATER._VERTICAL_AGGRADATION_IMPORTANT."
2838.5 "6407_7-2"  78.7400 "Sandstone" "Claystone" -999.25    50.0000 50.00000      0.0 "vf/f"         "silt/vf" "Prograding_fluvildominated_mouthbars._Deepwater_conditions_at_base."                                               "MAINLY_PROXIMAL_FLUVIAL_DOMINATED_DELTA_FRONT_SEDIMENTS,_SUBJECTED_TO_FREQUENT_SHIFTS_OF_DEPOCENTERS_AND_FLUCTUATING_DISCHARGE._LOW_DEGREE_OF_BASINAL_REWORKING._HIGH_INFLUX_OF_FRESH_WATER._VERTICAL_AGGRADATION_IMPORTANT."
