~Version
VERS  .                                 3.0 : CWLS LAS ASCII Standard - Version 3.0
WRAP  . NO                                  : One line per depth step
DLM   . SPACE                               : Column data section delimiter
SOURCE. Converted to LAS by Log Studio 4.76 : GeoProvider

~Well
STRT.        1870.00 : Start depth
STOP.        1888.20 : Stop depth
STEP.              1 : Step
NULL.        -999.25 : No-value
COMP.                : Company
WELL. 6407/6-1       : Well
FLD .                : Field
LOC .                : Location
LATI.                : Latitude
LONG.                : Longitude
GDAT.                : Geodetic datum
CNTY.                : County
STAT.                : State
CTRY.                : Country
SRVC. GeoProvider AS : Service company
DATE.                : Date
API .                : API number
RUN .                : Run number

~Parameters
WellboreName.  : Wellbore name
RigName     .  : Rig name
StartDate   .  : Start date

~Curves
DEPTH.m            .  : null {F}Depth mMD
Hole_ID.-          .  : null {S}Hole ID
GR.API             .  : null {F}Gamma Ray
Lithology1.-       .  : null {S}Lithology 1
Lithology2.-       .  : null {S}Lithology 2
Lithology3.-       .  : null {S}Lithology 3
Lithology1.%       .  : null {F}Lithology 1 percentage
Lithology2.%       .  : null {F}Lithology 2 percentage
Lithology3.%       .  : null {F}Lithology 3 percentage
Grain_size_Top.-   .  : null {S}Grain size at the top 
Grain_size_Base.-  .  : null {S}Grain size at the bottom
Sub_Environment.-  .  : null {S}Sub Environment
Gross_Environment.-.  : null {S}Gross Environment

~Ascii
1870.00 "6407_6-1"  76.9100 "Sandstone" "Claystone" -999.25    95.0000  5.00000      0.0 "m/c"      "m/c"      "Upper_shoreface"                "Prograding_shoreline"
1870.10 "6407_6-1"  77.0300 "Sandstone" "Claystone" -999.25    95.0000  5.00000      0.0 "m/c"      "m/c"      "Upper_shoreface"                "Prograding_shoreline"
1870.20 "6407_6-1"  77.1400 "Sandstone" "Claystone" -999.25    95.0000  5.00000      0.0 "m/c"      "m/c"      "Upper_shoreface"                "Prograding_shoreline"
1870.30 "6407_6-1"  77.2500 "Sandstone" "Claystone" -999.25    95.0000  5.00000      0.0 "m/c"      "m/c"      "Upper_shoreface"                "Prograding_shoreline"
1870.40 "6407_6-1"  77.3600 "Sandstone" "Claystone" -999.25    95.0000  5.00000      0.0 "m/c"      "m/c"      "Upper_shoreface"                "Prograding_shoreline"
1870.50 "6407_6-1"  77.4800 "Sandstone" "Claystone" -999.25    95.0000  5.00000      0.0 "m/c"      "m/c"      "Upper_shoreface"                "Prograding_shoreline"
1870.60 "6407_6-1"  77.3100 "Sandstone" "Claystone" -999.25    92.0000  8.00000      0.0 "vc"       "vc/granule" "Upper_shoreface"                "Prograding_shoreline"
1870.70 "6407_6-1"  76.8500 "Sandstone" "Claystone" -999.25    92.0000  8.00000      0.0 "vc"       "vc/granule" "Upper_shoreface"                "Prograding_shoreline"
1870.80 "6407_6-1"  76.3800 "Sandstone" "Claystone" -999.25    92.0000  8.00000      0.0 "vc"       "vc/granule" "Upper_shoreface"                "Prograding_shoreline"
1870.90 "6407_6-1"  75.9100 "Sandstone" "Claystone" -999.25    92.0000  8.00000      0.0 "vc"       "vc/granule" "Upper_shoreface"                "Prograding_shoreline"
1871.00 "6407_6-1"  75.4400 "Sandstone" "Claystone" -999.25    92.0000  8.00000      0.0 "vc"       "vc/granule" "Upper_shoreface"                "Prograding_shoreline"
1871.10 "6407_6-1"  74.9800 "Sandstone" "Claystone" -999.25    93.0000  7.00000      0.0 "m/c"      "m"        "Upper_shoreface"                "Prograding_shoreline"
1871.20 "6407_6-1"  74.5100 "Sandstone" "Claystone" -999.25    93.0000  7.00000      0.0 "m/c"      "m"        "Upper_shoreface"                "Prograding_shoreline"
1871.30 "6407_6-1"  74.0400 "Sandstone" "Claystone" -999.25    93.0000  7.00000      0.0 "m/c"      "m"        "Upper_shoreface"                "Prograding_shoreline"
1871.40 "6407_6-1"  73.5700 "Sandstone" "Claystone" -999.25    93.0000  7.00000      0.0 "m/c"      "m"        "Upper_shoreface"                "Prograding_shoreline"
1871.50 "6407_6-1"  73.5800 "Sandstone" "Claystone" -999.25    93.0000  7.00000      0.0 "m/c"      "m"        "Upper_shoreface"                "Prograding_shoreline"
1871.60 "6407_6-1"  73.7700 "Sandstone" "Claystone" -999.25    93.0000  7.00000      0.0 "m/c"      "m"        "Upper_shoreface"                "Prograding_shoreline"
1871.70 "6407_6-1"  73.9600 "Sandstone" "Claystone" -999.25    93.0000  7.00000      0.0 "m/c"      "m"        "Upper_shoreface"                "Prograding_shoreline"
1871.80 "6407_6-1"  74.1500 "Sandstone" "Claystone" -999.25    93.0000  7.00000      0.0 "m/c"      "m"        "Upper/Lower_shoreface_transition" "Prograding_shoreline"
1871.90 "6407_6-1"  74.3400 "Sandstone" "Claystone" -999.25    93.0000  7.00000      0.0 "m/c"      "m"        "Upper/Lower_shoreface_transition" "Prograding_shoreline"
1872.00 "6407_6-1"  74.5300 -999.25   -999.25   -999.25   100.0000      0.0      0.0 -999.25    -999.25    "Upper/Lower_shoreface_transition" "Prograding_shoreline"
1872.10 "6407_6-1"  74.4300 -999.25   -999.25   -999.25   100.0000      0.0      0.0 -999.25    -999.25    "Upper/Lower_shoreface_transition" "Prograding_shoreline"
1872.20 "6407_6-1"  74.2900 -999.25   -999.25   -999.25   100.0000      0.0      0.0 -999.25    -999.25    "Upper/Lower_shoreface_transition" "Prograding_shoreline"
1872.30 "6407_6-1"  74.1500 -999.25   -999.25   -999.25   100.0000      0.0      0.0 -999.25    -999.25    "Upper/Lower_shoreface_transition" "Prograding_shoreline"
1872.40 "6407_6-1"  74.0100 -999.25   -999.25   -999.25   100.0000      0.0      0.0 -999.25    -999.25    "Upper/Lower_shoreface_transition" "Prograding_shoreline"
1872.50 "6407_6-1"  73.8700 -999.25   -999.25   -999.25   100.0000      0.0      0.0 -999.25    -999.25    "Upper/Lower_shoreface_transition" "Prograding_shoreline"
1872.60 "6407_6-1"  73.7200 -999.25   -999.25   -999.25   100.0000      0.0      0.0 -999.25    -999.25    "Upper/Lower_shoreface_transition" "Prograding_shoreline"
1872.70 "6407_6-1"  73.5800 -999.25   -999.25   -999.25   100.0000      0.0      0.0 -999.25    -999.25    "Upper/Lower_shoreface_transition" "Prograding_shoreline"
1872.80 "6407_6-1"  73.4400 -999.25   -999.25   -999.25   100.0000      0.0      0.0 -999.25    -999.25    "Upper/Lower_shoreface_transition" "Prograding_shoreline"
1872.90 "6407_6-1"  73.3000 -999.25   -999.25   -999.25   100.0000      0.0      0.0 -999.25    -999.25    "Upper/Lower_shoreface_transition" "Prograding_shoreline"
1873.00 "6407_6-1"  73.1600 -999.25   -999.25   -999.25   100.0000      0.0      0.0 -999.25    -999.25    "Upper/Lower_shoreface_transition" "Prograding_shoreline"
1873.10 "6407_6-1"  73.5600 -999.25   -999.25   -999.25   100.0000      0.0      0.0 -999.25    -999.25    "Upper/Lower_shoreface_transition" "Prograding_shoreline"
1873.10 "6407_6-1"  74.9400 "Sandstone" "Limestone" "Claystone"  87.0000 10.00000 3.000000 "m"        "m"        "Upper/Lower_shoreface_transition" "Prograding_shoreline"
1873.20 "6407_6-1"  76.3200 "Sandstone" "Limestone" "Claystone"  87.0000 10.00000 3.000000 "m"        "m"        "Upper/Lower_shoreface_transition" "Prograding_shoreline"
1873.30 "6407_6-1"  77.7100 "Sandstone" "Limestone" "Claystone"  87.0000 10.00000 3.000000 "m"        "m"        "Upper/Lower_shoreface_transition" "Prograding_shoreline"
1873.40 "6407_6-1"  80.6300 "Sandstone" "Limestone" "Claystone"  87.0000 10.00000 3.000000 "m"        "m"        "Upper/Lower_shoreface_transition" "Prograding_shoreline"
1873.50 "6407_6-1"  83.8200 "Sandstone" "Limestone" "Claystone"  87.0000 10.00000 3.000000 "m"        "m"        "Upper/Lower_shoreface_transition" "Prograding_shoreline"
1873.60 "6407_6-1"  87.0000 "Sandstone" "Limestone" "Claystone"  87.0000 10.00000 3.000000 "m"        "m"        "Upper/Lower_shoreface_transition" "Prograding_shoreline"
1873.70 "6407_6-1"  89.1300 "Sandstone" "Limestone" "Claystone"  87.0000 10.00000 3.000000 "m"        "m"        "Upper/Lower_shoreface_transition" "Prograding_shoreline"
1873.80 "6407_6-1"  89.2900 "Sandstone" "Limestone" "Claystone"  87.0000 10.00000 3.000000 "m"        "m"        "Upper/Lower_shoreface_transition" "Prograding_shoreline"
1873.90 "6407_6-1"  89.4400 "Sandstone" "Limestone" "Claystone"  87.0000 10.00000 3.000000 "m"        "m"        "Upper/Lower_shoreface_transition" "Prograding_shoreline"
1874.00 "6407_6-1"  88.8000 "Sandstone" "Limestone" "Claystone"  87.0000 10.00000 3.000000 "m"        "m"        "Upper/Lower_shoreface_transition" "Prograding_shoreline"
1874.10 "6407_6-1"  88.1700 "Sandstone" "Limestone" "Claystone"  87.0000 10.00000 3.000000 "m"        "m"        "Upper/Lower_shoreface_transition" "Prograding_shoreline"
1874.20 "6407_6-1"  87.5300 "Sandstone" "Limestone" "Claystone"  87.0000 10.00000 3.000000 "m"        "m"        "Upper/Lower_shoreface_transition" "Prograding_shoreline"
1874.30 "6407_6-1"  86.8900 "Sandstone" "Limestone" "Claystone"  87.0000 10.00000 3.000000 "m"        "m"        "Upper/Lower_shoreface_transition" "Prograding_shoreline"
1874.40 "6407_6-1"  86.2500 "Sandstone" "Limestone" "Claystone"  87.0000 10.00000 3.000000 "m"        "m"        "Upper/Lower_shoreface_transition" "Prograding_shoreline"
1874.50 "6407_6-1"  85.6200 "Sandstone" "Limestone" "Claystone"  87.0000 10.00000 3.000000 "m"        "m"        "Upper/Lower_shoreface_transition" "Prograding_shoreline"
1874.60 "6407_6-1"  84.9800 "Sandstone" "Limestone" "Claystone"  87.0000 10.00000 3.000000 "m"        "m"        "Upper/Lower_shoreface_transition" "Prograding_shoreline"
