~Version
VERS  .                                 3.0 : CWLS LAS ASCII Standard - Version 3.0
WRAP  . NO                                  : One line per depth step
DLM   . SPACE                               : Column data section delimiter
SOURCE. Converted to LAS by Log Studio 4.76 : GeoProvider

~Well
STRT.        1870.00 : Start depth
STOP.        1888.20 : Stop depth
STEP.              1 : Step
NULL.        -999.25 : No-value
COMP.                : Company
WELL. 6407/6-1       : Well
FLD .                : Field
LOC .                : Location
LATI.                : Latitude
LONG.                : Longitude
GDAT.                : Geodetic datum
CNTY.                : County
STAT.                : State
CTRY.                : Country
SRVC. GeoProvider AS : Service company
DATE.                : Date
API .                : API number
RUN .                : Run number

~Parameters
WellboreName.  : Wellbore name
RigName     .  : Rig name
StartDate   .  : Start date

~Curves
DEPTH.m            .  : null {F}Depth mMD
Hole_ID.-          .  : null {S}Hole ID
GR.API             .  : null {F}Gamma Ray
Lithology1.-       .  : null {S}Lithology 1
Lithology2.-       .  : null {S}Lithology 2
Lithology3.-       .  : null {S}Lithology 3
Lithology1.%       .  : null {F}Lithology 1 percentage
Lithology2.%       .  : null {F}Lithology 2 percentage
Lithology3.%       .  : null {F}Lithology 3 percentage
Grain_size_Top.-   .  : null {S}Grain size at the top 
Grain_size_Base.-  .  : null {S}Grain size at the bottom
Sub_Environment.-  .  : null {S}Sub Environment
Gross_Environment.-.  : null {S}Gross Environment

~Ascii
# ...
1874.70 "6407_6-1"  84.3400 "Sandstone" "Limestone" "Claystone"  87.0000 10.00000 3.000000 "m"        "m"        "Upper/Lower_shoreface_transition" "Prograding_shoreline"
1874.80 "6407_6-1"  84.4900 "Sandstone" "Limestone" "Claystone"  87.0000 10.00000 3.000000 "m"        "m"        "Upper/Lower_shoreface_transition" "Prograding_shoreline"
1874.90 "6407_6-1"  84.7800 "Sandstone" "Limestone" "Claystone"  87.0000 10.00000 3.000000 "m"        "m"        "Upper/Lower_shoreface_transition" "Prograding_shoreline"
1875.00 "6407_6-1"  85.0800 "Sandstone" "Limestone" "Claystone"  87.0000 10.00000 3.000000 "m"        "m"        "Upper/Lower_shoreface_transition" "Prograding_shoreline"
1875.10 "6407_6-1"  85.3800 "Sandstone" "Limestone" "Claystone"  87.0000 10.00000 3.000000 "m"        "m"        "Transgression"                  "Prograding_shoreline"
1875.20 "6407_6-1"  85.6800 "Sandstone" "Limestone" "Claystone"  87.0000 10.00000 3.000000 "m"        "m"        "Transgression"                  "Prograding_shoreline"
1875.30 "6407_6-1"  85.9700 "Sandstone" "Limestone" "Claystone"  87.0000 10.00000 3.000000 "m"        "m"        "Transgression"                  "Prograding_shoreline"
1875.40 "6407_6-1"  86.2700 "Sandstone" "Limestone" "Claystone"  87.0000 10.00000 3.000000 "m"        "m"        "Transgression"                  "Prograding_shoreline"
1875.50 "6407_6-1"  86.5700 "Sandstone" "Limestone" "Claystone"  87.0000 10.00000 3.000000 "m"        "m"        "Transgression"                  "Prograding_shoreline"
1875.60 "6407_6-1"  86.7900 "Sandstone" "Limestone" "Claystone"  87.0000 10.00000 3.000000 "m"        "m"        "Transgression"                  "Prograding_shoreline"
1875.70 "6407_6-1"  86.1600 "Sandstone" "Limestone" "Claystone"  87.0000 10.00000 3.000000 "m"        "m"        "Transgression"                  "Prograding_shoreline"
1875.80 "6407_6-1"  85.5200 "Sandstone" "Limestone" "Claystone"  87.0000 10.00000 3.000000 "m"        "m"        "Transgression"                  "Prograding_shoreline"
1875.90 "6407_6-1"  84.8800 "Sandstone" "Limestone" "Claystone"  87.0000 10.00000 3.000000 "m"        "m"        "Transgression"                  "Prograding_shoreline"
1876.00 "6407_6-1"  84.2500 "Sandstone" "Limestone" "Claystone"  87.0000 10.00000 3.000000 "m"        "m"        "Transgression"                  "Prograding_shoreline"
1876.10 "6407_6-1"  83.2200 "Sandstone" "Limestone" "Claystone"  87.0000 10.00000 3.000000 "m"        "m"        "Transgression"                  "Prograding_shoreline"
1876.20 "6407_6-1"  81.6300 "Sandstone" "Limestone" "Claystone"  87.0000 10.00000 3.000000 "m"        "m"        "Upper_shoreface"                "Prograding_shoreline"
1876.30 "6407_6-1"  80.0400 "Sandstone" "Limestone" "Claystone"  87.0000 10.00000 3.000000 "m"        "m"        "Upper_shoreface"                "Prograding_shoreline"
1876.40 "6407_6-1"  78.4400 "Sandstone" "Limestone" "Claystone"  87.0000 10.00000 3.000000 "m"        "m"        "Upper_shoreface"                "Prograding_shoreline"
1876.50 "6407_6-1"  76.8500 "Sandstone" "Limestone" "Claystone"  87.0000 10.00000 3.000000 "m"        "m"        "Upper_shoreface"                "Prograding_shoreline"
1876.60 "6407_6-1"  77.1900 "Sandstone" -999.25   -999.25   100.0000      0.0      0.0 "vc"       "vc"       "Upper_shoreface"                "Prograding_shoreline"
1876.70 "6407_6-1"  78.2600 "Sandstone" -999.25   -999.25   100.0000      0.0      0.0 "vc"       "vc"       "Upper_shoreface"                "Prograding_shoreline"
1876.80 "6407_6-1"  79.3200 "Sandstone" -999.25   -999.25   100.0000      0.0      0.0 "vc"       "vc"       "Upper_shoreface"                "Prograding_shoreline"
1876.90 "6407_6-1"  80.3800 "Sandstone" -999.25   -999.25   100.0000      0.0      0.0 "vc"       "vc"       "Upper_shoreface"                "Prograding_shoreline"
1877.00 "6407_6-1"  81.4400 "Sandstone" -999.25   -999.25   100.0000      0.0      0.0 "vc"       "vc"       "Upper_shoreface"                "Prograding_shoreline"
1877.10 "6407_6-1"  83.5700 "Sandstone" -999.25   -999.25   100.0000      0.0      0.0 "vc"       "vc"       "Upper_shoreface"                "Prograding_shoreline"
1877.20 "6407_6-1"  86.8800 "Sandstone" -999.25   -999.25   100.0000      0.0      0.0 "vc"       "vc"       "Upper_shoreface"                "Prograding_shoreline"
1877.30 "6407_6-1"  90.2000 "Sandstone" -999.25   -999.25   100.0000      0.0      0.0 "vc"       "vc"       "Upper_shoreface"                "Prograding_shoreline"
1877.40 "6407_6-1"  92.6700 -999.25   -999.25   -999.25   100.0000      0.0      0.0 -999.25    -999.25    "Upper_shoreface"                "Prograding_shoreline"
1877.50 "6407_6-1"  94.4500 -999.25   -999.25   -999.25   100.0000      0.0      0.0 -999.25    -999.25    "Upper_shoreface"                "Prograding_shoreline"
1877.60 "6407_6-1"  96.2400 -999.25   -999.25   -999.25   100.0000      0.0      0.0 -999.25    -999.25    "Upper_shoreface"                "Prograding_shoreline"
1877.70 "6407_6-1"  96.5900 "Sandstone" -999.25   -999.25   100.0000      0.0      0.0 "granule"  "vc"       "Upper_shoreface"                "Prograding_shoreline"
1877.80 "6407_6-1"  96.1200 "Sandstone" -999.25   -999.25   100.0000      0.0      0.0 "granule"  "vc"       "Upper_shoreface"                "Prograding_shoreline"
1877.90 "6407_6-1"  95.6400 "Sandstone" -999.25   -999.25   100.0000      0.0      0.0 "granule"  "vc"       "Upper_shoreface"                "Prograding_shoreline"
1878.00 "6407_6-1"  95.1600 "Sandstone" -999.25   -999.25   100.0000      0.0      0.0 "granule"  "vc"       "Upper_shoreface"                "Prograding_shoreline"
1878.10 "6407_6-1"  94.6800 "Sandstone" -999.25   -999.25   100.0000      0.0      0.0 "granule"  "vc"       "Upper_shoreface"                "Prograding_shoreline"
1878.20 "6407_6-1"  94.2000 "Sandstone" -999.25   -999.25   100.0000      0.0      0.0 "granule"  "vc"       "Upper_shoreface"                "Prograding_shoreline"
1878.30 "6407_6-1"  93.7200 "Sandstone" -999.25   -999.25   100.0000      0.0      0.0 "granule"  "vc"       "Upper_shoreface"                "Prograding_shoreline"
1878.40 "6407_6-1"  93.9600 "Sandstone" -999.25   -999.25   100.0000      0.0      0.0 "granule"  "vc"       "Upper_shoreface"                "Prograding_shoreline"
1878.50 "6407_6-1"  94.6400 "Sandstone" -999.25   -999.25   100.0000      0.0      0.0 "granule"  "vc"       "Upper_shoreface"                "Prograding_shoreline"
1878.60 "6407_6-1"  95.3100 "Sandstone" -999.25   -999.25   100.0000      0.0      0.0 "granule"  "vc"       "Upper_shoreface"                "Prograding_shoreline"
1878.70 "6407_6-1"  95.9900 "Sandstone" -999.25   -999.25   100.0000      0.0      0.0 "granule"  "vc"       "Upper_shoreface"                "Prograding_shoreline"
1878.80 "6407_6-1"  96.6600 "Sandstone" -999.25   -999.25   100.0000      0.0      0.0 "granule"  "vc"       "Upper_shoreface"                "Prograding_shoreline"
1878.90 "6407_6-1"  97.3400 "Sandstone" -999.25   -999.25   100.0000      0.0      0.0 "granule"  "c"        "Upper_shoreface"                "Prograding_shoreline"
1879.00 "6407_6-1"  98.0100 "Sandstone" -999.25   -999.25   100.0000      0.0      0.0 "granule"  "c"        "Upper_shoreface"                "Prograding_shoreline"
1879.10 "6407_6-1"  98.6900 "Sandstone" -999.25   -999.25   100.0000      0.0      0.0 "granule"  "c"        "Upper_shoreface"                "Prograding_shoreline"
1879.20 "6407_6-1"  99.3600 "Sandstone" -999.25   -999.25   100.0000      0.0      0.0 "granule"  "c"        "Upper_shoreface"                "Prograding_shoreline"
1879.30 "6407_6-1" 100.0400 "Sandstone" -999.25   -999.25   100.0000      0.0      0.0 "granule"  "c"        "Upper_shoreface"                "Prograding_shoreline"
1879.40 "6407_6-1"  99.6400 "Sandstone" -999.25   -999.25   100.0000      0.0      0.0 "granule"  "c"        "Upper/Lower_shoreface_transition" "Prograding_shoreline"
