~Version
VERS  .                                 3.0 : CWLS LAS ASCII Standard - Version 3.0
WRAP  . NO                                  : One line per depth step
DLM   . SPACE                               : Column data section delimiter
SOURCE. Converted to LAS by Log Studio 4.76 : GeoProvider

~Well
STRT.        1870.00 : Start depth
STOP.        1888.20 : Stop depth
STEP.              1 : Step
NULL.        -999.25 : No-value
COMP.                : Company
WELL. 6407/6-1       : Well
FLD .                : Field
LOC .                : Location
LATI.                : Latitude
LONG.                : Longitude
GDAT.                : Geodetic datum
CNTY.                : County
STAT.                : State
CTRY.                : Country
SRVC. GeoProvider AS : Service company
DATE.                : Date
API .                : API number
RUN .                : Run number

~Parameters
WellboreName.  : Wellbore name
RigName     .  : Rig name
StartDate   .  : Start date

~Curves
DEPTH.m            .  : null {F}Depth mMD
Hole_ID.-          .  : null {S}Hole ID
GR.API             .  : null {F}Gamma Ray
Lithology1.-       .  : null {S}Lithology 1
Lithology2.-       .  : null {S}Lithology 2
Lithology3.-       .  : null {S}Lithology 3
Lithology1.%       .  : null {F}Lithology 1 percentage
Lithology2.%       .  : null {F}Lithology 2 percentage
Lithology3.%       .  : null {F}Lithology 3 percentage
Grain_size_Top.-   .  : null {S}Grain size at the top 
Grain_size_Base.-  .  : null {S}Grain size at the bottom
Sub_Environment.-  .  : null {S}Sub Environment
Gross_Environment.-.  : null {S}Gross Environment

~Ascii
# ...
1879.50 "6407_6-1"  98.7700 "Sandstone" -999.25   -999.25   100.0000      0.0      0.0 "granule"  "c"        "Upper/Lower_shoreface_transition" "Prograding_shoreline"
1879.60 "6407_6-1"  97.9100 "Sandstone" -999.25   -999.25   100.0000  8.00000      0.0 "m"        "m"        "Upper/Lower_shoreface_transition" "Prograding_shoreline"
1879.70 "6407_6-1"  97.0400 "Sandstone" -999.25   -999.25   100.0000  8.00000      0.0 "m"        "m"        "Upper/Lower_shoreface_transition" "Prograding_shoreline"
1879.80 "6407_6-1"  96.1700 "Sandstone" -999.25   -999.25   100.0000  8.00000      0.0 "m"        "m"        "Upper/Lower_shoreface_transition" "Prograding_shoreline"
1879.90 "6407_6-1"  95.3000 "Sandstone" -999.25   -999.25   100.0000  8.00000      0.0 "m"        "m"        "Upper/Lower_shoreface_transition" "Prograding_shoreline"
1880.00 "6407_6-1"  94.4000 "Sandstone" -999.25   -999.25   100.0000  8.00000      0.0 "m"        "m"        "Upper/Lower_shoreface_transition" "Prograding_shoreline"
1880.10 "6407_6-1"  93.4300 "Sandstone" -999.25   -999.25   100.0000  8.00000      0.0 "m"        "m"        "Upper/Lower_shoreface_transition" "Prograding_shoreline"
1880.20 "6407_6-1"  92.4600 "Sandstone" -999.25   -999.25   100.0000  8.00000      0.0 "m"        "m"        "Upper/Lower_shoreface_transition" "Prograding_shoreline"
1880.30 "6407_6-1"  91.4900 "Sandstone" -999.25   -999.25   100.0000  8.00000      0.0 "m"        "m"        "Upper/Lower_shoreface_transition" "Prograding_shoreline"
1880.40 "6407_6-1"  90.5200 "Sandstone" -999.25   -999.25   100.0000  8.00000      0.0 "m"        "m"        "Upper/Lower_shoreface_transition" "Prograding_shoreline"
1880.50 "6407_6-1"  89.5400 "Sandstone" -999.25   -999.25   100.0000  8.00000      0.0 "m"        "m"        "Upper/Lower_shoreface_transition" "Prograding_shoreline"
1880.60 "6407_6-1"  88.5700 "Sandstone" -999.25   -999.25   100.0000  8.00000      0.0 "m"        "m"        "Upper/Lower_shoreface_transition" "Prograding_shoreline"
1880.70 "6407_6-1"  87.6000 "Sandstone" -999.25   -999.25   100.0000  8.00000      0.0 "m"        "m"        "Upper/Lower_shoreface_transition" "Prograding_shoreline"
1880.80 "6407_6-1"  86.6300 "Sandstone" -999.25   -999.25   100.0000  8.00000      0.0 "m"        "m"        "Upper/Lower_shoreface_transition" "Prograding_shoreline"
1880.90 "6407_6-1"  85.6600 "Sandstone" -999.25   -999.25   100.0000  8.00000      0.0 "m"        "m"        "Upper/Lower_shoreface_transition" "Prograding_shoreline"
1881.00 "6407_6-1"  84.6900 "Sandstone" -999.25   -999.25   100.0000  8.00000      0.0 "m"        "m"        "Upper/Lower_shoreface_transition" "Prograding_shoreline"
1881.10 "6407_6-1"  83.7200 "Sandstone" -999.25   -999.25   100.0000  8.00000      0.0 "m"        "m"        "Upper/Lower_shoreface_transition" "Prograding_shoreline"
1881.20 "6407_6-1"  82.7500 "Sandstone" -999.25   -999.25   100.0000  8.00000      0.0 "m"        "m"        "Transgression"                  "Prograding_shoreline"
1881.30 "6407_6-1"  82.7500 "Sandstone" -999.25   -999.25   100.0000  8.00000      0.0 "m"        "m"        "Transgression"                  "Prograding_shoreline"
1881.40 "6407_6-1"  82.7500 "Sandstone" -999.25   -999.25   100.0000  8.00000      0.0 "m"        "m"        "Transgression"                  "Prograding_shoreline"
1881.50 "6407_6-1"  82.7500 "Sandstone" -999.25   -999.25   100.0000  8.00000      0.0 "m"        "m"        "Transgression"                  "Prograding_shoreline"
1881.60 "6407_6-1"  82.7500 "Sandstone" -999.25   -999.25   100.0000  8.00000      0.0 "m"        "m"        "Transgression"                  "Prograding_shoreline"
1881.70 "6407_6-1"  84.2500 "Sandstone" -999.25   -999.25   100.0000  8.00000      0.0 "m"        "m"        "Transgression"                  "Prograding_shoreline"
1881.80 "6407_6-1"  85.9000 "Sandstone" -999.25   -999.25   100.0000  8.00000      0.0 "m"        "m"        "Transgression"                  "Prograding_shoreline"
1881.90 "6407_6-1"  87.5500 "Sandstone" -999.25   -999.25   100.0000  8.00000      0.0 "m"        "m"        "Transgression"                  "Prograding_shoreline"
1882.00 "6407_6-1"  89.1900 "Sandstone" -999.25   -999.25   100.0000  8.00000      0.0 "m"        "m"        "Transgression"                  "Prograding_shoreline"
1882.10 "6407_6-1"  90.8400 "Sandstone" "Coal"    -999.25    92.0000  8.00000      0.0 "m"        "m"        "Transgression"                  "Prograding_shoreline"
1882.20 "6407_6-1"  92.4900 "Sandstone" "Coal"    -999.25    92.0000  8.00000      0.0 "m"        "m"        "Transgression"                  "Prograding_shoreline"
1882.30 "6407_6-1"  94.1300 "Sandstone" "Coal"    -999.25    92.0000  8.00000      0.0 "m"        "m"        "Upper_shoreface/_Foreshore"     "Prograding_shoreline"
1882.40 "6407_6-1"  93.8600 "Sandstone" "Coal"    -999.25    92.0000  8.00000      0.0 "m"        "m"        "Upper_shoreface/_Foreshore"     "Prograding_shoreline"
1882.50 "6407_6-1"  93.3800 "Sandstone" "Coal"    -999.25    92.0000  8.00000      0.0 "m"        "m"        "Upper_shoreface/_Foreshore"     "Prograding_shoreline"
1882.60 "6407_6-1"  92.4000 "Sandstone" -999.25   -999.25   100.0000      0.0      0.0 "c/vc"     "c/vc"     "Upper_shoreface/_Foreshore"     "Prograding_shoreline"
1882.70 "6407_6-1"  91.0500 "Sandstone" -999.25   -999.25   100.0000      0.0      0.0 "c/vc"     "c/vc"     "Upper_shoreface/_Foreshore"     "Prograding_shoreline"
1882.80 "6407_6-1"  89.6900 "Sandstone" -999.25   -999.25   100.0000      0.0      0.0 "c/vc"     "c/vc"     "Upper_shoreface/_Foreshore"     "Prograding_shoreline"
1882.90 "6407_6-1"  88.3400 "Sandstone" -999.25   -999.25   100.0000      0.0      0.0 "c/vc"     "c/vc"     "Upper_shoreface/_Foreshore"     "Prograding_shoreline"
1883.00 "6407_6-1"  86.9800 "Sandstone" -999.25   -999.25   100.0000      0.0      0.0 "c/vc"     "c/vc"     "Upper_shoreface/_Foreshore"     "Prograding_shoreline"
1883.10 "6407_6-1"  86.2700 -999.25   -999.25   -999.25   100.0000      0.0      0.0 -999.25    -999.25    "Upper_shoreface/_Foreshore"     "Prograding_shoreline"
1883.20 "6407_6-1"  85.6300 -999.25   -999.25   -999.25   100.0000      0.0      0.0 -999.25    -999.25    "Upper_shoreface/_Foreshore"     "Prograding_shoreline"
1883.30 "6407_6-1"  85.0000 "Sandstone" -999.25   -999.25   100.0000      0.0      0.0 "vc/granule" "c/vc"     "Upper_shoreface/_Foreshore"     "Prograding_shoreline"
1883.40 "6407_6-1"  84.3600 "Sandstone" -999.25   -999.25   100.0000      0.0      0.0 "vc/granule" "c/vc"     "Upper_shoreface/_Foreshore"     "Prograding_shoreline"
1883.50 "6407_6-1"  84.3100 "Sandstone" -999.25   -999.25   100.0000      0.0      0.0 "vc/granule" "c/vc"     "Upper_shoreface/_Foreshore"     "Prograding_shoreline"
1883.60 "6407_6-1"  84.4000 "Sandstone" -999.25   -999.25   100.0000      0.0      0.0 "vc/granule" "c/vc"     "Upper_shoreface/_Foreshore"     "Prograding_shoreline"
1883.70 "6407_6-1"  84.4900 "Sandstone" -999.25   -999.25   100.0000      0.0      0.0 "vc/granule" "c/vc"     "Upper_shoreface/_Foreshore"     "Prograding_shoreline"
1883.80 "6407_6-1"  84.5800 "Sandstone" -999.25   -999.25   100.0000      0.0      0.0 "vc/granule" "c/vc"     "Upper_shoreface/_Foreshore"     "Prograding_shoreline"
1883.90 "6407_6-1"  85.8600 "Sandstone" -999.25   -999.25   100.0000      0.0      0.0 "vc/granule" "c/vc"     "Upper_shoreface/_Foreshore"     "Prograding_shoreline"
1884.00 "6407_6-1"  87.6000 "Sandstone" -999.25   -999.25   100.0000      0.0      0.0 "m/c"      "m/c"      "Upper_shoreface/_Foreshore"     "Prograding_shoreline"
1884.10 "6407_6-1"  89.3400 "Sandstone" -999.25   -999.25   100.0000      0.0      0.0 "m/c"      "m/c"      "Upper_shoreface/_Foreshore"     "Prograding_shoreline"
1884.20 "6407_6-1"  91.0700 "Sandstone" -999.25   -999.25   100.0000      0.0      0.0 "m/c"      "m/c"      "Upper_shoreface/_Foreshore"     "Prograding_shoreline"
1884.30 "6407_6-1"  92.8100 "Sandstone" -999.25   -999.25   100.0000      0.0      0.0 "m/c"      "m/c"      "Upper_shoreface/_Foreshore"     "Prograding_shoreline"
