~Version
VERS  .                                 3.0 : CWLS LAS ASCII Standard - Version 3.0
WRAP  . NO                                  : One line per depth step
DLM   . SPACE                               : Column data section delimiter
SOURCE. Converted to LAS by Log Studio 4.76 : GeoProvider

~Well
STRT.        1870.00 : Start depth
STOP.        1888.20 : Stop depth
STEP.              1 : Step
NULL.        -999.25 : No-value
COMP.                : Company
WELL. 6407/6-1       : Well
FLD .                : Field
LOC .                : Location
LATI.                : Latitude
LONG.                : Longitude
GDAT.                : Geodetic datum
CNTY.                : County
STAT.                : State
CTRY.                : Country
SRVC. GeoProvider AS : Service company
DATE.                : Date
API .                : API number
RUN .                : Run number

~Parameters
WellboreName.  : Wellbore name
RigName     .  : Rig name
StartDate   .  : Start date

~Curves
DEPTH.m            .  : null {F}Depth mMD
Hole_ID.-          .  : null {S}Hole ID
GR.API             .  : null {F}Gamma Ray
Lithology1.-       .  : null {S}Lithology 1
Lithology2.-       .  : null {S}Lithology 2
Lithology3.-       .  : null {S}Lithology 3
Lithology1.%       .  : null {F}Lithology 1 percentage
Lithology2.%       .  : null {F}Lithology 2 percentage
Lithology3.%       .  : null {F}Lithology 3 percentage
Grain_size_Top.-   .  : null {S}Grain size at the top 
Grain_size_Base.-  .  : null {S}Grain size at the bottom
Sub_Environment.-  .  : null {S}Sub Environment
Gross_Environment.-.  : null {S}Gross Environment

~Ascii
# ...
1884.40 "6407_6-1"  94.5500 "Sandstone" -999.25   -999.25   100.0000      0.0      0.0 "m/c"      "m/c"      "Upper_shoreface/_Foreshore"     "Prograding_shoreline"
1884.50 "6407_6-1"  96.3700 "Sandstone" -999.25   -999.25   100.0000      0.0      0.0 "m/c"      "m/c"      "Upper_shoreface/_Foreshore"     "Prograding_shoreline"
1884.60 "6407_6-1"  98.3700 "Sandstone" -999.25   -999.25   100.0000      0.0      0.0 "m/c"      "m/c"      "Upper_shoreface"                "Prograding_shoreline"
1884.70 "6407_6-1" 100.3700 "Sandstone" -999.25   -999.25   100.0000      0.0      0.0 "m/c"      "m/c"      "Upper_shoreface"                "Prograding_shoreline"
1884.80 "6407_6-1" 102.3800 "Sandstone" -999.25   -999.25   100.0000      0.0      0.0 "m/c"      "m/c"      "Upper_shoreface"                "Prograding_shoreline"
1884.90 "6407_6-1" 104.1200 "Sandstone" -999.25   -999.25   100.0000      0.0      0.0 "m/c"      "m/c"      "Upper_shoreface"                "Prograding_shoreline"
1885.00 "6407_6-1" 104.8700 "Sandstone" -999.25   -999.25   100.0000      0.0      0.0 "m/c"      "m/c"      "Upper_shoreface"                "Prograding_shoreline"
1885.10 "6407_6-1" 105.6100 "Sandstone" -999.25   -999.25   100.0000      0.0      0.0 "m/c"      "m/c"      "Upper_shoreface"                "Prograding_shoreline"
1885.20 "6407_6-1" 106.3500 "Sandstone" -999.25   -999.25   100.0000      0.0      0.0 "m/c"      "m/c"      "Upper_shoreface"                "Prograding_shoreline"
1885.30 "6407_6-1" 107.1000 "Sandstone" -999.25   -999.25   100.0000      0.0      0.0 "m/c"      "m/c"      "Upper_shoreface"                "Prograding_shoreline"
1885.40 "6407_6-1" 107.8400 "Sandstone" -999.25   -999.25   100.0000      0.0      0.0 "m/c"      "m/c"      "Upper_shoreface"                "Prograding_shoreline"
1885.50 "6407_6-1" 108.5800 -999.25   -999.25   -999.25   100.0000      0.0      0.0 -999.25    -999.25    "Upper_shoreface"                "Prograding_shoreline"
1885.60 "6407_6-1" 109.1900 -999.25   -999.25   -999.25   100.0000      0.0      0.0 -999.25    -999.25    "Upper_shoreface"                "Prograding_shoreline"
1885.70 "6407_6-1" 109.2300 -999.25   -999.25   -999.25   100.0000      0.0      0.0 -999.25    -999.25    "Upper_shoreface"                "Prograding_shoreline"
1885.80 "6407_6-1" 109.2700 -999.25   -999.25   -999.25   100.0000      0.0      0.0 -999.25    -999.25    "Upper_shoreface"                "Prograding_shoreline"
1885.90 "6407_6-1" 109.3100 -999.25   -999.25   -999.25   100.0000      0.0      0.0 -999.25    -999.25    "Lower_shoreface_transition"     "Prograding_shoreline"
1886.00 "6407_6-1" 109.3500 "Sandstone" -999.25   -999.25   100.0000      0.0      0.0 "m/c"      "m/c"      "Lower_shoreface_transition"     "Prograding_shoreline"
1886.10 "6407_6-1" 109.3900 "Sandstone" -999.25   -999.25   100.0000      0.0      0.0 "m/c"      "m/c"      "Lower_shoreface_transition"     "Prograding_shoreline"
1886.20 "6407_6-1" 109.4300 "Sandstone" -999.25   -999.25   100.0000      0.0      0.0 "m/c"      "m/c"      "Lower_shoreface_transition"     "Prograding_shoreline"
1886.30 "6407_6-1" 109.4700 "Sandstone" -999.25   -999.25   100.0000      0.0      0.0 "m/c"      "m/c"      "Lower_shoreface_transition"     "Prograding_shoreline"
1886.40 "6407_6-1" 109.5100 "Sandstone" -999.25   -999.25   100.0000      0.0      0.0 "m/c"      "m/c"      "Lower_shoreface_transition"     "Prograding_shoreline"
1886.50 "6407_6-1" 109.5500 "Sandstone" -999.25   -999.25   100.0000      0.0      0.0 "m/c"      "m/c"      "Lower_shoreface_transition"     "Prograding_shoreline"
1886.60 "6407_6-1" 108.7000 "Sandstone" -999.25   -999.25   100.0000      0.0      0.0 "m/c"      "m/c"      "Lower_shoreface_transition"     "Prograding_shoreline"
1886.70 "6407_6-1" 107.6900 "Sandstone" -999.25   -999.25   100.0000      0.0      0.0 "m/c"      "m/c"      "Lower_shoreface_transition"     "Prograding_shoreline"
1886.80 "6407_6-1" 106.6800 "Sandstone" -999.25   -999.25   100.0000      0.0      0.0 "m/c"      "m/c"      "Lower_shoreface_transition"     "Prograding_shoreline"
1886.90 "6407_6-1" 105.6700 "Sandstone" -999.25   -999.25   100.0000      0.0      0.0 "m/c"      "m/c"      "Lower_shoreface_transition"     "Prograding_shoreline"
1887.00 "6407_6-1" 104.6600 "Sandstone" -999.25   -999.25   100.0000      0.0      0.0 "m/c"      "m/c"      "Lower_shoreface_transition"     "Prograding_shoreline"
1887.10 "6407_6-1" 103.6500 "Sandstone" -999.25   -999.25   100.0000      0.0      0.0 "m/c"      "m/c"      "Lower_shoreface_transition"     "Prograding_shoreline"
1887.20 "6407_6-1" 102.6400 "Sandstone" -999.25   -999.25   100.0000      0.0      0.0 "m/c"      "m/c"      "Lower_shoreface_transition"     "Prograding_shoreline"
1887.30 "6407_6-1" 100.1400 "Sandstone" -999.25   -999.25   100.0000      0.0      0.0 "m/c"      "m/c"      "Lower_shoreface_transition"     "Prograding_shoreline"
1887.40 "6407_6-1"  97.3600 "Sandstone" -999.25   -999.25   100.0000      0.0      0.0 "m/c"      "m/c"      "Lower_shoreface_transition"     "Prograding_shoreline"
1887.50 "6407_6-1"  94.5900 "Sandstone" -999.25   -999.25   100.0000      0.0      0.0 "m/c"      "m/c"      "Lower_shoreface_transition"     "Prograding_shoreline"
1887.60 "6407_6-1"  91.8100 "Sandstone" -999.25   -999.25   100.0000      0.0      0.0 "m/c"      "m/c"      "Lower_shoreface_transition"     "Prograding_shoreline"
1887.70 "6407_6-1"  89.0300 "Sandstone" -999.25   -999.25   100.0000      0.0      0.0 "m/c"      "m/c"      "Lower_shoreface_transition"     "Prograding_shoreline"
1887.80 "6407_6-1"  86.2500 "Sandstone" -999.25   -999.25   100.0000      0.0      0.0 "m/c"      "m/c"      "Lower_shoreface_transition"     "Prograding_shoreline"
1887.90 "6407_6-1"  83.4800 "Sandstone" -999.25   -999.25   100.0000      0.0      0.0 "m/c"      "m/c"      "Lower_shoreface_transition"     "Prograding_shoreline"
1888.00 "6407_6-1"  80.7000 "Sandstone" -999.25   -999.25   100.0000      0.0      0.0 "m/c"      "m/c"      "Lower_shoreface_transition"     "Prograding_shoreline"
1888.10 "6407_6-1"  76.6300 "Sandstone" -999.25   -999.25   100.0000      0.0      0.0 "m/c"      "m/c"      "Lower_shoreface_transition"     "Prograding_shoreline"
1888.20 "6407_6-1"  76.2100 "Sandstone" -999.25   -999.25   100.0000      0.0      0.0 "m/c"      "m/c"      "Lower_shoreface_transition"     "Prograding_shoreline"
