~Version
VERS  .                                 3.0 : CWLS LAS ASCII Standard - Version 3.0
WRAP  . NO                                  : One line per depth step
DLM   . SPACE                               : Column data section delimiter
SOURCE. Converted to LAS by Log Studio 4.76 : GeoProvider

~Well
STRT.    2502.7 : Start depth
STOP.    2543.0 : Stop depth
STEP.         1 : Step
NULL.   -999.25 : No-value
COMP.           : Company
WELL. 6507/11-1 : Well
FLD .           : Field
LOC .           : Location
LATI.           : Latitude
LONG.           : Longitude
GDAT.           : Geodetic datum
CNTY.           : County
STAT.           : State
CTRY.           : Country
SRVC. GeoProvider AS : Service company
DATE.           : Date
API .           : API number
RUN .           : Run number

~Parameters
WellboreName.  : Wellbore name
RigName     .  : Rig name
StartDate   .  : Start date

~Curves
DEPTH.m            .  : null {F}Depth mMD
Hole_ID.-          .  : null {S}Hole ID
GR.API             .  : null {F}Gamma Ray
Lithology1.-       .  : null {S}Lithology 1
Lithology2.-       .  : null {S}Lithology 2
Lithology3.-       .  : null {S}Lithology 3
Lithology1.%       .  : null {F}Lithology 1 percentage
Lithology2.%       .  : null {F}Lithology 2 percentage
Lithology3.%       .  : null {F}Lithology 3 percentage
Grain_size_Top.-   .  : null {S}Grain size at the top 
Grain_size_Base.-  .  : null {S}Grain size at the bottom
Sub_Environment.-  .  : null {S}Sub Environment
Gross_Environment.-.  : null {S}Gross Environment

~Ascii
2502.7 "6507_11-1" 24.10000 "Sandstone" "Shale"   -999.25    50.0000 50.00000      0.0 "silt/vf"  "silt/vf"  "Lav-energi_marin_troling_nedre_strand_skråning."                                           -999.25                                                          
2502.8 "6507_11-1" 23.50000 "Sandstone" "Shale"   -999.25    50.0000 50.00000      0.0 "silt/vf"  "silt/vf"  "Lav-energi_marin_troling_nedre_strand_skråning."                                           -999.25                                                          
2502.9 "6507_11-1" 23.64000 "Sandstone" "Shale"   -999.25    50.0000 50.00000      0.0 "silt/vf"  "silt/vf"  "Lav-energi_marin_troling_nedre_strand_skråning."                                           -999.25                                                          
2503.0 "6507_11-1" 24.34000 "Sandstone" "Shale"   -999.25    50.0000 50.00000      0.0 "silt/vf"  "silt/vf"  "Lav-energi_marin_troling_nedre_strand_skråning."                                           -999.25                                                          
2503.1 "6507_11-1" 24.76000 "Sandstone" "Shale"   -999.25    50.0000 50.00000      0.0 "silt/vf"  "silt/vf"  "Lav-energi_marin_troling_nedre_strand_skråning."                                           -999.25                                                          
2503.2 "6507_11-1" 24.47000 "Sandstone" "Shale"   -999.25    50.0000 50.00000      0.0 "silt/vf"  "silt/vf"  "Lav-energi_marin_troling_nedre_strand_skråning."                                           -999.25                                                          
2503.3 "6507_11-1" 24.17000 "Sandstone" "Shale"   -999.25    50.0000 50.00000      0.0 "silt/vf"  "silt/vf"  "Lav-energi_marin_troling_nedre_strand_skråning."                                           -999.25                                                          
2503.4 "6507_11-1" 23.85000 "Sandstone" "Shale"   -999.25    50.0000 50.00000      0.0 "silt/vf"  "silt/vf"  "Lav-energi_marin_troling_nedre_strand_skråning."                                           -999.25                                                          
2503.5 "6507_11-1" 23.48000 "Sandstone" "Shale"   -999.25    50.0000 50.00000      0.0 "silt/vf"  "silt/vf"  "Lav-energi_marin_troling_nedre_strand_skråning."                                           -999.25                                                          
2503.6 "6507_11-1" 23.11000 "Sandstone" "Shale"   -999.25    50.0000 50.00000      0.0 "silt/vf"  "silt/vf"  "Lav-energi_marin_troling_nedre_strand_skråning."                                           -999.25                                                          
2503.7 "6507_11-1" 22.74000 "Sandstone" "Shale"   -999.25    50.0000 50.00000      0.0 "silt/vf"  "silt/vf"  "Lav-energi_marin_troling_nedre_strand_skråning."                                           -999.25                                                          
2503.8 "6507_11-1" 22.37000 "Sandstone" "Shale"   -999.25    50.0000 50.00000      0.0 "silt/vf"  "silt/vf"  "Lav-energi_marin_troling_nedre_strand_skråning."                                           -999.25                                                          
2503.9 "6507_11-1" 22.00000 "Sandstone" "Shale"   -999.25    50.0000 50.00000      0.0 "silt/vf"  "silt/vf"  "Lav-energi_marin_troling_nedre_strand_skråning."                                           -999.25                                                          
2504.0 "6507_11-1" 22.01000 "Sandstone" "Shale"   -999.25    50.0000 50.00000      0.0 "silt/vf"  "silt/vf"  "Lav-energi_marin_troling_nedre_strand_skråning."                                           -999.25                                                          
2504.1 "6507_11-1" 22.28000 "Sandstone" "Shale"   -999.25    50.0000 50.00000      0.0 "silt/vf"  "silt/vf"  "Lav-energi_marin_troling_nedre_strand_skråning."                                           -999.25                                                          
2504.2 "6507_11-1" 22.75000 "Sandstone" "Shale"   -999.25    50.0000 50.00000      0.0 "silt/vf"  "silt/vf"  "Lav-energi_marin_troling_nedre_strand_skråning."                                           -999.25                                                          
2504.3 "6507_11-1" 23.36000 "Sandstone" "Shale"   -999.25    50.0000 50.00000      0.0 "silt/vf"  "silt/vf"  "Lav-energi_marin_troling_nedre_strand_skråning."                                           -999.25                                                          
2504.4 "6507_11-1" 24.24000 "Sandstone" "Shale"   -999.25    50.0000 50.00000      0.0 "silt/vf"  "silt/vf"  "Lav-energi_marin_troling_nedre_strand_skråning."                                           -999.25                                                          
2504.5 "6507_11-1" 25.12000 "Sandstone" "Shale"   -999.25    50.0000 50.00000      0.0 "silt/vf"  "silt/vf"  "Lav-energi_marin_troling_nedre_strand_skråning."                                           -999.25                                                          
2504.6 "6507_11-1" 26.00000 "Sandstone" "Shale"   -999.25    50.0000 50.00000      0.0 "silt/vf"  "silt/vf"  "Lav-energi_marin_troling_nedre_strand_skråning."                                           -999.25                                                          
2504.7 "6507_11-1" 26.89000 "Limestone" -999.25   -999.25   100.0000      0.0      0.0 "f/m"      "vf"       "Lav-energi_marin_troling_nedre_strand_skråning."                                           -999.25                                                          
2504.8 "6507_11-1" 27.77000 "Limestone" -999.25   -999.25   100.0000      0.0      0.0 "f/m"      "vf"       "Lav-energi_marin_troling_nedre_strand_skråning."                                           -999.25                                                          
2504.9 "6507_11-1" 28.65000 "Limestone" -999.25   -999.25   100.0000      0.0      0.0 "f/m"      "vf"       "Lav-energi_marin_troling_nedre_strand_skråning."                                           -999.25                                                          
2505.0 "6507_11-1" 29.53000 "Sandstone" "Shale"   -999.25    65.0000 35.00000      0.0 "f/m"      "vf"       "Lav-energi_marin_troling_nedre_strand_skråning."                                           -999.25                                                          
2505.1 "6507_11-1" 28.68000 "Sandstone" "Shale"   -999.25    65.0000 35.00000      0.0 "f/m"      "vf"       "Lav-energi_marin_troling_nedre_strand_skråning."                                           -999.25                                                          
2505.2 "6507_11-1" 27.79000 "Sandstone" "Shale"   -999.25    65.0000 35.00000      0.0 "f/m"      "vf"       "Lav-energi_marin_troling_nedre_strand_skråning."                                           -999.25                                                          
2505.3 "6507_11-1" 26.90000 "Sandstone" "Shale"   -999.25    65.0000 35.00000      0.0 "f/m"      "vf"       "Lav-energi_marin_troling_nedre_strand_skråning."                                           -999.25                                                          
2505.4 "6507_11-1" 26.01000 "Sandstone" "Shale"   -999.25    65.0000 35.00000      0.0 "f/m"      "vf"       "Lav-energi_marin_troling_nedre_strand_skråning."                                           -999.25                                                          
2505.5 "6507_11-1" 25.12000 "Sandstone" "Shale"   -999.25    65.0000 35.00000      0.0 "f/m"      "vf"       "Lav-energi_marin_troling_nedre_strand_skråning."                                           -999.25                                                          
2505.6 "6507_11-1" 25.08000 "Sandstone" "Shale"   -999.25    65.0000 35.00000      0.0 "f/m"      "vf"       "Lav-energi_marin_troling_nedre_strand_skråning."                                           -999.25                                                          
