~Version
VERS  .                                 3.0 : CWLS LAS ASCII Standard - Version 3.0
WRAP  . NO                                  : One line per depth step
DLM   . SPACE                               : Column data section delimiter
SOURCE. Converted to LAS by Log Studio 4.76 : GeoProvider

~Well
STRT.    2502.7 : Start depth
STOP.    2543.0 : Stop depth
STEP.         1 : Step
NULL.   -999.25 : No-value
COMP.           : Company
WELL. 6507/11-1 : Well
FLD .           : Field
LOC .           : Location
LATI.           : Latitude
LONG.           : Longitude
GDAT.           : Geodetic datum
CNTY.           : County
STAT.           : State
CTRY.           : Country
SRVC. GeoProvider AS : Service company
DATE.           : Date
API .           : API number
RUN .           : Run number

~Parameters
WellboreName.  : Wellbore name
RigName     .  : Rig name
StartDate   .  : Start date

~Curves
DEPTH.m            .  : null {F}Depth mMD
Hole_ID.-          .  : null {S}Hole ID
GR.API             .  : null {F}Gamma Ray
Lithology1.-       .  : null {S}Lithology 1
Lithology2.-       .  : null {S}Lithology 2
Lithology3.-       .  : null {S}Lithology 3
Lithology1.%       .  : null {F}Lithology 1 percentage
Lithology2.%       .  : null {F}Lithology 2 percentage
Lithology3.%       .  : null {F}Lithology 3 percentage
Grain_size_Top.-   .  : null {S}Grain size at the top 
Grain_size_Base.-  .  : null {S}Grain size at the bottom
Sub_Environment.-  .  : null {S}Sub Environment
Gross_Environment.-.  : null {S}Gross Environment

~Ascii
# ...
2505.7 "6507_11-1" 25.41000 "Sandstone" "Shale"   -999.25    65.0000 35.00000      0.0 "f/m"      "vf"       "Lav-energi_marin_troling_nedre_strand_skråning."                                           -999.25                                                          
2505.8 "6507_11-1" 25.75000 "Sandstone" "Shale"   -999.25    65.0000 35.00000      0.0 "f/m"      "vf"       "Lav-energi_marin_troling_nedre_strand_skråning."                                           -999.25                                                          
2505.9 "6507_11-1" 26.00000 "Sandstone" "Shale"   -999.25    65.0000 35.00000      0.0 "f/m"      "vf"       "Lav-energi_marin_troling_nedre_strand_skråning."                                           -999.25                                                          
2506.0 "6507_11-1" 25.87000 "Sandstone" "Shale"   -999.25    65.0000 35.00000      0.0 "f/m"      "vf"       "Lav-energi_marin_troling_nedre_strand_skråning."                                           -999.25                                                          
2506.1 "6507_11-1" 24.59000 "Sandstone" "Shale"   -999.25    65.0000 35.00000      0.0 "f/m"      "vf"       "Lav-energi_marin_troling_nedre_strand_skråning."                                           -999.25                                                          
2506.2 "6507_11-1" 23.31000 "Sandstone" "Shale"   -999.25    65.0000 35.00000      0.0 "f/m"      "vf"       "Lav-energi_marin_troling_nedre_strand_skråning."                                           -999.25                                                          
2506.3 "6507_11-1" 22.02000 "Sandstone" "Shale"   -999.25    65.0000 35.00000      0.0 "f/m"      "vf"       "Lav-energi_marin_troling_nedre_strand_skråning."                                           -999.25                                                          
2506.4 "6507_11-1" 21.70000 "Sandstone" "Shale"   -999.25    65.0000 35.00000      0.0 "f/m"      "vf"       "Lav-energi_marin_troling_nedre_strand_skråning."                                           -999.25                                                          
2506.5 "6507_11-1" 22.67000 "Sandstone" "Shale"   -999.25    65.0000 35.00000      0.0 "f/m"      "vf"       "Lav-energi_marin_troling_nedre_strand_skråning."                                           -999.25                                                          
2506.6 "6507_11-1" 23.64000 "Sandstone" "Shale"   -999.25    65.0000 35.00000      0.0 "f/m"      "vf"       "Lav-energi_marin_troling_nedre_strand_skråning."                                           -999.25                                                          
2506.7 "6507_11-1" 24.40000 "Sandstone" "Shale"   -999.25    65.0000 35.00000      0.0 "f/m"      "vf"       "Lav-energi_marin_troling_nedre_strand_skråning."                                           -999.25                                                          
2506.8 "6507_11-1" 24.40000 "Sandstone" "Shale"   -999.25    65.0000 35.00000      0.0 "f/m"      "vf"       "Lav-energi_marin_troling_nedre_strand_skråning."                                           -999.25                                                          
2506.9 "6507_11-1" 24.40000 "Sandstone" "Shale"   -999.25    65.0000 35.00000      0.0 "f/m"      "vf"       "Lav-energi_marin_troling_nedre_strand_skråning."                                           -999.25                                                          
2507.0 "6507_11-1" 24.40000 "Sandstone" "Shale"   -999.25    65.0000 35.00000      0.0 "f/m"      "vf"       "Lav-energi_marin_troling_nedre_strand_skråning."                                           -999.25                                                          
2507.1 "6507_11-1" 24.92000 "Sandstone" "Shale"   -999.25    65.0000 35.00000      0.0 "f/m"      "vf"       "Lav-energi_marin_troling_nedre_strand_skråning."                                           -999.25                                                          
2507.2 "6507_11-1" 25.89000 "Sandstone" "Shale"   -999.25    65.0000 35.00000      0.0 "f/m"      "vf"       "TRANSGRESJON"                                                                              -999.25                                                          
2507.3 "6507_11-1" 26.85000 "Sandstone" "Shale"   -999.25    65.0000 35.00000      0.0 "f/m"      "vf"       "TRANSGRESJON"                                                                              -999.25                                                          
2507.4 "6507_11-1" 27.82000 "Sandstone" "Shale"   -999.25    65.0000 35.00000      0.0 "f/m"      "vf"       "TRANSGRESJON"                                                                              -999.25                                                          
2507.5 "6507_11-1" 28.79000 "Sandstone" "Shale"   -999.25    65.0000 35.00000      0.0 "f/m"      "vf"       "TRANSGRESJON"                                                                              -999.25                                                          
2507.6 "6507_11-1" 29.76000 "Sandstone" "Shale"   -999.25    65.0000 35.00000      0.0 "f/m"      "vf"       "TRANSGRESJON"                                                                              -999.25                                                          
2507.7 "6507_11-1" 30.72000 "Sandstone" "Shale"   -999.25    65.0000 35.00000      0.0 "f/m"      "vf"       "TRANSGRESJON"                                                                              -999.25                                                          
2507.8 "6507_11-1" 31.69000 "Sandstone" "Shale"   -999.25    65.0000 35.00000      0.0 "f/m"      "vf"       "TRANSGRESJON"                                                                              -999.25                                                          
2507.9 "6507_11-1" 32.29000 "Sandstone" -999.25   -999.25   100.0000      0.0      0.0 "granule"  "granule"  "Indre_del_av_bukt.__Dominert__av__(?)_tidevanns-kanaler"                                   "BUKTSEKVENS,_TROLIG_I_ET_FLUVIAL-/_TIDEVANNS_DOMINERT_DELTASYSTEM"
2508.0 "6507_11-1" 32.75000 "Sandstone" -999.25   -999.25   100.0000      0.0      0.0 "granule"  "granule"  "Indre_del_av_bukt.__Dominert__av__(?)_tidevanns-kanaler"                                   "BUKTSEKVENS,_TROLIG_I_ET_FLUVIAL-/_TIDEVANNS_DOMINERT_DELTASYSTEM"
2508.1 "6507_11-1" 33.20000 "Sandstone" -999.25   -999.25   100.0000      0.0      0.0 "granule"  "granule"  "Indre_del_av_bukt.__Dominert__av__(?)_tidevanns-kanaler"                                   "BUKTSEKVENS,_TROLIG_I_ET_FLUVIAL-/_TIDEVANNS_DOMINERT_DELTASYSTEM"
2508.2 "6507_11-1" 33.66000 "Sandstone" -999.25   -999.25   100.0000      0.0      0.0 "granule"  "granule"  "Indre_del_av_bukt.__Dominert__av__(?)_tidevanns-kanaler"                                   "BUKTSEKVENS,_TROLIG_I_ET_FLUVIAL-/_TIDEVANNS_DOMINERT_DELTASYSTEM"
2508.3 "6507_11-1" 34.12000 "Sandstone" -999.25   -999.25   100.0000      0.0      0.0 "granule"  "granule"  "Indre_del_av_bukt.__Dominert__av__(?)_tidevanns-kanaler"                                   "BUKTSEKVENS,_TROLIG_I_ET_FLUVIAL-/_TIDEVANNS_DOMINERT_DELTASYSTEM"
2508.4 "6507_11-1" 34.58000 "Sandstone" -999.25   -999.25   100.0000      0.0      0.0 "granule"  "granule"  "Indre_del_av_bukt.__Dominert__av__(?)_tidevanns-kanaler"                                   "BUKTSEKVENS,_TROLIG_I_ET_FLUVIAL-/_TIDEVANNS_DOMINERT_DELTASYSTEM"
2508.5 "6507_11-1" 34.64000 "Sandstone" -999.25   -999.25   100.0000      0.0      0.0 "granule"  "granule"  "Indre_del_av_bukt.__Dominert__av__(?)_tidevanns-kanaler"                                   "BUKTSEKVENS,_TROLIG_I_ET_FLUVIAL-/_TIDEVANNS_DOMINERT_DELTASYSTEM"
2508.6 "6507_11-1" 34.35000 "Sandstone" -999.25   -999.25   100.0000      0.0      0.0 "granule"  "granule"  "Indre_del_av_bukt.__Dominert__av__(?)_tidevanns-kanaler"                                   "BUKTSEKVENS,_TROLIG_I_ET_FLUVIAL-/_TIDEVANNS_DOMINERT_DELTASYSTEM"
