~Version
VERS  .                                 3.0 : CWLS LAS ASCII Standard - Version 3.0
WRAP  . NO                                  : One line per depth step
DLM   . SPACE                               : Column data section delimiter
SOURCE. Converted to LAS by Log Studio 4.76 : GeoProvider

~Well
STRT.    2502.7 : Start depth
STOP.    2543.0 : Stop depth
STEP.         1 : Step
NULL.   -999.25 : No-value
COMP.           : Company
WELL. 6507/11-1 : Well
FLD .           : Field
LOC .           : Location
LATI.           : Latitude
LONG.           : Longitude
GDAT.           : Geodetic datum
CNTY.           : County
STAT.           : State
CTRY.           : Country
SRVC. GeoProvider AS : Service company
DATE.           : Date
API .           : API number
RUN .           : Run number

~Parameters
WellboreName.  : Wellbore name
RigName     .  : Rig name
StartDate   .  : Start date

~Curves
DEPTH.m            .  : null {F}Depth mMD
Hole_ID.-          .  : null {S}Hole ID
GR.API             .  : null {F}Gamma Ray
Lithology1.-       .  : null {S}Lithology 1
Lithology2.-       .  : null {S}Lithology 2
Lithology3.-       .  : null {S}Lithology 3
Lithology1.%       .  : null {F}Lithology 1 percentage
Lithology2.%       .  : null {F}Lithology 2 percentage
Lithology3.%       .  : null {F}Lithology 3 percentage
Grain_size_Top.-   .  : null {S}Grain size at the top 
Grain_size_Base.-  .  : null {S}Grain size at the bottom
Sub_Environment.-  .  : null {S}Sub Environment
Gross_Environment.-.  : null {S}Gross Environment

~Ascii
# ...
2538.7 "6507_11-1" 37.31000 "Sandstone" "Shale"   -999.25    50.0000 50.00000      0.0 "vf"       "f/m"      "Ytre_del_av_bukt_sekvens_(tidevannssand-rygg)_overligger_finkornete_delta-front-avsetninger" "BUKTSEKVENS,_TROLIG_I_ET_FLUVIAL-/_TIDEVANNS_DOMINERT_DELTASYSTEM"
2538.8 "6507_11-1" 36.13000 "Sandstone" "Shale"   -999.25    50.0000 50.00000      0.0 "vf"       "f/m"      "Ytre_del_av_bukt_sekvens_(tidevannssand-rygg)_overligger_finkornete_delta-front-avsetninger" "BUKTSEKVENS,_TROLIG_I_ET_FLUVIAL-/_TIDEVANNS_DOMINERT_DELTASYSTEM"
2538.9 "6507_11-1" 34.96000 "Sandstone" "Shale"   -999.25    50.0000 50.00000      0.0 "vf"       "f/m"      "Ytre_del_av_bukt_sekvens_(tidevannssand-rygg)_overligger_finkornete_delta-front-avsetninger" "BUKTSEKVENS,_TROLIG_I_ET_FLUVIAL-/_TIDEVANNS_DOMINERT_DELTASYSTEM"
2539.0 "6507_11-1" 33.78000 "Sandstone" "Shale"   -999.25    50.0000 50.00000      0.0 "vf"       "f/m"      "Ytre_del_av_bukt_sekvens_(tidevannssand-rygg)_overligger_finkornete_delta-front-avsetninger" "BUKTSEKVENS,_TROLIG_I_ET_FLUVIAL-/_TIDEVANNS_DOMINERT_DELTASYSTEM"
2539.1 "6507_11-1" 32.60000 "Sandstone" "Shale"   -999.25    50.0000 50.00000      0.0 "vf"       "f/m"      "Ytre_del_av_bukt_sekvens_(tidevannssand-rygg)_overligger_finkornete_delta-front-avsetninger" "BUKTSEKVENS,_TROLIG_I_ET_FLUVIAL-/_TIDEVANNS_DOMINERT_DELTASYSTEM"
2539.2 "6507_11-1" 31.79000 "Sandstone" "Shale"   -999.25    50.0000 50.00000      0.0 "vf"       "f/m"      "Ytre_del_av_bukt_sekvens_(tidevannssand-rygg)_overligger_finkornete_delta-front-avsetninger" "BUKTSEKVENS,_TROLIG_I_ET_FLUVIAL-/_TIDEVANNS_DOMINERT_DELTASYSTEM"
2539.3 "6507_11-1" 32.24000 "Sandstone" "Shale"   -999.25    50.0000 50.00000      0.0 "vf"       "f/m"      "Ytre_del_av_bukt_sekvens_(tidevannssand-rygg)_overligger_finkornete_delta-front-avsetninger" "BUKTSEKVENS,_TROLIG_I_ET_FLUVIAL-/_TIDEVANNS_DOMINERT_DELTASYSTEM"
2539.4 "6507_11-1" 32.69000 "Sandstone" "Shale"   -999.25    50.0000 50.00000      0.0 "vf"       "f/m"      "Ytre_del_av_bukt_sekvens_(tidevannssand-rygg)_overligger_finkornete_delta-front-avsetninger" "BUKTSEKVENS,_TROLIG_I_ET_FLUVIAL-/_TIDEVANNS_DOMINERT_DELTASYSTEM"
2539.5 "6507_11-1" 33.14000 "Sandstone" "Shale"   -999.25    50.0000 50.00000      0.0 "vf"       "f/m"      "Ytre_del_av_bukt_sekvens_(tidevannssand-rygg)_overligger_finkornete_delta-front-avsetninger" "BUKTSEKVENS,_TROLIG_I_ET_FLUVIAL-/_TIDEVANNS_DOMINERT_DELTASYSTEM"
2539.6 "6507_11-1" 33.59000 "Sandstone" "Shale"   -999.25    50.0000 50.00000      0.0 "vf"       "f/m"      "Ytre_del_av_bukt_sekvens_(tidevannssand-rygg)_overligger_finkornete_delta-front-avsetninger" "BUKTSEKVENS,_TROLIG_I_ET_FLUVIAL-/_TIDEVANNS_DOMINERT_DELTASYSTEM"
2539.7 "6507_11-1" 34.05000 "Sandstone" "Shale"   -999.25    50.0000 50.00000      0.0 "vf"       "f/m"      "Ytre_del_av_bukt_sekvens_(tidevannssand-rygg)_overligger_finkornete_delta-front-avsetninger" "BUKTSEKVENS,_TROLIG_I_ET_FLUVIAL-/_TIDEVANNS_DOMINERT_DELTASYSTEM"
2539.8 "6507_11-1" 34.50000 "Sandstone" "Shale"   -999.25    50.0000 50.00000      0.0 "vf"       "f/m"      "Ytre_del_av_bukt_sekvens_(tidevannssand-rygg)_overligger_finkornete_delta-front-avsetninger" "BUKTSEKVENS,_TROLIG_I_ET_FLUVIAL-/_TIDEVANNS_DOMINERT_DELTASYSTEM"
2539.9 "6507_11-1" 34.95000 "Sandstone" "Shale"   -999.25    50.0000 50.00000      0.0 "vf"       "f/m"      "Ytre_del_av_bukt_sekvens_(tidevannssand-rygg)_overligger_finkornete_delta-front-avsetninger" "BUKTSEKVENS,_TROLIG_I_ET_FLUVIAL-/_TIDEVANNS_DOMINERT_DELTASYSTEM"
2540.0 "6507_11-1" 35.40000 "Sandstone" "Shale"   -999.25    50.0000 50.00000      0.0 "vf"       "f/m"      "Ytre_del_av_bukt_sekvens_(tidevannssand-rygg)_overligger_finkornete_delta-front-avsetninger" "BUKTSEKVENS,_TROLIG_I_ET_FLUVIAL-/_TIDEVANNS_DOMINERT_DELTASYSTEM"
2540.1 "6507_11-1" 35.42000 "Sandstone" "Shale"   -999.25    50.0000 50.00000      0.0 "vf"       "f/m"      "Ytre_del_av_bukt_sekvens_(tidevannssand-rygg)_overligger_finkornete_delta-front-avsetninger" "BUKTSEKVENS,_TROLIG_I_ET_FLUVIAL-/_TIDEVANNS_DOMINERT_DELTASYSTEM"
2540.2 "6507_11-1" 35.42000 "Sandstone" "Shale"   -999.25    50.0000 50.00000      0.0 "vf"       "f/m"      "Ytre_del_av_bukt_sekvens_(tidevannssand-rygg)_overligger_finkornete_delta-front-avsetninger" "BUKTSEKVENS,_TROLIG_I_ET_FLUVIAL-/_TIDEVANNS_DOMINERT_DELTASYSTEM"
2540.3 "6507_11-1" 35.39000 "Sandstone" "Shale"   -999.25    50.0000 50.00000      0.0 "vf"       "f/m"      "Ytre_del_av_bukt_sekvens_(tidevannssand-rygg)_overligger_finkornete_delta-front-avsetninger" "BUKTSEKVENS,_TROLIG_I_ET_FLUVIAL-/_TIDEVANNS_DOMINERT_DELTASYSTEM"
2540.4 "6507_11-1" 35.23000 "Sandstone" "Shale"   -999.25    50.0000 50.00000      0.0 "vf"       "f/m"      "Ytre_del_av_bukt_sekvens_(tidevannssand-rygg)_overligger_finkornete_delta-front-avsetninger" "BUKTSEKVENS,_TROLIG_I_ET_FLUVIAL-/_TIDEVANNS_DOMINERT_DELTASYSTEM"
2540.5 "6507_11-1" 35.07000 "Sandstone" "Shale"   -999.25    50.0000 50.00000      0.0 "vf"       "f/m"      "Ytre_del_av_bukt_sekvens_(tidevannssand-rygg)_overligger_finkornete_delta-front-avsetninger" "BUKTSEKVENS,_TROLIG_I_ET_FLUVIAL-/_TIDEVANNS_DOMINERT_DELTASYSTEM"
2540.6 "6507_11-1" 34.91000 "Sandstone" "Shale"   -999.25    50.0000 50.00000      0.0 "vf"       "f/m"      "Ytre_del_av_bukt_sekvens_(tidevannssand-rygg)_overligger_finkornete_delta-front-avsetninger" "BUKTSEKVENS,_TROLIG_I_ET_FLUVIAL-/_TIDEVANNS_DOMINERT_DELTASYSTEM"
2540.7 "6507_11-1" 34.76000 "Sandstone" "Shale"   -999.25    50.0000 50.00000      0.0 "vf"       "f/m"      "Ytre_del_av_bukt_sekvens_(tidevannssand-rygg)_overligger_finkornete_delta-front-avsetninger" "BUKTSEKVENS,_TROLIG_I_ET_FLUVIAL-/_TIDEVANNS_DOMINERT_DELTASYSTEM"
2540.8 "6507_11-1" 34.60000 "Sandstone" "Shale"   -999.25    50.0000 50.00000      0.0 "vf"       "f/m"      "Ytre_del_av_bukt_sekvens_(tidevannssand-rygg)_overligger_finkornete_delta-front-avsetninger" "BUKTSEKVENS,_TROLIG_I_ET_FLUVIAL-/_TIDEVANNS_DOMINERT_DELTASYSTEM"
2540.9 "6507_11-1" 34.44000 "Sandstone" "Shale"   -999.25    50.0000 50.00000      0.0 "vf"       "f/m"      "Ytre_del_av_bukt_sekvens_(tidevannssand-rygg)_overligger_finkornete_delta-front-avsetninger" "BUKTSEKVENS,_TROLIG_I_ET_FLUVIAL-/_TIDEVANNS_DOMINERT_DELTASYSTEM"
2541.0 "6507_11-1" 34.68000 "Sandstone" "Shale"   -999.25    50.0000 50.00000      0.0 "vf"       "f/m"      "Ytre_del_av_bukt_sekvens_(tidevannssand-rygg)_overligger_finkornete_delta-front-avsetninger" "BUKTSEKVENS,_TROLIG_I_ET_FLUVIAL-/_TIDEVANNS_DOMINERT_DELTASYSTEM"
2541.1 "6507_11-1" 34.91000 "Sandstone" "Shale"   -999.25    50.0000 50.00000      0.0 "vf"       "f/m"      "Ytre_del_av_bukt_sekvens_(tidevannssand-rygg)_overligger_finkornete_delta-front-avsetninger" "BUKTSEKVENS,_TROLIG_I_ET_FLUVIAL-/_TIDEVANNS_DOMINERT_DELTASYSTEM"
2541.2 "6507_11-1" 35.15000 "Sandstone" "Shale"   -999.25    50.0000 50.00000      0.0 "vf"       "f/m"      "Ytre_del_av_bukt_sekvens_(tidevannssand-rygg)_overligger_finkornete_delta-front-avsetninger" "BUKTSEKVENS,_TROLIG_I_ET_FLUVIAL-/_TIDEVANNS_DOMINERT_DELTASYSTEM"
2541.3 "6507_11-1" 35.39000 "Sandstone" "Shale"   -999.25    50.0000 50.00000      0.0 "vf"       "f/m"      "Ytre_del_av_bukt_sekvens_(tidevannssand-rygg)_overligger_finkornete_delta-front-avsetninger" "BUKTSEKVENS,_TROLIG_I_ET_FLUVIAL-/_TIDEVANNS_DOMINERT_DELTASYSTEM"
2541.4 "6507_11-1" 35.37000 "Sandstone" "Shale"   -999.25    50.0000 50.00000      0.0 "vf"       "f/m"      "Ytre_del_av_bukt_sekvens_(tidevannssand-rygg)_overligger_finkornete_delta-front-avsetninger" "BUKTSEKVENS,_TROLIG_I_ET_FLUVIAL-/_TIDEVANNS_DOMINERT_DELTASYSTEM"
2541.5 "6507_11-1" 35.31000 "Sandstone" "Shale"   -999.25    50.0000 50.00000      0.0 "vf"       "f/m"      "Ytre_del_av_bukt_sekvens_(tidevannssand-rygg)_overligger_finkornete_delta-front-avsetninger" "BUKTSEKVENS,_TROLIG_I_ET_FLUVIAL-/_TIDEVANNS_DOMINERT_DELTASYSTEM"
2541.6 "6507_11-1" 35.25000 "Sandstone" "Shale"   -999.25    50.0000 50.00000      0.0 "vf"       "f/m"      "Ytre_del_av_bukt_sekvens_(tidevannssand-rygg)_overligger_finkornete_delta-front-avsetninger" "BUKTSEKVENS,_TROLIG_I_ET_FLUVIAL-/_TIDEVANNS_DOMINERT_DELTASYSTEM"
