~Version
VERS  .                                 3.0 : CWLS LAS ASCII Standard - Version 3.0
WRAP  . NO                                  : One line per depth step
DLM   . SPACE                               : Column data section delimiter
SOURCE. Converted to LAS by Log Studio 4.76 : GeoProvider

~Well
STRT.    2502.7 : Start depth
STOP.    2543.0 : Stop depth
STEP.         1 : Step
NULL.   -999.25 : No-value
COMP.           : Company
WELL. 6507/11-1 : Well
FLD .           : Field
LOC .           : Location
LATI.           : Latitude
LONG.           : Longitude
GDAT.           : Geodetic datum
CNTY.           : County
STAT.           : State
CTRY.           : Country
SRVC. GeoProvider AS : Service company
DATE.           : Date
API .           : API number
RUN .           : Run number

~Parameters
WellboreName.  : Wellbore name
RigName     .  : Rig name
StartDate   .  : Start date

~Curves
DEPTH.m            .  : null {F}Depth mMD
Hole_ID.-          .  : null {S}Hole ID
GR.API             .  : null {F}Gamma Ray
Lithology1.-       .  : null {S}Lithology 1
Lithology2.-       .  : null {S}Lithology 2
Lithology3.-       .  : null {S}Lithology 3
Lithology1.%       .  : null {F}Lithology 1 percentage
Lithology2.%       .  : null {F}Lithology 2 percentage
Lithology3.%       .  : null {F}Lithology 3 percentage
Grain_size_Top.-   .  : null {S}Grain size at the top 
Grain_size_Base.-  .  : null {S}Grain size at the bottom
Sub_Environment.-  .  : null {S}Sub Environment
Gross_Environment.-.  : null {S}Gross Environment

~Ascii
# ...
2535.7 "6507_11-1" 27.49000 "Sandstone" "Shale"   "Limestone"  70.0000 25.00000 5.000000 "vc"       "vc"       "Ytre_del_av_bukt_sekvens_(tidevannssand-rygg)_overligger_finkornete_delta-front-avsetninger" "BUKTSEKVENS,_TROLIG_I_ET_FLUVIAL-/_TIDEVANNS_DOMINERT_DELTASYSTEM"
2535.8 "6507_11-1" 27.36000 "Sandstone" "Shale"   "Limestone"  70.0000 25.00000 5.000000 "vc"       "vc"       "Ytre_del_av_bukt_sekvens_(tidevannssand-rygg)_overligger_finkornete_delta-front-avsetninger" "BUKTSEKVENS,_TROLIG_I_ET_FLUVIAL-/_TIDEVANNS_DOMINERT_DELTASYSTEM"
2535.9 "6507_11-1" 27.24000 "Sandstone" "Shale"   "Limestone"  70.0000 25.00000 5.000000 "vc"       "vc"       "Ytre_del_av_bukt_sekvens_(tidevannssand-rygg)_overligger_finkornete_delta-front-avsetninger" "BUKTSEKVENS,_TROLIG_I_ET_FLUVIAL-/_TIDEVANNS_DOMINERT_DELTASYSTEM"
2536.0 "6507_11-1" 27.11000 "Sandstone" "Shale"   "Limestone"  70.0000 25.00000 5.000000 "vc"       "vc"       "Ytre_del_av_bukt_sekvens_(tidevannssand-rygg)_overligger_finkornete_delta-front-avsetninger" "BUKTSEKVENS,_TROLIG_I_ET_FLUVIAL-/_TIDEVANNS_DOMINERT_DELTASYSTEM"
2536.1 "6507_11-1" 26.98000 "Sandstone" "Shale"   "Limestone"  70.0000 25.00000 5.000000 "vc"       "vc"       "Ytre_del_av_bukt_sekvens_(tidevannssand-rygg)_overligger_finkornete_delta-front-avsetninger" "BUKTSEKVENS,_TROLIG_I_ET_FLUVIAL-/_TIDEVANNS_DOMINERT_DELTASYSTEM"
2536.2 "6507_11-1" 28.11000 "Sandstone" "Shale"   "Limestone"  70.0000 25.00000 5.000000 "vc"       "vc"       "Ytre_del_av_bukt_sekvens_(tidevannssand-rygg)_overligger_finkornete_delta-front-avsetninger" "BUKTSEKVENS,_TROLIG_I_ET_FLUVIAL-/_TIDEVANNS_DOMINERT_DELTASYSTEM"
2536.3 "6507_11-1" 29.23000 "Sandstone" "Shale"   "Limestone"  70.0000 25.00000 5.000000 "vc"       "vc"       "Ytre_del_av_bukt_sekvens_(tidevannssand-rygg)_overligger_finkornete_delta-front-avsetninger" "BUKTSEKVENS,_TROLIG_I_ET_FLUVIAL-/_TIDEVANNS_DOMINERT_DELTASYSTEM"
2536.4 "6507_11-1" 30.36000 "Sandstone" "Shale"   "Limestone"  70.0000 25.00000 5.000000 "vc"       "vc"       "Ytre_del_av_bukt_sekvens_(tidevannssand-rygg)_overligger_finkornete_delta-front-avsetninger" "BUKTSEKVENS,_TROLIG_I_ET_FLUVIAL-/_TIDEVANNS_DOMINERT_DELTASYSTEM"
2536.5 "6507_11-1" 31.48000 "Sandstone" "Shale"   "Limestone"  70.0000 25.00000 5.000000 "vc"       "vc"       "Ytre_del_av_bukt_sekvens_(tidevannssand-rygg)_overligger_finkornete_delta-front-avsetninger" "BUKTSEKVENS,_TROLIG_I_ET_FLUVIAL-/_TIDEVANNS_DOMINERT_DELTASYSTEM"
2536.6 "6507_11-1" 32.61000 "Sandstone" "Shale"   "Limestone"  70.0000 25.00000 5.000000 "vc"       "vc"       "Ytre_del_av_bukt_sekvens_(tidevannssand-rygg)_overligger_finkornete_delta-front-avsetninger" "BUKTSEKVENS,_TROLIG_I_ET_FLUVIAL-/_TIDEVANNS_DOMINERT_DELTASYSTEM"
2536.7 "6507_11-1" 33.11000 "Sandstone" "Shale"   "Limestone"  70.0000 25.00000 5.000000 "vc"       "vc"       "Ytre_del_av_bukt_sekvens_(tidevannssand-rygg)_overligger_finkornete_delta-front-avsetninger" "BUKTSEKVENS,_TROLIG_I_ET_FLUVIAL-/_TIDEVANNS_DOMINERT_DELTASYSTEM"
2536.8 "6507_11-1" 33.58000 "Sandstone" "Shale"   "Limestone"  70.0000 25.00000 5.000000 "vc"       "vc"       "Ytre_del_av_bukt_sekvens_(tidevannssand-rygg)_overligger_finkornete_delta-front-avsetninger" "BUKTSEKVENS,_TROLIG_I_ET_FLUVIAL-/_TIDEVANNS_DOMINERT_DELTASYSTEM"
2536.9 "6507_11-1" 34.05000 "Sandstone" "Shale"   "Limestone"  70.0000 25.00000 5.000000 "vc"       "vc"       "Ytre_del_av_bukt_sekvens_(tidevannssand-rygg)_overligger_finkornete_delta-front-avsetninger" "BUKTSEKVENS,_TROLIG_I_ET_FLUVIAL-/_TIDEVANNS_DOMINERT_DELTASYSTEM"
2537.0 "6507_11-1" 34.81000 "Sandstone" -999.25   -999.25   100.0000      0.0      0.0 "vc"       "vc"       "Ytre_del_av_bukt_sekvens_(tidevannssand-rygg)_overligger_finkornete_delta-front-avsetninger" "BUKTSEKVENS,_TROLIG_I_ET_FLUVIAL-/_TIDEVANNS_DOMINERT_DELTASYSTEM"
2537.1 "6507_11-1" 35.67000 "Sandstone" -999.25   -999.25   100.0000      0.0      0.0 "vc"       "vc"       "Ytre_del_av_bukt_sekvens_(tidevannssand-rygg)_overligger_finkornete_delta-front-avsetninger" "BUKTSEKVENS,_TROLIG_I_ET_FLUVIAL-/_TIDEVANNS_DOMINERT_DELTASYSTEM"
2537.2 "6507_11-1" 36.53000 "Sandstone" "Shale"   -999.25    70.0000 30.00000      0.0 "f"        "vf/f"     "Ytre_del_av_bukt_sekvens_(tidevannssand-rygg)_overligger_finkornete_delta-front-avsetninger" "BUKTSEKVENS,_TROLIG_I_ET_FLUVIAL-/_TIDEVANNS_DOMINERT_DELTASYSTEM"
2537.3 "6507_11-1" 36.07000 "Sandstone" "Shale"   -999.25    70.0000 30.00000      0.0 "f"        "vf/f"     "Ytre_del_av_bukt_sekvens_(tidevannssand-rygg)_overligger_finkornete_delta-front-avsetninger" "BUKTSEKVENS,_TROLIG_I_ET_FLUVIAL-/_TIDEVANNS_DOMINERT_DELTASYSTEM"
2537.4 "6507_11-1" 35.16000 "Sandstone" "Shale"   -999.25    70.0000 30.00000      0.0 "f"        "vf/f"     "Ytre_del_av_bukt_sekvens_(tidevannssand-rygg)_overligger_finkornete_delta-front-avsetninger" "BUKTSEKVENS,_TROLIG_I_ET_FLUVIAL-/_TIDEVANNS_DOMINERT_DELTASYSTEM"
2537.5 "6507_11-1" 34.25000 "Sandstone" "Shale"   -999.25    70.0000 30.00000      0.0 "f"        "vf/f"     "Ytre_del_av_bukt_sekvens_(tidevannssand-rygg)_overligger_finkornete_delta-front-avsetninger" "BUKTSEKVENS,_TROLIG_I_ET_FLUVIAL-/_TIDEVANNS_DOMINERT_DELTASYSTEM"
2537.6 "6507_11-1" 33.14000 "Sandstone" "Shale"   -999.25    70.0000 30.00000      0.0 "f"        "vf/f"     "Ytre_del_av_bukt_sekvens_(tidevannssand-rygg)_overligger_finkornete_delta-front-avsetninger" "BUKTSEKVENS,_TROLIG_I_ET_FLUVIAL-/_TIDEVANNS_DOMINERT_DELTASYSTEM"
2537.7 "6507_11-1" 31.86000 "Sandstone" "Shale"   -999.25    70.0000 30.00000      0.0 "f"        "vf/f"     "Ytre_del_av_bukt_sekvens_(tidevannssand-rygg)_overligger_finkornete_delta-front-avsetninger" "BUKTSEKVENS,_TROLIG_I_ET_FLUVIAL-/_TIDEVANNS_DOMINERT_DELTASYSTEM"
2537.8 "6507_11-1" 31.12000 "Sandstone" "Shale"   -999.25    70.0000 30.00000      0.0 "f"        "vf/f"     "Ytre_del_av_bukt_sekvens_(tidevannssand-rygg)_overligger_finkornete_delta-front-avsetninger" "BUKTSEKVENS,_TROLIG_I_ET_FLUVIAL-/_TIDEVANNS_DOMINERT_DELTASYSTEM"
2537.9 "6507_11-1" 32.10000 "Sandstone" "Shale"   -999.25    70.0000 30.00000      0.0 "f"        "vf/f"     "Ytre_del_av_bukt_sekvens_(tidevannssand-rygg)_overligger_finkornete_delta-front-avsetninger" "BUKTSEKVENS,_TROLIG_I_ET_FLUVIAL-/_TIDEVANNS_DOMINERT_DELTASYSTEM"
2538.0 "6507_11-1" 33.08000 "Sandstone" "Shale"   -999.25    70.0000 30.00000      0.0 "f"        "vf/f"     "Ytre_del_av_bukt_sekvens_(tidevannssand-rygg)_overligger_finkornete_delta-front-avsetninger" "BUKTSEKVENS,_TROLIG_I_ET_FLUVIAL-/_TIDEVANNS_DOMINERT_DELTASYSTEM"
2538.1 "6507_11-1" 34.10000 "Sandstone" "Shale"   -999.25    70.0000 30.00000      0.0 "f"        "vf/f"     "Ytre_del_av_bukt_sekvens_(tidevannssand-rygg)_overligger_finkornete_delta-front-avsetninger" "BUKTSEKVENS,_TROLIG_I_ET_FLUVIAL-/_TIDEVANNS_DOMINERT_DELTASYSTEM"
2538.2 "6507_11-1" 35.21000 "Sandstone" "Shale"   -999.25    70.0000 30.00000      0.0 "f"        "vf/f"     "Ytre_del_av_bukt_sekvens_(tidevannssand-rygg)_overligger_finkornete_delta-front-avsetninger" "BUKTSEKVENS,_TROLIG_I_ET_FLUVIAL-/_TIDEVANNS_DOMINERT_DELTASYSTEM"
2538.3 "6507_11-1" 36.32000 "Sandstone" -999.25   -999.25   100.0000      0.0      0.0 "vc"       "vc"       "Ytre_del_av_bukt_sekvens_(tidevannssand-rygg)_overligger_finkornete_delta-front-avsetninger" "BUKTSEKVENS,_TROLIG_I_ET_FLUVIAL-/_TIDEVANNS_DOMINERT_DELTASYSTEM"
2538.4 "6507_11-1" 37.42000 "Sandstone" -999.25   -999.25   100.0000      0.0      0.0 "vc"       "vc"       "Ytre_del_av_bukt_sekvens_(tidevannssand-rygg)_overligger_finkornete_delta-front-avsetninger" "BUKTSEKVENS,_TROLIG_I_ET_FLUVIAL-/_TIDEVANNS_DOMINERT_DELTASYSTEM"
2538.5 "6507_11-1" 37.64000 "Sandstone" "Shale"   -999.25    50.0000 50.00000      0.0 "vf"       "f/m"      "Ytre_del_av_bukt_sekvens_(tidevannssand-rygg)_overligger_finkornete_delta-front-avsetninger" "BUKTSEKVENS,_TROLIG_I_ET_FLUVIAL-/_TIDEVANNS_DOMINERT_DELTASYSTEM"
2538.6 "6507_11-1" 37.64000 "Sandstone" "Shale"   -999.25    50.0000 50.00000      0.0 "vf"       "f/m"      "Ytre_del_av_bukt_sekvens_(tidevannssand-rygg)_overligger_finkornete_delta-front-avsetninger" "BUKTSEKVENS,_TROLIG_I_ET_FLUVIAL-/_TIDEVANNS_DOMINERT_DELTASYSTEM"
