~Version
VERS  .                                 3.0 : CWLS LAS ASCII Standard - Version 3.0
WRAP  . NO                                  : One line per depth step
DLM   . SPACE                               : Column data section delimiter
SOURCE. Converted to LAS by Log Studio 4.76 : GeoProvider

~Well
STRT.    2502.7 : Start depth
STOP.    2543.0 : Stop depth
STEP.         1 : Step
NULL.   -999.25 : No-value
COMP.           : Company
WELL. 6507/11-1 : Well
FLD .           : Field
LOC .           : Location
LATI.           : Latitude
LONG.           : Longitude
GDAT.           : Geodetic datum
CNTY.           : County
STAT.           : State
CTRY.           : Country
SRVC. GeoProvider AS : Service company
DATE.           : Date
API .           : API number
RUN .           : Run number

~Parameters
WellboreName.  : Wellbore name
RigName     .  : Rig name
StartDate   .  : Start date

~Curves
DEPTH.m            .  : null {F}Depth mMD
Hole_ID.-          .  : null {S}Hole ID
GR.API             .  : null {F}Gamma Ray
Lithology1.-       .  : null {S}Lithology 1
Lithology2.-       .  : null {S}Lithology 2
Lithology3.-       .  : null {S}Lithology 3
Lithology1.%       .  : null {F}Lithology 1 percentage
Lithology2.%       .  : null {F}Lithology 2 percentage
Lithology3.%       .  : null {F}Lithology 3 percentage
Grain_size_Top.-   .  : null {S}Grain size at the top 
Grain_size_Base.-  .  : null {S}Grain size at the bottom
Sub_Environment.-  .  : null {S}Sub Environment
Gross_Environment.-.  : null {S}Gross Environment

~Ascii
# ...
2514.7 "6507_11-1" 16.14000 "Sandstone" "Shale"   -999.25    50.0000 50.00000      0.0 "silt"     "silt"     "Indre_del_av_bukt.__Dominert__av__(?)_tidevanns-kanaler"                                   "BUKTSEKVENS,_TROLIG_I_ET_FLUVIAL-/_TIDEVANNS_DOMINERT_DELTASYSTEM"
2514.8 "6507_11-1" 15.73000 "Sandstone" "Shale"   -999.25    50.0000 50.00000      0.0 "silt"     "silt"     "Indre_del_av_bukt.__Dominert__av__(?)_tidevanns-kanaler"                                   "BUKTSEKVENS,_TROLIG_I_ET_FLUVIAL-/_TIDEVANNS_DOMINERT_DELTASYSTEM"
2514.9 "6507_11-1" 16.22000 "Sandstone" "Shale"   -999.25    50.0000 50.00000      0.0 "silt"     "silt"     "Indre_del_av_bukt.__Dominert__av__(?)_tidevanns-kanaler"                                   "BUKTSEKVENS,_TROLIG_I_ET_FLUVIAL-/_TIDEVANNS_DOMINERT_DELTASYSTEM"
2515.0 "6507_11-1" 17.13000 "Sandstone" "Shale"   -999.25    50.0000 50.00000      0.0 "silt"     "silt"     "Indre_del_av_bukt.__Dominert__av__(?)_tidevanns-kanaler"                                   "BUKTSEKVENS,_TROLIG_I_ET_FLUVIAL-/_TIDEVANNS_DOMINERT_DELTASYSTEM"
2515.1 "6507_11-1" 18.04000 "Sandstone" "Shale"   -999.25    50.0000 50.00000      0.0 "silt"     "silt"     "Indre_del_av_bukt.__Dominert__av__(?)_tidevanns-kanaler"                                   "BUKTSEKVENS,_TROLIG_I_ET_FLUVIAL-/_TIDEVANNS_DOMINERT_DELTASYSTEM"
2515.2 "6507_11-1" 18.95000 "Sandstone" "Shale"   -999.25    50.0000 50.00000      0.0 "silt"     "silt"     "Indre_del_av_bukt.__Dominert__av__(?)_tidevanns-kanaler"                                   "BUKTSEKVENS,_TROLIG_I_ET_FLUVIAL-/_TIDEVANNS_DOMINERT_DELTASYSTEM"
2515.3 "6507_11-1" 19.87000 "Sandstone" "Shale"   -999.25    50.0000 50.00000      0.0 "silt"     "silt"     "Indre_del_av_bukt.__Dominert__av__(?)_tidevanns-kanaler"                                   "BUKTSEKVENS,_TROLIG_I_ET_FLUVIAL-/_TIDEVANNS_DOMINERT_DELTASYSTEM"
2515.4 "6507_11-1" 20.86000 "Sandstone" "Shale"   -999.25    50.0000 50.00000      0.0 "silt"     "silt"     "Indre_del_av_bukt.__Dominert__av__(?)_tidevanns-kanaler"                                   "BUKTSEKVENS,_TROLIG_I_ET_FLUVIAL-/_TIDEVANNS_DOMINERT_DELTASYSTEM"
2515.5 "6507_11-1" 21.86000 "Sandstone" "Shale"   -999.25    50.0000 50.00000      0.0 "silt"     "silt"     "Indre_del_av_bukt.__Dominert__av__(?)_tidevanns-kanaler"                                   "BUKTSEKVENS,_TROLIG_I_ET_FLUVIAL-/_TIDEVANNS_DOMINERT_DELTASYSTEM"
2515.6 "6507_11-1" 22.86000 "Sandstone" "Shale"   -999.25    50.0000 50.00000      0.0 "silt"     "silt"     "Indre_del_av_bukt.__Dominert__av__(?)_tidevanns-kanaler"                                   "BUKTSEKVENS,_TROLIG_I_ET_FLUVIAL-/_TIDEVANNS_DOMINERT_DELTASYSTEM"
2515.7 "6507_11-1" 23.86000 "Sandstone" "Shale"   -999.25    50.0000 50.00000      0.0 "silt"     "silt"     "Indre_del_av_bukt.__Dominert__av__(?)_tidevanns-kanaler"                                   "BUKTSEKVENS,_TROLIG_I_ET_FLUVIAL-/_TIDEVANNS_DOMINERT_DELTASYSTEM"
2515.8 "6507_11-1" 24.86000 "Sandstone" "Shale"   -999.25    50.0000 50.00000      0.0 "silt"     "silt"     "Indre_del_av_bukt.__Dominert__av__(?)_tidevanns-kanaler"                                   "BUKTSEKVENS,_TROLIG_I_ET_FLUVIAL-/_TIDEVANNS_DOMINERT_DELTASYSTEM"
2515.9 "6507_11-1" 25.86000 "Sandstone" "Shale"   -999.25    90.0000 10.00000      0.0 "vc"       "c/vc"     "Indre_del_av_bukt.__Dominert__av__(?)_tidevanns-kanaler"                                   "BUKTSEKVENS,_TROLIG_I_ET_FLUVIAL-/_TIDEVANNS_DOMINERT_DELTASYSTEM"
2516.0 "6507_11-1" 26.86000 "Sandstone" "Shale"   -999.25    90.0000 10.00000      0.0 "vc"       "c/vc"     "Indre_del_av_bukt.__Dominert__av__(?)_tidevanns-kanaler"                                   "BUKTSEKVENS,_TROLIG_I_ET_FLUVIAL-/_TIDEVANNS_DOMINERT_DELTASYSTEM"
2516.1 "6507_11-1" 27.86000 "Sandstone" "Shale"   -999.25    90.0000 10.00000      0.0 "vc"       "c/vc"     "Indre_del_av_bukt.__Dominert__av__(?)_tidevanns-kanaler"                                   "BUKTSEKVENS,_TROLIG_I_ET_FLUVIAL-/_TIDEVANNS_DOMINERT_DELTASYSTEM"
2516.2 "6507_11-1" 27.37000 "Sandstone" "Shale"   -999.25    90.0000 10.00000      0.0 "vc"       "c/vc"     "Indre_del_av_bukt.__Dominert__av__(?)_tidevanns-kanaler"                                   "BUKTSEKVENS,_TROLIG_I_ET_FLUVIAL-/_TIDEVANNS_DOMINERT_DELTASYSTEM"
2516.3 "6507_11-1" 26.55000 "Sandstone" "Shale"   -999.25    90.0000 10.00000      0.0 "vc"       "c/vc"     "Indre_del_av_bukt.__Dominert__av__(?)_tidevanns-kanaler"                                   "BUKTSEKVENS,_TROLIG_I_ET_FLUVIAL-/_TIDEVANNS_DOMINERT_DELTASYSTEM"
2516.4 "6507_11-1" 25.73000 "Sandstone" "Shale"   -999.25    90.0000 10.00000      0.0 "vc"       "c/vc"     "Indre_del_av_bukt.__Dominert__av__(?)_tidevanns-kanaler"                                   "BUKTSEKVENS,_TROLIG_I_ET_FLUVIAL-/_TIDEVANNS_DOMINERT_DELTASYSTEM"
2516.5 "6507_11-1" 24.91000 "Sandstone" "Shale"   -999.25    90.0000 10.00000      0.0 "vc"       "c/vc"     "Indre_del_av_bukt.__Dominert__av__(?)_tidevanns-kanaler"                                   "BUKTSEKVENS,_TROLIG_I_ET_FLUVIAL-/_TIDEVANNS_DOMINERT_DELTASYSTEM"
2516.6 "6507_11-1" 24.08000 "Sandstone" "Shale"   -999.25    90.0000 10.00000      0.0 "vc"       "c/vc"     "Indre_del_av_bukt.__Dominert__av__(?)_tidevanns-kanaler"                                   "BUKTSEKVENS,_TROLIG_I_ET_FLUVIAL-/_TIDEVANNS_DOMINERT_DELTASYSTEM"
2516.7 "6507_11-1" 23.26000 "Sandstone" "Shale"   -999.25    90.0000 10.00000      0.0 "vc"       "c/vc"     "Indre_del_av_bukt.__Dominert__av__(?)_tidevanns-kanaler"                                   "BUKTSEKVENS,_TROLIG_I_ET_FLUVIAL-/_TIDEVANNS_DOMINERT_DELTASYSTEM"
2516.8 "6507_11-1" 22.44000 "Sandstone" "Shale"   -999.25    90.0000 10.00000      0.0 "vc"       "c/vc"     "Indre_del_av_bukt.__Dominert__av__(?)_tidevanns-kanaler"                                   "BUKTSEKVENS,_TROLIG_I_ET_FLUVIAL-/_TIDEVANNS_DOMINERT_DELTASYSTEM"
2516.9 "6507_11-1" 22.79000 "Sandstone" "Shale"   -999.25    90.0000 10.00000      0.0 "vc"       "c/vc"     "Indre_del_av_bukt.__Dominert__av__(?)_tidevanns-kanaler"                                   "BUKTSEKVENS,_TROLIG_I_ET_FLUVIAL-/_TIDEVANNS_DOMINERT_DELTASYSTEM"
2517.0 "6507_11-1" 24.47000 "Sandstone" "Shale"   -999.25    90.0000 10.00000      0.0 "vc"       "c/vc"     "Indre_del_av_bukt.__Dominert__av__(?)_tidevanns-kanaler"                                   "BUKTSEKVENS,_TROLIG_I_ET_FLUVIAL-/_TIDEVANNS_DOMINERT_DELTASYSTEM"
2517.1 "6507_11-1" 26.16000 -999.25   -999.25   -999.25    -999.25  -999.25  -999.25 -999.25    -999.25    "Indre_del_av_bukt.__Dominert__av__(?)_tidevanns-kanaler"                                   "BUKTSEKVENS,_TROLIG_I_ET_FLUVIAL-/_TIDEVANNS_DOMINERT_DELTASYSTEM"
2517.2 "6507_11-1" 27.27000 -999.25   -999.25   -999.25    -999.25  -999.25  -999.25 -999.25    -999.25    "Indre_del_av_bukt.__Dominert__av__(?)_tidevanns-kanaler"                                   "BUKTSEKVENS,_TROLIG_I_ET_FLUVIAL-/_TIDEVANNS_DOMINERT_DELTASYSTEM"
2517.3 "6507_11-1" 26.66000 -999.25   -999.25   -999.25    -999.25  -999.25  -999.25 -999.25    -999.25    "Indre_del_av_bukt.__Dominert__av__(?)_tidevanns-kanaler"                                   "BUKTSEKVENS,_TROLIG_I_ET_FLUVIAL-/_TIDEVANNS_DOMINERT_DELTASYSTEM"
2517.4 "6507_11-1" 24.85000 -999.25   -999.25   -999.25    -999.25  -999.25  -999.25 -999.25    -999.25    "Indre_del_av_bukt.__Dominert__av__(?)_tidevanns-kanaler"                                   "BUKTSEKVENS,_TROLIG_I_ET_FLUVIAL-/_TIDEVANNS_DOMINERT_DELTASYSTEM"
2517.5 "6507_11-1" 23.37000 -999.25   -999.25   -999.25    -999.25  -999.25  -999.25 -999.25    -999.25    "Indre_del_av_bukt.__Dominert__av__(?)_tidevanns-kanaler"                                   "BUKTSEKVENS,_TROLIG_I_ET_FLUVIAL-/_TIDEVANNS_DOMINERT_DELTASYSTEM"
2517.6 "6507_11-1" 22.91000 -999.25   -999.25   -999.25    -999.25  -999.25  -999.25 -999.25    -999.25    "Indre_del_av_bukt.__Dominert__av__(?)_tidevanns-kanaler"                                   "BUKTSEKVENS,_TROLIG_I_ET_FLUVIAL-/_TIDEVANNS_DOMINERT_DELTASYSTEM"
