~Version
VERS  .                                 3.0 : CWLS LAS ASCII Standard - Version 3.0
WRAP  . NO                                  : One line per depth step
DLM   . SPACE                               : Column data section delimiter
SOURCE. Converted to LAS by Log Studio 4.76 : GeoProvider

~Well
STRT.    2502.7 : Start depth
STOP.    2543.0 : Stop depth
STEP.         1 : Step
NULL.   -999.25 : No-value
COMP.           : Company
WELL. 6507/11-1 : Well
FLD .           : Field
LOC .           : Location
LATI.           : Latitude
LONG.           : Longitude
GDAT.           : Geodetic datum
CNTY.           : County
STAT.           : State
CTRY.           : Country
SRVC. GeoProvider AS : Service company
DATE.           : Date
API .           : API number
RUN .           : Run number

~Parameters
WellboreName.  : Wellbore name
RigName     .  : Rig name
StartDate   .  : Start date

~Curves
DEPTH.m            .  : null {F}Depth mMD
Hole_ID.-          .  : null {S}Hole ID
GR.API             .  : null {F}Gamma Ray
Lithology1.-       .  : null {S}Lithology 1
Lithology2.-       .  : null {S}Lithology 2
Lithology3.-       .  : null {S}Lithology 3
Lithology1.%       .  : null {F}Lithology 1 percentage
Lithology2.%       .  : null {F}Lithology 2 percentage
Lithology3.%       .  : null {F}Lithology 3 percentage
Grain_size_Top.-   .  : null {S}Grain size at the top 
Grain_size_Base.-  .  : null {S}Grain size at the bottom
Sub_Environment.-  .  : null {S}Sub Environment
Gross_Environment.-.  : null {S}Gross Environment

~Ascii
# ...
2529.7 "6507_11-1" 26.59000 "Sandstone" "Shale"   -999.25    70.0000 30.00000      0.0 "c"        "m/c"      "Indre_del_av_bukt.__Dominert__av__(?)_tidevanns-kanaler"                                   "BUKTSEKVENS,_TROLIG_I_ET_FLUVIAL-/_TIDEVANNS_DOMINERT_DELTASYSTEM"
2529.8 "6507_11-1" 26.89000 "Sandstone" "Shale"   -999.25    70.0000 30.00000      0.0 "c"        "m/c"      "Indre_del_av_bukt.__Dominert__av__(?)_tidevanns-kanaler"                                   "BUKTSEKVENS,_TROLIG_I_ET_FLUVIAL-/_TIDEVANNS_DOMINERT_DELTASYSTEM"
2529.9 "6507_11-1" 27.20000 "Sandstone" "Shale"   -999.25    70.0000 30.00000      0.0 "c"        "m/c"      "Indre_del_av_bukt.__Dominert__av__(?)_tidevanns-kanaler"                                   "BUKTSEKVENS,_TROLIG_I_ET_FLUVIAL-/_TIDEVANNS_DOMINERT_DELTASYSTEM"
2530.0 "6507_11-1" 27.74000 "Sandstone" "Shale"   -999.25    70.0000 30.00000      0.0 "c"        "m/c"      "Indre_del_av_bukt.__Dominert__av__(?)_tidevanns-kanaler"                                   "BUKTSEKVENS,_TROLIG_I_ET_FLUVIAL-/_TIDEVANNS_DOMINERT_DELTASYSTEM"
2530.1 "6507_11-1" 28.48000 "Sandstone" "Shale"   -999.25    70.0000 30.00000      0.0 "c"        "m/c"      "Indre_del_av_bukt.__Dominert__av__(?)_tidevanns-kanaler"                                   "BUKTSEKVENS,_TROLIG_I_ET_FLUVIAL-/_TIDEVANNS_DOMINERT_DELTASYSTEM"
2530.2 "6507_11-1" 29.22000 "Sandstone" "Shale"   -999.25    70.0000 30.00000      0.0 "c"        "m/c"      "Indre_del_av_bukt.__Dominert__av__(?)_tidevanns-kanaler"                                   "BUKTSEKVENS,_TROLIG_I_ET_FLUVIAL-/_TIDEVANNS_DOMINERT_DELTASYSTEM"
2530.3 "6507_11-1" 29.96000 "Sandstone" "Shale"   -999.25    70.0000 30.00000      0.0 "c"        "m/c"      "Indre_del_av_bukt.__Dominert__av__(?)_tidevanns-kanaler"                                   "BUKTSEKVENS,_TROLIG_I_ET_FLUVIAL-/_TIDEVANNS_DOMINERT_DELTASYSTEM"
2530.4 "6507_11-1" 30.70000 "Sandstone" "Shale"   -999.25    70.0000 30.00000      0.0 "c"        "m/c"      "Indre_del_av_bukt.__Dominert__av__(?)_tidevanns-kanaler"                                   "BUKTSEKVENS,_TROLIG_I_ET_FLUVIAL-/_TIDEVANNS_DOMINERT_DELTASYSTEM"
2530.5 "6507_11-1" 31.44000 "Sandstone" "Shale"   -999.25    70.0000 30.00000      0.0 "c"        "m/c"      "Indre_del_av_bukt.__Dominert__av__(?)_tidevanns-kanaler"                                   "BUKTSEKVENS,_TROLIG_I_ET_FLUVIAL-/_TIDEVANNS_DOMINERT_DELTASYSTEM"
2530.6 "6507_11-1" 32.18000 "Sandstone" "Shale"   -999.25    70.0000 30.00000      0.0 "c"        "m/c"      "Indre_del_av_bukt.__Dominert__av__(?)_tidevanns-kanaler"                                   "BUKTSEKVENS,_TROLIG_I_ET_FLUVIAL-/_TIDEVANNS_DOMINERT_DELTASYSTEM"
2530.7 "6507_11-1" 32.92000 "Sandstone" "Shale"   -999.25    70.0000 30.00000      0.0 "c"        "m/c"      "Indre_del_av_bukt.__Dominert__av__(?)_tidevanns-kanaler"                                   "BUKTSEKVENS,_TROLIG_I_ET_FLUVIAL-/_TIDEVANNS_DOMINERT_DELTASYSTEM"
2530.8 "6507_11-1" 32.80000 "Sandstone" "Shale"   -999.25    70.0000 30.00000      0.0 "c"        "m/c"      "Indre_del_av_bukt.__Dominert__av__(?)_tidevanns-kanaler"                                   "BUKTSEKVENS,_TROLIG_I_ET_FLUVIAL-/_TIDEVANNS_DOMINERT_DELTASYSTEM"
2530.9 "6507_11-1" 32.38000 "Sandstone" "Shale"   -999.25    70.0000 30.00000      0.0 "c"        "m/c"      "Indre_del_av_bukt.__Dominert__av__(?)_tidevanns-kanaler"                                   "BUKTSEKVENS,_TROLIG_I_ET_FLUVIAL-/_TIDEVANNS_DOMINERT_DELTASYSTEM"
2531.0 "6507_11-1" 31.96000 "Sandstone" "Shale"   -999.25    70.0000 30.00000      0.0 "c"        "m/c"      "Indre_del_av_bukt.__Dominert__av__(?)_tidevanns-kanaler"                                   "BUKTSEKVENS,_TROLIG_I_ET_FLUVIAL-/_TIDEVANNS_DOMINERT_DELTASYSTEM"
2531.1 "6507_11-1" 29.73000 "Sandstone" "Shale"   -999.25    70.0000 30.00000      0.0 "c"        "m/c"      "Indre_del_av_bukt.__Dominert__av__(?)_tidevanns-kanaler"                                   "BUKTSEKVENS,_TROLIG_I_ET_FLUVIAL-/_TIDEVANNS_DOMINERT_DELTASYSTEM"
2531.2 "6507_11-1" 27.48000 "Sandstone" "Shale"   -999.25    70.0000 30.00000      0.0 "c"        "m/c"      "Indre_del_av_bukt.__Dominert__av__(?)_tidevanns-kanaler"                                   "BUKTSEKVENS,_TROLIG_I_ET_FLUVIAL-/_TIDEVANNS_DOMINERT_DELTASYSTEM"
2531.3 "6507_11-1" 25.23000 "Sandstone" "Shale"   -999.25    70.0000 30.00000      0.0 "c"        "m/c"      "Indre_del_av_bukt.__Dominert__av__(?)_tidevanns-kanaler"                                   "BUKTSEKVENS,_TROLIG_I_ET_FLUVIAL-/_TIDEVANNS_DOMINERT_DELTASYSTEM"
2531.4 "6507_11-1" 23.60000 "Sandstone" "Shale"   -999.25    70.0000 30.00000      0.0 "c"        "m/c"      "Indre_del_av_bukt.__Dominert__av__(?)_tidevanns-kanaler"                                   "BUKTSEKVENS,_TROLIG_I_ET_FLUVIAL-/_TIDEVANNS_DOMINERT_DELTASYSTEM"
2531.5 "6507_11-1" 23.33000 "Sandstone" "Shale"   -999.25    70.0000 30.00000      0.0 "c"        "m/c"      "Indre_del_av_bukt.__Dominert__av__(?)_tidevanns-kanaler"                                   "BUKTSEKVENS,_TROLIG_I_ET_FLUVIAL-/_TIDEVANNS_DOMINERT_DELTASYSTEM"
2531.6 "6507_11-1" 23.05000 "Sandstone" "Shale"   -999.25    70.0000 30.00000      0.0 "c"        "m/c"      "Indre_del_av_bukt.__Dominert__av__(?)_tidevanns-kanaler"                                   "BUKTSEKVENS,_TROLIG_I_ET_FLUVIAL-/_TIDEVANNS_DOMINERT_DELTASYSTEM"
2531.7 "6507_11-1" 22.77000 "Sandstone" "Shale"   -999.25    70.0000 30.00000      0.0 "c"        "m/c"      "Indre_del_av_bukt.__Dominert__av__(?)_tidevanns-kanaler"                                   "BUKTSEKVENS,_TROLIG_I_ET_FLUVIAL-/_TIDEVANNS_DOMINERT_DELTASYSTEM"
2531.8 "6507_11-1" 22.50000 "Sandstone" "Shale"   -999.25    70.0000 30.00000      0.0 "c"        "m/c"      "Indre_del_av_bukt.__Dominert__av__(?)_tidevanns-kanaler"                                   "BUKTSEKVENS,_TROLIG_I_ET_FLUVIAL-/_TIDEVANNS_DOMINERT_DELTASYSTEM"
2531.9 "6507_11-1" 22.33000 "Sandstone" "Shale"   -999.25    70.0000 30.00000      0.0 "c"        "m/c"      "Indre_del_av_bukt.__Dominert__av__(?)_tidevanns-kanaler"                                   "BUKTSEKVENS,_TROLIG_I_ET_FLUVIAL-/_TIDEVANNS_DOMINERT_DELTASYSTEM"
2532.0 "6507_11-1" 22.27000 "Sandstone" "Shale"   "Limestone"  70.0000 25.00000 5.000000 "vc"       "vc"       "Ytre_del_av_bukt_sekvens_(tidevannssand-rygg)_overligger_finkornete_delta-front-avsetninger" "BUKTSEKVENS,_TROLIG_I_ET_FLUVIAL-/_TIDEVANNS_DOMINERT_DELTASYSTEM"
2532.1 "6507_11-1" 22.22000 "Sandstone" "Shale"   "Limestone"  70.0000 25.00000 5.000000 "vc"       "vc"       "Ytre_del_av_bukt_sekvens_(tidevannssand-rygg)_overligger_finkornete_delta-front-avsetninger" "BUKTSEKVENS,_TROLIG_I_ET_FLUVIAL-/_TIDEVANNS_DOMINERT_DELTASYSTEM"
2532.2 "6507_11-1" 22.34000 "Sandstone" "Shale"   "Limestone"  70.0000 25.00000 5.000000 "vc"       "vc"       "Ytre_del_av_bukt_sekvens_(tidevannssand-rygg)_overligger_finkornete_delta-front-avsetninger" "BUKTSEKVENS,_TROLIG_I_ET_FLUVIAL-/_TIDEVANNS_DOMINERT_DELTASYSTEM"
2532.3 "6507_11-1" 22.92000 "Sandstone" "Shale"   "Limestone"  70.0000 25.00000 5.000000 "vc"       "vc"       "Ytre_del_av_bukt_sekvens_(tidevannssand-rygg)_overligger_finkornete_delta-front-avsetninger" "BUKTSEKVENS,_TROLIG_I_ET_FLUVIAL-/_TIDEVANNS_DOMINERT_DELTASYSTEM"
2532.4 "6507_11-1" 23.50000 "Sandstone" "Shale"   "Limestone"  70.0000 25.00000 5.000000 "vc"       "vc"       "Ytre_del_av_bukt_sekvens_(tidevannssand-rygg)_overligger_finkornete_delta-front-avsetninger" "BUKTSEKVENS,_TROLIG_I_ET_FLUVIAL-/_TIDEVANNS_DOMINERT_DELTASYSTEM"
2532.5 "6507_11-1" 24.11000 "Sandstone" "Shale"   "Limestone"  70.0000 25.00000 5.000000 "vc"       "vc"       "Ytre_del_av_bukt_sekvens_(tidevannssand-rygg)_overligger_finkornete_delta-front-avsetninger" "BUKTSEKVENS,_TROLIG_I_ET_FLUVIAL-/_TIDEVANNS_DOMINERT_DELTASYSTEM"
2532.6 "6507_11-1" 24.76000 "Sandstone" "Shale"   "Limestone"  70.0000 25.00000 5.000000 "vc"       "vc"       "Ytre_del_av_bukt_sekvens_(tidevannssand-rygg)_overligger_finkornete_delta-front-avsetninger" "BUKTSEKVENS,_TROLIG_I_ET_FLUVIAL-/_TIDEVANNS_DOMINERT_DELTASYSTEM"
