~Version
VERS  .                                 3.0 : CWLS LAS ASCII Standard - Version 3.0
WRAP  . NO                                  : One line per depth step
DLM   . SPACE                               : Column data section delimiter
SOURCE. Converted to LAS by Log Studio 4.76 : GeoProvider

~Well
STRT.    2502.7 : Start depth
STOP.    2543.0 : Stop depth
STEP.         1 : Step
NULL.   -999.25 : No-value
COMP.           : Company
WELL. 6507/11-1 : Well
FLD .           : Field
LOC .           : Location
LATI.           : Latitude
LONG.           : Longitude
GDAT.           : Geodetic datum
CNTY.           : County
STAT.           : State
CTRY.           : Country
SRVC. GeoProvider AS : Service company
DATE.           : Date
API .           : API number
RUN .           : Run number

~Parameters
WellboreName.  : Wellbore name
RigName     .  : Rig name
StartDate   .  : Start date

~Curves
DEPTH.m            .  : null {F}Depth mMD
Hole_ID.-          .  : null {S}Hole ID
GR.API             .  : null {F}Gamma Ray
Lithology1.-       .  : null {S}Lithology 1
Lithology2.-       .  : null {S}Lithology 2
Lithology3.-       .  : null {S}Lithology 3
Lithology1.%       .  : null {F}Lithology 1 percentage
Lithology2.%       .  : null {F}Lithology 2 percentage
Lithology3.%       .  : null {F}Lithology 3 percentage
Grain_size_Top.-   .  : null {S}Grain size at the top 
Grain_size_Base.-  .  : null {S}Grain size at the bottom
Sub_Environment.-  .  : null {S}Sub Environment
Gross_Environment.-.  : null {S}Gross Environment

~Ascii
# ...
2532.7 "6507_11-1" 25.40000 "Sandstone" "Shale"   "Limestone"  70.0000 25.00000 5.000000 "vc"       "vc"       "Ytre_del_av_bukt_sekvens_(tidevannssand-rygg)_overligger_finkornete_delta-front-avsetninger" "BUKTSEKVENS,_TROLIG_I_ET_FLUVIAL-/_TIDEVANNS_DOMINERT_DELTASYSTEM"
2532.8 "6507_11-1" 26.05000 "Sandstone" "Shale"   "Limestone"  70.0000 25.00000 5.000000 "vc"       "vc"       "Ytre_del_av_bukt_sekvens_(tidevannssand-rygg)_overligger_finkornete_delta-front-avsetninger" "BUKTSEKVENS,_TROLIG_I_ET_FLUVIAL-/_TIDEVANNS_DOMINERT_DELTASYSTEM"
2532.9 "6507_11-1" 26.87000 "Sandstone" "Shale"   "Limestone"  70.0000 25.00000 5.000000 "vc"       "vc"       "Ytre_del_av_bukt_sekvens_(tidevannssand-rygg)_overligger_finkornete_delta-front-avsetninger" "BUKTSEKVENS,_TROLIG_I_ET_FLUVIAL-/_TIDEVANNS_DOMINERT_DELTASYSTEM"
2533.0 "6507_11-1" 27.99000 "Sandstone" "Shale"   "Limestone"  70.0000 25.00000 5.000000 "vc"       "vc"       "Ytre_del_av_bukt_sekvens_(tidevannssand-rygg)_overligger_finkornete_delta-front-avsetninger" "BUKTSEKVENS,_TROLIG_I_ET_FLUVIAL-/_TIDEVANNS_DOMINERT_DELTASYSTEM"
2533.1 "6507_11-1" 28.51000 "Sandstone" "Shale"   "Limestone"  70.0000 25.00000 5.000000 "vc"       "vc"       "Ytre_del_av_bukt_sekvens_(tidevannssand-rygg)_overligger_finkornete_delta-front-avsetninger" "BUKTSEKVENS,_TROLIG_I_ET_FLUVIAL-/_TIDEVANNS_DOMINERT_DELTASYSTEM"
2533.2 "6507_11-1" 28.56000 "Sandstone" "Shale"   "Limestone"  70.0000 25.00000 5.000000 "vc"       "vc"       "Ytre_del_av_bukt_sekvens_(tidevannssand-rygg)_overligger_finkornete_delta-front-avsetninger" "BUKTSEKVENS,_TROLIG_I_ET_FLUVIAL-/_TIDEVANNS_DOMINERT_DELTASYSTEM"
2533.3 "6507_11-1" 28.60000 "Sandstone" "Shale"   "Limestone"  70.0000 25.00000 5.000000 "vc"       "vc"       "Ytre_del_av_bukt_sekvens_(tidevannssand-rygg)_overligger_finkornete_delta-front-avsetninger" "BUKTSEKVENS,_TROLIG_I_ET_FLUVIAL-/_TIDEVANNS_DOMINERT_DELTASYSTEM"
2533.4 "6507_11-1" 28.65000 "Sandstone" "Shale"   "Limestone"  70.0000 25.00000 5.000000 "vc"       "vc"       "Ytre_del_av_bukt_sekvens_(tidevannssand-rygg)_overligger_finkornete_delta-front-avsetninger" "BUKTSEKVENS,_TROLIG_I_ET_FLUVIAL-/_TIDEVANNS_DOMINERT_DELTASYSTEM"
2533.5 "6507_11-1" 28.45000 "Sandstone" "Shale"   "Limestone"  70.0000 25.00000 5.000000 "vc"       "vc"       "Ytre_del_av_bukt_sekvens_(tidevannssand-rygg)_overligger_finkornete_delta-front-avsetninger" "BUKTSEKVENS,_TROLIG_I_ET_FLUVIAL-/_TIDEVANNS_DOMINERT_DELTASYSTEM"
2533.6 "6507_11-1" 28.13000 "Sandstone" "Shale"   "Limestone"  70.0000 25.00000 5.000000 "vc"       "vc"       "Ytre_del_av_bukt_sekvens_(tidevannssand-rygg)_overligger_finkornete_delta-front-avsetninger" "BUKTSEKVENS,_TROLIG_I_ET_FLUVIAL-/_TIDEVANNS_DOMINERT_DELTASYSTEM"
2533.7 "6507_11-1" 27.80000 "Sandstone" "Shale"   "Limestone"  70.0000 25.00000 5.000000 "vc"       "vc"       "Ytre_del_av_bukt_sekvens_(tidevannssand-rygg)_overligger_finkornete_delta-front-avsetninger" "BUKTSEKVENS,_TROLIG_I_ET_FLUVIAL-/_TIDEVANNS_DOMINERT_DELTASYSTEM"
2533.8 "6507_11-1" 27.47000 "Sandstone" "Shale"   "Limestone"  70.0000 25.00000 5.000000 "vc"       "vc"       "Ytre_del_av_bukt_sekvens_(tidevannssand-rygg)_overligger_finkornete_delta-front-avsetninger" "BUKTSEKVENS,_TROLIG_I_ET_FLUVIAL-/_TIDEVANNS_DOMINERT_DELTASYSTEM"
2533.9 "6507_11-1" 27.17000 "Sandstone" "Shale"   "Limestone"  70.0000 25.00000 5.000000 "vc"       "vc"       "Ytre_del_av_bukt_sekvens_(tidevannssand-rygg)_overligger_finkornete_delta-front-avsetninger" "BUKTSEKVENS,_TROLIG_I_ET_FLUVIAL-/_TIDEVANNS_DOMINERT_DELTASYSTEM"
2534.0 "6507_11-1" 27.41000 "Sandstone" "Shale"   "Limestone"  70.0000 25.00000 5.000000 "vc"       "vc"       "Ytre_del_av_bukt_sekvens_(tidevannssand-rygg)_overligger_finkornete_delta-front-avsetninger" "BUKTSEKVENS,_TROLIG_I_ET_FLUVIAL-/_TIDEVANNS_DOMINERT_DELTASYSTEM"
2534.1 "6507_11-1" 27.65000 "Sandstone" "Shale"   "Limestone"  70.0000 25.00000 5.000000 "vc"       "vc"       "Ytre_del_av_bukt_sekvens_(tidevannssand-rygg)_overligger_finkornete_delta-front-avsetninger" "BUKTSEKVENS,_TROLIG_I_ET_FLUVIAL-/_TIDEVANNS_DOMINERT_DELTASYSTEM"
2534.2 "6507_11-1" 27.89000 "Sandstone" "Shale"   "Limestone"  70.0000 25.00000 5.000000 "vc"       "vc"       "Ytre_del_av_bukt_sekvens_(tidevannssand-rygg)_overligger_finkornete_delta-front-avsetninger" "BUKTSEKVENS,_TROLIG_I_ET_FLUVIAL-/_TIDEVANNS_DOMINERT_DELTASYSTEM"
2534.3 "6507_11-1" 28.23000 "Sandstone" "Shale"   "Limestone"  70.0000 25.00000 5.000000 "vc"       "vc"       "Ytre_del_av_bukt_sekvens_(tidevannssand-rygg)_overligger_finkornete_delta-front-avsetninger" "BUKTSEKVENS,_TROLIG_I_ET_FLUVIAL-/_TIDEVANNS_DOMINERT_DELTASYSTEM"
2534.4 "6507_11-1" 28.74000 "Sandstone" "Shale"   "Limestone"  70.0000 25.00000 5.000000 "vc"       "vc"       "Ytre_del_av_bukt_sekvens_(tidevannssand-rygg)_overligger_finkornete_delta-front-avsetninger" "BUKTSEKVENS,_TROLIG_I_ET_FLUVIAL-/_TIDEVANNS_DOMINERT_DELTASYSTEM"
2534.5 "6507_11-1" 29.25000 "Sandstone" "Shale"   "Limestone"  70.0000 25.00000 5.000000 "vc"       "vc"       "Ytre_del_av_bukt_sekvens_(tidevannssand-rygg)_overligger_finkornete_delta-front-avsetninger" "BUKTSEKVENS,_TROLIG_I_ET_FLUVIAL-/_TIDEVANNS_DOMINERT_DELTASYSTEM"
2534.6 "6507_11-1" 29.76000 "Sandstone" "Shale"   "Limestone"  70.0000 25.00000 5.000000 "vc"       "vc"       "Ytre_del_av_bukt_sekvens_(tidevannssand-rygg)_overligger_finkornete_delta-front-avsetninger" "BUKTSEKVENS,_TROLIG_I_ET_FLUVIAL-/_TIDEVANNS_DOMINERT_DELTASYSTEM"
2534.7 "6507_11-1" 29.76000 "Sandstone" "Shale"   "Limestone"  70.0000 25.00000 5.000000 "vc"       "vc"       "Ytre_del_av_bukt_sekvens_(tidevannssand-rygg)_overligger_finkornete_delta-front-avsetninger" "BUKTSEKVENS,_TROLIG_I_ET_FLUVIAL-/_TIDEVANNS_DOMINERT_DELTASYSTEM"
2534.8 "6507_11-1" 29.54000 "Sandstone" "Shale"   "Limestone"  70.0000 25.00000 5.000000 "vc"       "vc"       "Ytre_del_av_bukt_sekvens_(tidevannssand-rygg)_overligger_finkornete_delta-front-avsetninger" "BUKTSEKVENS,_TROLIG_I_ET_FLUVIAL-/_TIDEVANNS_DOMINERT_DELTASYSTEM"
2534.9 "6507_11-1" 29.32000 "Sandstone" "Shale"   "Limestone"  70.0000 25.00000 5.000000 "vc"       "vc"       "Ytre_del_av_bukt_sekvens_(tidevannssand-rygg)_overligger_finkornete_delta-front-avsetninger" "BUKTSEKVENS,_TROLIG_I_ET_FLUVIAL-/_TIDEVANNS_DOMINERT_DELTASYSTEM"
2535.0 "6507_11-1" 29.10000 "Sandstone" "Shale"   "Limestone"  70.0000 25.00000 5.000000 "vc"       "vc"       "Ytre_del_av_bukt_sekvens_(tidevannssand-rygg)_overligger_finkornete_delta-front-avsetninger" "BUKTSEKVENS,_TROLIG_I_ET_FLUVIAL-/_TIDEVANNS_DOMINERT_DELTASYSTEM"
2535.1 "6507_11-1" 28.75000 "Sandstone" "Shale"   "Limestone"  70.0000 25.00000 5.000000 "vc"       "vc"       "Ytre_del_av_bukt_sekvens_(tidevannssand-rygg)_overligger_finkornete_delta-front-avsetninger" "BUKTSEKVENS,_TROLIG_I_ET_FLUVIAL-/_TIDEVANNS_DOMINERT_DELTASYSTEM"
2535.2 "6507_11-1" 28.40000 "Sandstone" "Shale"   "Limestone"  70.0000 25.00000 5.000000 "vc"       "vc"       "Ytre_del_av_bukt_sekvens_(tidevannssand-rygg)_overligger_finkornete_delta-front-avsetninger" "BUKTSEKVENS,_TROLIG_I_ET_FLUVIAL-/_TIDEVANNS_DOMINERT_DELTASYSTEM"
2535.3 "6507_11-1" 28.34000 "Sandstone" "Shale"   "Limestone"  70.0000 25.00000 5.000000 "vc"       "vc"       "Ytre_del_av_bukt_sekvens_(tidevannssand-rygg)_overligger_finkornete_delta-front-avsetninger" "BUKTSEKVENS,_TROLIG_I_ET_FLUVIAL-/_TIDEVANNS_DOMINERT_DELTASYSTEM"
2535.4 "6507_11-1" 28.38000 "Sandstone" "Shale"   "Limestone"  70.0000 25.00000 5.000000 "vc"       "vc"       "Ytre_del_av_bukt_sekvens_(tidevannssand-rygg)_overligger_finkornete_delta-front-avsetninger" "BUKTSEKVENS,_TROLIG_I_ET_FLUVIAL-/_TIDEVANNS_DOMINERT_DELTASYSTEM"
2535.5 "6507_11-1" 28.23000 "Sandstone" "Shale"   "Limestone"  70.0000 25.00000 5.000000 "vc"       "vc"       "Ytre_del_av_bukt_sekvens_(tidevannssand-rygg)_overligger_finkornete_delta-front-avsetninger" "BUKTSEKVENS,_TROLIG_I_ET_FLUVIAL-/_TIDEVANNS_DOMINERT_DELTASYSTEM"
2535.6 "6507_11-1" 27.84000 "Sandstone" "Shale"   "Limestone"  70.0000 25.00000 5.000000 "vc"       "vc"       "Ytre_del_av_bukt_sekvens_(tidevannssand-rygg)_overligger_finkornete_delta-front-avsetninger" "BUKTSEKVENS,_TROLIG_I_ET_FLUVIAL-/_TIDEVANNS_DOMINERT_DELTASYSTEM"
