~Version
VERS  .                                 3.0 : CWLS LAS ASCII Standard - Version 3.0
WRAP  . NO                                  : One line per depth step
DLM   . SPACE                               : Column data section delimiter
SOURCE. Converted to LAS by Log Studio 4.76 : GeoProvider

~Well
STRT.    2502.7 : Start depth
STOP.    2543.0 : Stop depth
STEP.         1 : Step
NULL.   -999.25 : No-value
COMP.           : Company
WELL. 6507/11-1 : Well
FLD .           : Field
LOC .           : Location
LATI.           : Latitude
LONG.           : Longitude
GDAT.           : Geodetic datum
CNTY.           : County
STAT.           : State
CTRY.           : Country
SRVC. GeoProvider AS : Service company
DATE.           : Date
API .           : API number
RUN .           : Run number

~Parameters
WellboreName.  : Wellbore name
RigName     .  : Rig name
StartDate   .  : Start date

~Curves
DEPTH.m            .  : null {F}Depth mMD
Hole_ID.-          .  : null {S}Hole ID
GR.API             .  : null {F}Gamma Ray
Lithology1.-       .  : null {S}Lithology 1
Lithology2.-       .  : null {S}Lithology 2
Lithology3.-       .  : null {S}Lithology 3
Lithology1.%       .  : null {F}Lithology 1 percentage
Lithology2.%       .  : null {F}Lithology 2 percentage
Lithology3.%       .  : null {F}Lithology 3 percentage
Grain_size_Top.-   .  : null {S}Grain size at the top 
Grain_size_Base.-  .  : null {S}Grain size at the bottom
Sub_Environment.-  .  : null {S}Sub Environment
Gross_Environment.-.  : null {S}Gross Environment

~Ascii
# ...
2526.7 "6507_11-1" 36.74000 -999.25   -999.25   -999.25    -999.25  -999.25  -999.25 -999.25    -999.25    "Indre_del_av_bukt.__Dominert__av__(?)_tidevanns-kanaler"                                   "BUKTSEKVENS,_TROLIG_I_ET_FLUVIAL-/_TIDEVANNS_DOMINERT_DELTASYSTEM"
2526.8 "6507_11-1" 38.18000 -999.25   -999.25   -999.25    -999.25  -999.25  -999.25 -999.25    -999.25    "Indre_del_av_bukt.__Dominert__av__(?)_tidevanns-kanaler"                                   "BUKTSEKVENS,_TROLIG_I_ET_FLUVIAL-/_TIDEVANNS_DOMINERT_DELTASYSTEM"
2526.9 "6507_11-1" 38.67000 -999.25   -999.25   -999.25    -999.25  -999.25  -999.25 -999.25    -999.25    "Indre_del_av_bukt.__Dominert__av__(?)_tidevanns-kanaler"                                   "BUKTSEKVENS,_TROLIG_I_ET_FLUVIAL-/_TIDEVANNS_DOMINERT_DELTASYSTEM"
2527.0 "6507_11-1" 39.16000 -999.25   -999.25   -999.25    -999.25  -999.25  -999.25 -999.25    -999.25    "Indre_del_av_bukt.__Dominert__av__(?)_tidevanns-kanaler"                                   "BUKTSEKVENS,_TROLIG_I_ET_FLUVIAL-/_TIDEVANNS_DOMINERT_DELTASYSTEM"
2527.1 "6507_11-1" 39.65000 -999.25   -999.25   -999.25    -999.25  -999.25  -999.25 -999.25    -999.25    "Indre_del_av_bukt.__Dominert__av__(?)_tidevanns-kanaler"                                   "BUKTSEKVENS,_TROLIG_I_ET_FLUVIAL-/_TIDEVANNS_DOMINERT_DELTASYSTEM"
2527.2 "6507_11-1" 40.14000 -999.25   -999.25   -999.25    -999.25  -999.25  -999.25 -999.25    -999.25    "Indre_del_av_bukt.__Dominert__av__(?)_tidevanns-kanaler"                                   "BUKTSEKVENS,_TROLIG_I_ET_FLUVIAL-/_TIDEVANNS_DOMINERT_DELTASYSTEM"
2527.3 "6507_11-1" 40.23000 -999.25   -999.25   -999.25    -999.25  -999.25  -999.25 -999.25    -999.25    "Indre_del_av_bukt.__Dominert__av__(?)_tidevanns-kanaler"                                   "BUKTSEKVENS,_TROLIG_I_ET_FLUVIAL-/_TIDEVANNS_DOMINERT_DELTASYSTEM"
2527.4 "6507_11-1" 40.12000 -999.25   -999.25   -999.25    -999.25  -999.25  -999.25 -999.25    -999.25    "Indre_del_av_bukt.__Dominert__av__(?)_tidevanns-kanaler"                                   "BUKTSEKVENS,_TROLIG_I_ET_FLUVIAL-/_TIDEVANNS_DOMINERT_DELTASYSTEM"
2527.5 "6507_11-1" 40.01000 -999.25   -999.25   -999.25    -999.25  -999.25  -999.25 -999.25    -999.25    "Indre_del_av_bukt.__Dominert__av__(?)_tidevanns-kanaler"                                   "BUKTSEKVENS,_TROLIG_I_ET_FLUVIAL-/_TIDEVANNS_DOMINERT_DELTASYSTEM"
2527.6 "6507_11-1" 39.25000 -999.25   -999.25   -999.25    -999.25  -999.25  -999.25 -999.25    -999.25    "Indre_del_av_bukt.__Dominert__av__(?)_tidevanns-kanaler"                                   "BUKTSEKVENS,_TROLIG_I_ET_FLUVIAL-/_TIDEVANNS_DOMINERT_DELTASYSTEM"
2527.7 "6507_11-1" 37.67000 -999.25   -999.25   -999.25    -999.25  -999.25  -999.25 -999.25    -999.25    "Indre_del_av_bukt.__Dominert__av__(?)_tidevanns-kanaler"                                   "BUKTSEKVENS,_TROLIG_I_ET_FLUVIAL-/_TIDEVANNS_DOMINERT_DELTASYSTEM"
2527.8 "6507_11-1" 35.90000 "Sandstone" "Shale"   -999.25    50.0000 50.00000      0.0 "silt/vf"  "silt/vf"  "Indre_del_av_bukt.__Dominert__av__(?)_tidevanns-kanaler"                                   "BUKTSEKVENS,_TROLIG_I_ET_FLUVIAL-/_TIDEVANNS_DOMINERT_DELTASYSTEM"
2527.9 "6507_11-1" 33.05000 "Sandstone" "Shale"   -999.25    50.0000 50.00000      0.0 "silt/vf"  "silt/vf"  "Indre_del_av_bukt.__Dominert__av__(?)_tidevanns-kanaler"                                   "BUKTSEKVENS,_TROLIG_I_ET_FLUVIAL-/_TIDEVANNS_DOMINERT_DELTASYSTEM"
2528.0 "6507_11-1" 30.21000 "Sandstone" "Shale"   -999.25    50.0000 50.00000      0.0 "silt/vf"  "silt/vf"  "Indre_del_av_bukt.__Dominert__av__(?)_tidevanns-kanaler"                                   "BUKTSEKVENS,_TROLIG_I_ET_FLUVIAL-/_TIDEVANNS_DOMINERT_DELTASYSTEM"
2528.1 "6507_11-1" 27.36000 "Sandstone" "Shale"   -999.25    50.0000 50.00000      0.0 "silt/vf"  "silt/vf"  "Indre_del_av_bukt.__Dominert__av__(?)_tidevanns-kanaler"                                   "BUKTSEKVENS,_TROLIG_I_ET_FLUVIAL-/_TIDEVANNS_DOMINERT_DELTASYSTEM"
2528.2 "6507_11-1" 26.28000 "Sandstone" "Shale"   -999.25    50.0000 50.00000      0.0 "silt/vf"  "silt/vf"  "Indre_del_av_bukt.__Dominert__av__(?)_tidevanns-kanaler"                                   "BUKTSEKVENS,_TROLIG_I_ET_FLUVIAL-/_TIDEVANNS_DOMINERT_DELTASYSTEM"
2528.3 "6507_11-1" 25.33000 "Sandstone" "Shale"   -999.25    50.0000 50.00000      0.0 "silt/vf"  "silt/vf"  "Indre_del_av_bukt.__Dominert__av__(?)_tidevanns-kanaler"                                   "BUKTSEKVENS,_TROLIG_I_ET_FLUVIAL-/_TIDEVANNS_DOMINERT_DELTASYSTEM"
2528.4 "6507_11-1" 25.20000 "Sandstone" "Shale"   -999.25    50.0000 50.00000      0.0 "silt/vf"  "silt/vf"  "Indre_del_av_bukt.__Dominert__av__(?)_tidevanns-kanaler"                                   "BUKTSEKVENS,_TROLIG_I_ET_FLUVIAL-/_TIDEVANNS_DOMINERT_DELTASYSTEM"
2528.5 "6507_11-1" 26.46000 "Sandstone" "Shale"   -999.25    50.0000 50.00000      0.0 "silt/vf"  "silt/vf"  "Indre_del_av_bukt.__Dominert__av__(?)_tidevanns-kanaler"                                   "BUKTSEKVENS,_TROLIG_I_ET_FLUVIAL-/_TIDEVANNS_DOMINERT_DELTASYSTEM"
2528.6 "6507_11-1" 28.22000 "Sandstone" "Shale"   -999.25    50.0000 50.00000      0.0 "silt/vf"  "silt/vf"  "Indre_del_av_bukt.__Dominert__av__(?)_tidevanns-kanaler"                                   "BUKTSEKVENS,_TROLIG_I_ET_FLUVIAL-/_TIDEVANNS_DOMINERT_DELTASYSTEM"
2528.7 "6507_11-1" 29.98000 "Sandstone" "Shale"   -999.25    50.0000 50.00000      0.0 "silt/vf"  "silt/vf"  "Indre_del_av_bukt.__Dominert__av__(?)_tidevanns-kanaler"                                   "BUKTSEKVENS,_TROLIG_I_ET_FLUVIAL-/_TIDEVANNS_DOMINERT_DELTASYSTEM"
2528.8 "6507_11-1" 31.74000 "Sandstone" "Shale"   -999.25    50.0000 50.00000      0.0 "silt/vf"  "silt/vf"  "Indre_del_av_bukt.__Dominert__av__(?)_tidevanns-kanaler"                                   "BUKTSEKVENS,_TROLIG_I_ET_FLUVIAL-/_TIDEVANNS_DOMINERT_DELTASYSTEM"
2528.9 "6507_11-1" 32.64000 "Sandstone" "Shale"   -999.25    70.0000 30.00000      0.0 "c"        "m/c"      "Indre_del_av_bukt.__Dominert__av__(?)_tidevanns-kanaler"                                   "BUKTSEKVENS,_TROLIG_I_ET_FLUVIAL-/_TIDEVANNS_DOMINERT_DELTASYSTEM"
2529.0 "6507_11-1" 32.91000 "Sandstone" "Shale"   -999.25    70.0000 30.00000      0.0 "c"        "m/c"      "Indre_del_av_bukt.__Dominert__av__(?)_tidevanns-kanaler"                                   "BUKTSEKVENS,_TROLIG_I_ET_FLUVIAL-/_TIDEVANNS_DOMINERT_DELTASYSTEM"
2529.1 "6507_11-1" 32.76000 "Sandstone" "Shale"   -999.25    70.0000 30.00000      0.0 "c"        "m/c"      "Indre_del_av_bukt.__Dominert__av__(?)_tidevanns-kanaler"                                   "BUKTSEKVENS,_TROLIG_I_ET_FLUVIAL-/_TIDEVANNS_DOMINERT_DELTASYSTEM"
2529.2 "6507_11-1" 31.54000 "Sandstone" "Shale"   -999.25    70.0000 30.00000      0.0 "c"        "m/c"      "Indre_del_av_bukt.__Dominert__av__(?)_tidevanns-kanaler"                                   "BUKTSEKVENS,_TROLIG_I_ET_FLUVIAL-/_TIDEVANNS_DOMINERT_DELTASYSTEM"
2529.3 "6507_11-1" 30.31000 "Sandstone" "Shale"   -999.25    70.0000 30.00000      0.0 "c"        "m/c"      "Indre_del_av_bukt.__Dominert__av__(?)_tidevanns-kanaler"                                   "BUKTSEKVENS,_TROLIG_I_ET_FLUVIAL-/_TIDEVANNS_DOMINERT_DELTASYSTEM"
2529.4 "6507_11-1" 29.09000 "Sandstone" "Shale"   -999.25    70.0000 30.00000      0.0 "c"        "m/c"      "Indre_del_av_bukt.__Dominert__av__(?)_tidevanns-kanaler"                                   "BUKTSEKVENS,_TROLIG_I_ET_FLUVIAL-/_TIDEVANNS_DOMINERT_DELTASYSTEM"
2529.5 "6507_11-1" 27.86000 "Sandstone" "Shale"   -999.25    70.0000 30.00000      0.0 "c"        "m/c"      "Indre_del_av_bukt.__Dominert__av__(?)_tidevanns-kanaler"                                   "BUKTSEKVENS,_TROLIG_I_ET_FLUVIAL-/_TIDEVANNS_DOMINERT_DELTASYSTEM"
2529.6 "6507_11-1" 26.64000 "Sandstone" "Shale"   -999.25    70.0000 30.00000      0.0 "c"        "m/c"      "Indre_del_av_bukt.__Dominert__av__(?)_tidevanns-kanaler"                                   "BUKTSEKVENS,_TROLIG_I_ET_FLUVIAL-/_TIDEVANNS_DOMINERT_DELTASYSTEM"
