~Version
VERS  .                                 3.0 : CWLS LAS ASCII Standard - Version 3.0
WRAP  . NO                                  : One line per depth step
DLM   . SPACE                               : Column data section delimiter
SOURCE. Converted to LAS by Log Studio 4.76 : GeoProvider

~Well
STRT.    2502.7 : Start depth
STOP.    2543.0 : Stop depth
STEP.         1 : Step
NULL.   -999.25 : No-value
COMP.           : Company
WELL. 6507/11-1 : Well
FLD .           : Field
LOC .           : Location
LATI.           : Latitude
LONG.           : Longitude
GDAT.           : Geodetic datum
CNTY.           : County
STAT.           : State
CTRY.           : Country
SRVC. GeoProvider AS : Service company
DATE.           : Date
API .           : API number
RUN .           : Run number

~Parameters
WellboreName.  : Wellbore name
RigName     .  : Rig name
StartDate   .  : Start date

~Curves
DEPTH.m            .  : null {F}Depth mMD
Hole_ID.-          .  : null {S}Hole ID
GR.API             .  : null {F}Gamma Ray
Lithology1.-       .  : null {S}Lithology 1
Lithology2.-       .  : null {S}Lithology 2
Lithology3.-       .  : null {S}Lithology 3
Lithology1.%       .  : null {F}Lithology 1 percentage
Lithology2.%       .  : null {F}Lithology 2 percentage
Lithology3.%       .  : null {F}Lithology 3 percentage
Grain_size_Top.-   .  : null {S}Grain size at the top 
Grain_size_Base.-  .  : null {S}Grain size at the bottom
Sub_Environment.-  .  : null {S}Sub Environment
Gross_Environment.-.  : null {S}Gross Environment

~Ascii
# ...
2520.7 "6507_11-1" 19.04000 "Sandstone" "Shale"   -999.25    95.0000  5.00000      0.0 "m/c"      "m"        "Indre_del_av_bukt.__Dominert__av__(?)_tidevanns-kanaler"                                   "BUKTSEKVENS,_TROLIG_I_ET_FLUVIAL-/_TIDEVANNS_DOMINERT_DELTASYSTEM"
2520.8 "6507_11-1" 19.64000 "Sandstone" "Shale"   -999.25    95.0000  5.00000      0.0 "m/c"      "m"        "Indre_del_av_bukt.__Dominert__av__(?)_tidevanns-kanaler"                                   "BUKTSEKVENS,_TROLIG_I_ET_FLUVIAL-/_TIDEVANNS_DOMINERT_DELTASYSTEM"
2520.9 "6507_11-1" 20.28000 "Sandstone" "Shale"   -999.25    95.0000  5.00000      0.0 "m/c"      "m"        "Indre_del_av_bukt.__Dominert__av__(?)_tidevanns-kanaler"                                   "BUKTSEKVENS,_TROLIG_I_ET_FLUVIAL-/_TIDEVANNS_DOMINERT_DELTASYSTEM"
2521.0 "6507_11-1" 20.80000 "Sandstone" "Shale"   -999.25    87.0000 13.00000      0.0 "c/vc"     "c"        "Indre_del_av_bukt.__Dominert__av__(?)_tidevanns-kanaler"                                   "BUKTSEKVENS,_TROLIG_I_ET_FLUVIAL-/_TIDEVANNS_DOMINERT_DELTASYSTEM"
2521.1 "6507_11-1" 20.41000 "Sandstone" "Shale"   -999.25    87.0000 13.00000      0.0 "c/vc"     "c"        "Indre_del_av_bukt.__Dominert__av__(?)_tidevanns-kanaler"                                   "BUKTSEKVENS,_TROLIG_I_ET_FLUVIAL-/_TIDEVANNS_DOMINERT_DELTASYSTEM"
2521.2 "6507_11-1" 20.02000 "Sandstone" "Shale"   -999.25    87.0000 13.00000      0.0 "c/vc"     "c"        "Indre_del_av_bukt.__Dominert__av__(?)_tidevanns-kanaler"                                   "BUKTSEKVENS,_TROLIG_I_ET_FLUVIAL-/_TIDEVANNS_DOMINERT_DELTASYSTEM"
2521.3 "6507_11-1" 19.64000 "Sandstone" "Shale"   -999.25    87.0000 13.00000      0.0 "c/vc"     "c"        "Indre_del_av_bukt.__Dominert__av__(?)_tidevanns-kanaler"                                   "BUKTSEKVENS,_TROLIG_I_ET_FLUVIAL-/_TIDEVANNS_DOMINERT_DELTASYSTEM"
2521.4 "6507_11-1" 19.25000 "Sandstone" "Shale"   -999.25    87.0000 13.00000      0.0 "c/vc"     "c"        "Indre_del_av_bukt.__Dominert__av__(?)_tidevanns-kanaler"                                   "BUKTSEKVENS,_TROLIG_I_ET_FLUVIAL-/_TIDEVANNS_DOMINERT_DELTASYSTEM"
2521.5 "6507_11-1" 18.86000 "Sandstone" "Shale"   -999.25    87.0000 13.00000      0.0 "c/vc"     "c"        "Indre_del_av_bukt.__Dominert__av__(?)_tidevanns-kanaler"                                   "BUKTSEKVENS,_TROLIG_I_ET_FLUVIAL-/_TIDEVANNS_DOMINERT_DELTASYSTEM"
2521.6 "6507_11-1" 18.48000 "Sandstone" "Shale"   -999.25    87.0000 13.00000      0.0 "c/vc"     "c"        "Indre_del_av_bukt.__Dominert__av__(?)_tidevanns-kanaler"                                   "BUKTSEKVENS,_TROLIG_I_ET_FLUVIAL-/_TIDEVANNS_DOMINERT_DELTASYSTEM"
2521.7 "6507_11-1" 18.09000 "Sandstone" "Shale"   -999.25    87.0000 13.00000      0.0 "c/vc"     "c"        "Indre_del_av_bukt.__Dominert__av__(?)_tidevanns-kanaler"                                   "BUKTSEKVENS,_TROLIG_I_ET_FLUVIAL-/_TIDEVANNS_DOMINERT_DELTASYSTEM"
2521.8 "6507_11-1" 17.70000 "Sandstone" "Shale"   -999.25    87.0000 13.00000      0.0 "c/vc"     "c"        "Indre_del_av_bukt.__Dominert__av__(?)_tidevanns-kanaler"                                   "BUKTSEKVENS,_TROLIG_I_ET_FLUVIAL-/_TIDEVANNS_DOMINERT_DELTASYSTEM"
2521.9 "6507_11-1" 17.59000 "Sandstone" "Shale"   -999.25    87.0000 13.00000      0.0 "c/vc"     "c"        "Indre_del_av_bukt.__Dominert__av__(?)_tidevanns-kanaler"                                   "BUKTSEKVENS,_TROLIG_I_ET_FLUVIAL-/_TIDEVANNS_DOMINERT_DELTASYSTEM"
2522.0 "6507_11-1" 18.80000 "Sandstone" "Shale"   -999.25    87.0000 13.00000      0.0 "c/vc"     "c"        "Indre_del_av_bukt.__Dominert__av__(?)_tidevanns-kanaler"                                   "BUKTSEKVENS,_TROLIG_I_ET_FLUVIAL-/_TIDEVANNS_DOMINERT_DELTASYSTEM"
2522.1 "6507_11-1" 19.99000 "Sandstone" "Shale"   -999.25    87.0000 13.00000      0.0 "c/vc"     "c"        "Indre_del_av_bukt.__Dominert__av__(?)_tidevanns-kanaler"                                   "BUKTSEKVENS,_TROLIG_I_ET_FLUVIAL-/_TIDEVANNS_DOMINERT_DELTASYSTEM"
2522.2 "6507_11-1" 21.15000 "Sandstone" "Shale"   -999.25    87.0000 13.00000      0.0 "c/vc"     "c"        "Indre_del_av_bukt.__Dominert__av__(?)_tidevanns-kanaler"                                   "BUKTSEKVENS,_TROLIG_I_ET_FLUVIAL-/_TIDEVANNS_DOMINERT_DELTASYSTEM"
2522.3 "6507_11-1" 22.31000 "Sandstone" "Shale"   -999.25    87.0000 13.00000      0.0 "c/vc"     "c"        "Indre_del_av_bukt.__Dominert__av__(?)_tidevanns-kanaler"                                   "BUKTSEKVENS,_TROLIG_I_ET_FLUVIAL-/_TIDEVANNS_DOMINERT_DELTASYSTEM"
2522.4 "6507_11-1" 23.47000 "Sandstone" "Shale"   -999.25    87.0000 13.00000      0.0 "c/vc"     "c"        "Indre_del_av_bukt.__Dominert__av__(?)_tidevanns-kanaler"                                   "BUKTSEKVENS,_TROLIG_I_ET_FLUVIAL-/_TIDEVANNS_DOMINERT_DELTASYSTEM"
2522.5 "6507_11-1" 24.63000 "Sandstone" "Shale"   -999.25    87.0000 13.00000      0.0 "c/vc"     "c"        "Indre_del_av_bukt.__Dominert__av__(?)_tidevanns-kanaler"                                   "BUKTSEKVENS,_TROLIG_I_ET_FLUVIAL-/_TIDEVANNS_DOMINERT_DELTASYSTEM"
2522.6 "6507_11-1" 25.10000 "Sandstone" "Shale"   -999.25    87.0000 13.00000      0.0 "c/vc"     "c"        "Indre_del_av_bukt.__Dominert__av__(?)_tidevanns-kanaler"                                   "BUKTSEKVENS,_TROLIG_I_ET_FLUVIAL-/_TIDEVANNS_DOMINERT_DELTASYSTEM"
2522.7 "6507_11-1" 25.04000 "Sandstone" "Shale"   -999.25    87.0000 13.00000      0.0 "c/vc"     "c"        "Indre_del_av_bukt.__Dominert__av__(?)_tidevanns-kanaler"                                   "BUKTSEKVENS,_TROLIG_I_ET_FLUVIAL-/_TIDEVANNS_DOMINERT_DELTASYSTEM"
2522.8 "6507_11-1" 24.12000 "Sandstone" "Shale"   -999.25    87.0000 13.00000      0.0 "c/vc"     "c"        "Indre_del_av_bukt.__Dominert__av__(?)_tidevanns-kanaler"                                   "BUKTSEKVENS,_TROLIG_I_ET_FLUVIAL-/_TIDEVANNS_DOMINERT_DELTASYSTEM"
2522.9 "6507_11-1" 23.19000 "Sandstone" "Shale"   -999.25    87.0000 13.00000      0.0 "c/vc"     "c"        "Indre_del_av_bukt.__Dominert__av__(?)_tidevanns-kanaler"                                   "BUKTSEKVENS,_TROLIG_I_ET_FLUVIAL-/_TIDEVANNS_DOMINERT_DELTASYSTEM"
2523.0 "6507_11-1" 22.26000 "Sandstone" "Shale"   -999.25    87.0000 13.00000      0.0 "c/vc"     "c"        "Indre_del_av_bukt.__Dominert__av__(?)_tidevanns-kanaler"                                   "BUKTSEKVENS,_TROLIG_I_ET_FLUVIAL-/_TIDEVANNS_DOMINERT_DELTASYSTEM"
2523.1 "6507_11-1" 21.33000 "Sandstone" "Shale"   -999.25    87.0000 13.00000      0.0 "c/vc"     "c"        "Indre_del_av_bukt.__Dominert__av__(?)_tidevanns-kanaler"                                   "BUKTSEKVENS,_TROLIG_I_ET_FLUVIAL-/_TIDEVANNS_DOMINERT_DELTASYSTEM"
2523.2 "6507_11-1" 21.41000 "Sandstone" "Shale"   -999.25    87.0000 13.00000      0.0 "c/vc"     "c"        "Indre_del_av_bukt.__Dominert__av__(?)_tidevanns-kanaler"                                   "BUKTSEKVENS,_TROLIG_I_ET_FLUVIAL-/_TIDEVANNS_DOMINERT_DELTASYSTEM"
2523.3 "6507_11-1" 21.80000 "Sandstone" "Shale"   -999.25    30.0000 70.00000      0.0 "vf"       "vf"       "Indre_del_av_bukt.__Dominert__av__(?)_tidevanns-kanaler"                                   "BUKTSEKVENS,_TROLIG_I_ET_FLUVIAL-/_TIDEVANNS_DOMINERT_DELTASYSTEM"
2523.4 "6507_11-1" 22.18000 "Sandstone" "Shale"   -999.25    30.0000 70.00000      0.0 "vf"       "vf"       "Indre_del_av_bukt.__Dominert__av__(?)_tidevanns-kanaler"                                   "BUKTSEKVENS,_TROLIG_I_ET_FLUVIAL-/_TIDEVANNS_DOMINERT_DELTASYSTEM"
2523.5 "6507_11-1" 21.90000 "Sandstone" "Shale"   -999.25    30.0000 70.00000      0.0 "vf"       "vf"       "Indre_del_av_bukt.__Dominert__av__(?)_tidevanns-kanaler"                                   "BUKTSEKVENS,_TROLIG_I_ET_FLUVIAL-/_TIDEVANNS_DOMINERT_DELTASYSTEM"
2523.6 "6507_11-1" 21.43000 "Sandstone" "Shale"   -999.25    30.0000 70.00000      0.0 "vf"       "vf"       "Indre_del_av_bukt.__Dominert__av__(?)_tidevanns-kanaler"                                   "BUKTSEKVENS,_TROLIG_I_ET_FLUVIAL-/_TIDEVANNS_DOMINERT_DELTASYSTEM"
