~Version
VERS  .                                 3.0 : CWLS LAS ASCII Standard - Version 3.0
WRAP  . NO                                  : One line per depth step
DLM   . SPACE                               : Column data section delimiter
SOURCE. Converted to LAS by Log Studio 4.76 : GeoProvider

~Well
STRT.    2502.7 : Start depth
STOP.    2543.0 : Stop depth
STEP.         1 : Step
NULL.   -999.25 : No-value
COMP.           : Company
WELL. 6507/11-1 : Well
FLD .           : Field
LOC .           : Location
LATI.           : Latitude
LONG.           : Longitude
GDAT.           : Geodetic datum
CNTY.           : County
STAT.           : State
CTRY.           : Country
SRVC. GeoProvider AS : Service company
DATE.           : Date
API .           : API number
RUN .           : Run number

~Parameters
WellboreName.  : Wellbore name
RigName     .  : Rig name
StartDate   .  : Start date

~Curves
DEPTH.m            .  : null {F}Depth mMD
Hole_ID.-          .  : null {S}Hole ID
GR.API             .  : null {F}Gamma Ray
Lithology1.-       .  : null {S}Lithology 1
Lithology2.-       .  : null {S}Lithology 2
Lithology3.-       .  : null {S}Lithology 3
Lithology1.%       .  : null {F}Lithology 1 percentage
Lithology2.%       .  : null {F}Lithology 2 percentage
Lithology3.%       .  : null {F}Lithology 3 percentage
Grain_size_Top.-   .  : null {S}Grain size at the top 
Grain_size_Base.-  .  : null {S}Grain size at the bottom
Sub_Environment.-  .  : null {S}Sub Environment
Gross_Environment.-.  : null {S}Gross Environment

~Ascii
# ...
2508.7 "6507_11-1" 34.06000 -999.25   -999.25   -999.25    -999.25  -999.25  -999.25 -999.25    -999.25    "Indre_del_av_bukt.__Dominert__av__(?)_tidevanns-kanaler"                                   "BUKTSEKVENS,_TROLIG_I_ET_FLUVIAL-/_TIDEVANNS_DOMINERT_DELTASYSTEM"
2508.8 "6507_11-1" 33.77000 -999.25   -999.25   -999.25    -999.25  -999.25  -999.25 -999.25    -999.25    "Indre_del_av_bukt.__Dominert__av__(?)_tidevanns-kanaler"                                   "BUKTSEKVENS,_TROLIG_I_ET_FLUVIAL-/_TIDEVANNS_DOMINERT_DELTASYSTEM"
2508.9 "6507_11-1" 33.48000 -999.25   -999.25   -999.25    -999.25  -999.25  -999.25 -999.25    -999.25    "Indre_del_av_bukt.__Dominert__av__(?)_tidevanns-kanaler"                                   "BUKTSEKVENS,_TROLIG_I_ET_FLUVIAL-/_TIDEVANNS_DOMINERT_DELTASYSTEM"
2509.0 "6507_11-1" 33.19000 -999.25   -999.25   -999.25    -999.25  -999.25  -999.25 -999.25    -999.25    "Indre_del_av_bukt.__Dominert__av__(?)_tidevanns-kanaler"                                   "BUKTSEKVENS,_TROLIG_I_ET_FLUVIAL-/_TIDEVANNS_DOMINERT_DELTASYSTEM"
2509.1 "6507_11-1" 32.65000 -999.25   -999.25   -999.25    -999.25  -999.25  -999.25 -999.25    -999.25    "Indre_del_av_bukt.__Dominert__av__(?)_tidevanns-kanaler"                                   "BUKTSEKVENS,_TROLIG_I_ET_FLUVIAL-/_TIDEVANNS_DOMINERT_DELTASYSTEM"
2509.2 "6507_11-1" 32.12000 -999.25   -999.25   -999.25    -999.25  -999.25  -999.25 -999.25    -999.25    "Indre_del_av_bukt.__Dominert__av__(?)_tidevanns-kanaler"                                   "BUKTSEKVENS,_TROLIG_I_ET_FLUVIAL-/_TIDEVANNS_DOMINERT_DELTASYSTEM"
2509.3 "6507_11-1" 31.50000 -999.25   -999.25   -999.25    -999.25  -999.25  -999.25 -999.25    -999.25    "Indre_del_av_bukt.__Dominert__av__(?)_tidevanns-kanaler"                                   "BUKTSEKVENS,_TROLIG_I_ET_FLUVIAL-/_TIDEVANNS_DOMINERT_DELTASYSTEM"
2509.4 "6507_11-1" 28.32000 -999.25   -999.25   -999.25    -999.25  -999.25  -999.25 -999.25    -999.25    "Indre_del_av_bukt.__Dominert__av__(?)_tidevanns-kanaler"                                   "BUKTSEKVENS,_TROLIG_I_ET_FLUVIAL-/_TIDEVANNS_DOMINERT_DELTASYSTEM"
2509.5 "6507_11-1" 25.13000 -999.25   -999.25   -999.25    -999.25  -999.25  -999.25 -999.25    -999.25    "Indre_del_av_bukt.__Dominert__av__(?)_tidevanns-kanaler"                                   "BUKTSEKVENS,_TROLIG_I_ET_FLUVIAL-/_TIDEVANNS_DOMINERT_DELTASYSTEM"
2509.6 "6507_11-1" 21.94000 -999.25   -999.25   -999.25    -999.25  -999.25  -999.25 -999.25    -999.25    "Indre_del_av_bukt.__Dominert__av__(?)_tidevanns-kanaler"                                   "BUKTSEKVENS,_TROLIG_I_ET_FLUVIAL-/_TIDEVANNS_DOMINERT_DELTASYSTEM"
2509.7 "6507_11-1" 18.76000 -999.25   -999.25   -999.25    -999.25  -999.25  -999.25 -999.25    -999.25    "Indre_del_av_bukt.__Dominert__av__(?)_tidevanns-kanaler"                                   "BUKTSEKVENS,_TROLIG_I_ET_FLUVIAL-/_TIDEVANNS_DOMINERT_DELTASYSTEM"
2509.8 "6507_11-1" 16.13000 -999.25   -999.25   -999.25    -999.25  -999.25  -999.25 -999.25    -999.25    "Indre_del_av_bukt.__Dominert__av__(?)_tidevanns-kanaler"                                   "BUKTSEKVENS,_TROLIG_I_ET_FLUVIAL-/_TIDEVANNS_DOMINERT_DELTASYSTEM"
2509.9 "6507_11-1" 15.66000 "Sandstone" "Limestone" "Shale"    90.0000  5.00000 5.000000 "m/c"      "m"        "Indre_del_av_bukt.__Dominert__av__(?)_tidevanns-kanaler"                                   "BUKTSEKVENS,_TROLIG_I_ET_FLUVIAL-/_TIDEVANNS_DOMINERT_DELTASYSTEM"
2510.0 "6507_11-1" 15.34000 "Sandstone" "Limestone" "Shale"    90.0000  5.00000 5.000000 "m/c"      "m"        "Indre_del_av_bukt.__Dominert__av__(?)_tidevanns-kanaler"                                   "BUKTSEKVENS,_TROLIG_I_ET_FLUVIAL-/_TIDEVANNS_DOMINERT_DELTASYSTEM"
2510.1 "6507_11-1" 16.04000 "Sandstone" "Limestone" "Shale"    90.0000  5.00000 5.000000 "m/c"      "m"        "Indre_del_av_bukt.__Dominert__av__(?)_tidevanns-kanaler"                                   "BUKTSEKVENS,_TROLIG_I_ET_FLUVIAL-/_TIDEVANNS_DOMINERT_DELTASYSTEM"
2510.2 "6507_11-1" 16.73000 "Sandstone" "Limestone" "Shale"    90.0000  5.00000 5.000000 "m/c"      "m"        "Indre_del_av_bukt.__Dominert__av__(?)_tidevanns-kanaler"                                   "BUKTSEKVENS,_TROLIG_I_ET_FLUVIAL-/_TIDEVANNS_DOMINERT_DELTASYSTEM"
2510.3 "6507_11-1" 17.42000 "Sandstone" "Limestone" "Shale"    90.0000  5.00000 5.000000 "m/c"      "m"        "Indre_del_av_bukt.__Dominert__av__(?)_tidevanns-kanaler"                                   "BUKTSEKVENS,_TROLIG_I_ET_FLUVIAL-/_TIDEVANNS_DOMINERT_DELTASYSTEM"
2510.4 "6507_11-1" 18.11000 "Sandstone" "Limestone" "Shale"    90.0000  5.00000 5.000000 "m/c"      "m"        "Indre_del_av_bukt.__Dominert__av__(?)_tidevanns-kanaler"                                   "BUKTSEKVENS,_TROLIG_I_ET_FLUVIAL-/_TIDEVANNS_DOMINERT_DELTASYSTEM"
2510.5 "6507_11-1" 19.67000 "Sandstone" "Limestone" "Shale"    90.0000  5.00000 5.000000 "m/c"      "m"        "Indre_del_av_bukt.__Dominert__av__(?)_tidevanns-kanaler"                                   "BUKTSEKVENS,_TROLIG_I_ET_FLUVIAL-/_TIDEVANNS_DOMINERT_DELTASYSTEM"
2510.6 "6507_11-1" 21.49000 "Sandstone" "Limestone" "Shale"    90.0000  5.00000 5.000000 "m/c"      "m"        "Indre_del_av_bukt.__Dominert__av__(?)_tidevanns-kanaler"                                   "BUKTSEKVENS,_TROLIG_I_ET_FLUVIAL-/_TIDEVANNS_DOMINERT_DELTASYSTEM"
2510.7 "6507_11-1" 23.30000 "Sandstone" "Limestone" "Shale"    90.0000  5.00000 5.000000 "m/c"      "m"        "Indre_del_av_bukt.__Dominert__av__(?)_tidevanns-kanaler"                                   "BUKTSEKVENS,_TROLIG_I_ET_FLUVIAL-/_TIDEVANNS_DOMINERT_DELTASYSTEM"
2510.8 "6507_11-1" 25.11000 "Sandstone" "Limestone" "Shale"    90.0000  5.00000 5.000000 "m/c"      "m"        "Indre_del_av_bukt.__Dominert__av__(?)_tidevanns-kanaler"                                   "BUKTSEKVENS,_TROLIG_I_ET_FLUVIAL-/_TIDEVANNS_DOMINERT_DELTASYSTEM"
2510.9 "6507_11-1" 27.13000 "Sandstone" "Limestone" "Shale"    90.0000  5.00000 5.000000 "m/c"      "m"        "Indre_del_av_bukt.__Dominert__av__(?)_tidevanns-kanaler"                                   "BUKTSEKVENS,_TROLIG_I_ET_FLUVIAL-/_TIDEVANNS_DOMINERT_DELTASYSTEM"
2511.0 "6507_11-1" 28.72000 "Sandstone" "Limestone" "Shale"    90.0000  5.00000 5.000000 "m/c"      "m"        "Indre_del_av_bukt.__Dominert__av__(?)_tidevanns-kanaler"                                   "BUKTSEKVENS,_TROLIG_I_ET_FLUVIAL-/_TIDEVANNS_DOMINERT_DELTASYSTEM"
2511.1 "6507_11-1" 29.54000 "Sandstone" "Limestone" "Shale"    90.0000  5.00000 5.000000 "m/c"      "m"        "Indre_del_av_bukt.__Dominert__av__(?)_tidevanns-kanaler"                                   "BUKTSEKVENS,_TROLIG_I_ET_FLUVIAL-/_TIDEVANNS_DOMINERT_DELTASYSTEM"
2511.2 "6507_11-1" 30.36000 "Sandstone" "Limestone" "Shale"    90.0000  5.00000 5.000000 "m/c"      "m"        "Indre_del_av_bukt.__Dominert__av__(?)_tidevanns-kanaler"                                   "BUKTSEKVENS,_TROLIG_I_ET_FLUVIAL-/_TIDEVANNS_DOMINERT_DELTASYSTEM"
2511.3 "6507_11-1" 31.18000 "Sandstone" "Limestone" "Shale"    90.0000  5.00000 5.000000 "m/c"      "m"        "Indre_del_av_bukt.__Dominert__av__(?)_tidevanns-kanaler"                                   "BUKTSEKVENS,_TROLIG_I_ET_FLUVIAL-/_TIDEVANNS_DOMINERT_DELTASYSTEM"
2511.4 "6507_11-1" 30.58000 "Sandstone" "Limestone" "Shale"    90.0000  5.00000 5.000000 "m/c"      "m"        "Indre_del_av_bukt.__Dominert__av__(?)_tidevanns-kanaler"                                   "BUKTSEKVENS,_TROLIG_I_ET_FLUVIAL-/_TIDEVANNS_DOMINERT_DELTASYSTEM"
2511.5 "6507_11-1" 29.67000 "Sandstone" "Limestone" "Shale"    90.0000  5.00000 5.000000 "m/c"      "m"        "Indre_del_av_bukt.__Dominert__av__(?)_tidevanns-kanaler"                                   "BUKTSEKVENS,_TROLIG_I_ET_FLUVIAL-/_TIDEVANNS_DOMINERT_DELTASYSTEM"
2511.6 "6507_11-1" 28.75000 -999.25   -999.25   -999.25    -999.25  -999.25  -999.25 -999.25    -999.25    "Indre_del_av_bukt.__Dominert__av__(?)_tidevanns-kanaler"                                   "BUKTSEKVENS,_TROLIG_I_ET_FLUVIAL-/_TIDEVANNS_DOMINERT_DELTASYSTEM"
