~Version
VERS  .                                 3.0 : CWLS LAS ASCII Standard - Version 3.0
WRAP  . NO                                  : One line per depth step
DLM   . SPACE                               : Column data section delimiter
SOURCE. Converted to LAS by Log Studio 4.76 : GeoProvider

~Well
STRT.         3938.0 : Start depth
STOP.         3972.2 : Stop depth
STEP.              1 : Step
NULL.        -999.25 : No-value
COMP.                : Company
WELL. 6406/3-3       : Well
FLD .                : Field
LOC .                : Location
LATI.                : Latitude
LONG.                : Longitude
GDAT.                : Geodetic datum
CNTY.                : County
STAT.                : State
CTRY.                : Country
SRVC. GeoProvider AS : Service company
DATE.                : Date
API .                : API number
RUN .                : Run number

~Parameters
WellboreName.  : Wellbore name
RigName     .  : Rig name
StartDate   .  : Start date

~Curves
DEPTH.m            .  : null {F}Depth mMD
Hole_ID.-          .  : null {S}Hole ID
GR.API             .  : null {F}Gamma Ray
Lithology1.-       .  : null {S}Lithology 1
Lithology2.-       .  : null {S}Lithology 2
Lithology3.-       .  : null {S}Lithology 3
Lithology1.%       .  : null {F}Lithology 1 percentage
Lithology2.%       .  : null {F}Lithology 2 percentage
Lithology3.%       .  : null {F}Lithology 3 percentage
Grain_size_Top.-   .  : null {S}Grain size at the top 
Grain_size_Base.-  .  : null {S}Grain size at the bottom
Sub_Environment.-  .  : null {S}Sub Environment
Gross_Environment.-.  : null {S}Gross Environment

~Ascii
3938.0 "6406_3-3"  48.3200 "Sandstone" "Limestone" "Shale"  57.0000 30.00000 13.00000 "m/c"   "c/vc"  "Ovre_strand-skraning_eller_proksimal_progr._delta_front_(fan-delta)" "Delta_front/progr._kyst"
3938.1 "6406_3-3"  48.8100 "Sandstone" "Limestone" "Shale"  57.0000 30.00000 13.00000 "m/c"   "c/vc"  "Ovre_strand-skraning_eller_proksimal_progr._delta_front_(fan-delta)" "Delta_front/progr._kyst"
3938.2 "6406_3-3"  49.3100 "Sandstone" "Limestone" "Shale"  57.0000 30.00000 13.00000 "m/c"   "c/vc"  "Ovre_strand-skraning_eller_proksimal_progr._delta_front_(fan-delta)" "Delta_front/progr._kyst"
3938.3 "6406_3-3"  49.8000 "Sandstone" "Limestone" "Shale"  57.0000 30.00000 13.00000 "m/c"   "c/vc"  "Ovre_strand-skraning_eller_proksimal_progr._delta_front_(fan-delta)" "Delta_front/progr._kyst"
3938.4 "6406_3-3"  50.2900 "Sandstone" "Limestone" "Shale"  57.0000 30.00000 13.00000 "m/c"   "c/vc"  "Ovre_strand-skraning_eller_proksimal_progr._delta_front_(fan-delta)" "Delta_front/progr._kyst"
3938.5 "6406_3-3"  50.7900 "Sandstone" "Limestone" "Shale"  57.0000 30.00000 13.00000 "m/c"   "c/vc"  "Ovre_strand-skraning_eller_proksimal_progr._delta_front_(fan-delta)" "Delta_front/progr._kyst"
3938.6 "6406_3-3"  51.2800 "Sandstone" "Limestone" "Shale"  57.0000 30.00000 13.00000 "m/c"   "c/vc"  "Ovre_strand-skraning_eller_proksimal_progr._delta_front_(fan-delta)" "Delta_front/progr._kyst"
3938.7 "6406_3-3"  51.7700 "Sandstone" "Limestone" "Shale"  57.0000 30.00000 13.00000 "m/c"   "c/vc"  "Ovre_strand-skraning_eller_proksimal_progr._delta_front_(fan-delta)" "Delta_front/progr._kyst"
3938.8 "6406_3-3"  52.3000 "Sandstone" "Limestone" "Shale"  57.0000 30.00000 13.00000 "m/c"   "c/vc"  "Ovre_strand-skraning_eller_proksimal_progr._delta_front_(fan-delta)" "Delta_front/progr._kyst"
3938.9 "6406_3-3"  52.8800 "Sandstone" "Limestone" "Shale"  57.0000 30.00000 13.00000 "m/c"   "c/vc"  "Ovre_strand-skraning_eller_proksimal_progr._delta_front_(fan-delta)" "Delta_front/progr._kyst"
3939.0 "6406_3-3"  53.4600 "Sandstone" "Limestone" "Shale"  57.0000 30.00000 13.00000 "m/c"   "c/vc"  "Ovre_strand-skraning_eller_proksimal_progr._delta_front_(fan-delta)" "Delta_front/progr._kyst"
3939.1 "6406_3-3"  54.0500 "Sandstone" "Limestone" "Shale"  57.0000 30.00000 13.00000 "m/c"   "c/vc"  "Ovre_strand-skraning_eller_proksimal_progr._delta_front_(fan-delta)" "Delta_front/progr._kyst"
3939.2 "6406_3-3"  54.6300 "Sandstone" "Limestone" "Shale"  57.0000 30.00000 13.00000 "m/c"   "c/vc"  "Ovre_strand-skraning_eller_proksimal_progr._delta_front_(fan-delta)" "Delta_front/progr._kyst"
3939.3 "6406_3-3"  55.2100 "Sandstone" "Limestone" "Shale"  57.0000 30.00000 13.00000 "m/c"   "c/vc"  "Ovre_strand-skraning_eller_proksimal_progr._delta_front_(fan-delta)" "Delta_front/progr._kyst"
3939.4 "6406_3-3"  55.3500 "Sandstone" "Limestone" "Shale"  57.0000 30.00000 13.00000 "m/c"   "c/vc"  "Ovre_strand-skraning_eller_proksimal_progr._delta_front_(fan-delta)" "Delta_front/progr._kyst"
3939.5 "6406_3-3"  55.3500 "Sandstone" "Limestone" "Shale"  57.0000 30.00000 13.00000 "m/c"   "c/vc"  "Ovre_strand-skraning_eller_proksimal_progr._delta_front_(fan-delta)" "Delta_front/progr._kyst"
3939.6 "6406_3-3"  54.9000 "Sandstone" "Limestone" "Shale"  57.0000 30.00000 13.00000 "m/c"   "c/vc"  "Ovre_strand-skraning_eller_proksimal_progr._delta_front_(fan-delta)" "Delta_front/progr._kyst"
3939.7 "6406_3-3"  53.7500 "Sandstone" "Limestone" "Shale"  57.0000 30.00000 13.00000 "m/c"   "c/vc"  "Ovre_strand-skraning_eller_proksimal_progr._delta_front_(fan-delta)" "Delta_front/progr._kyst"
3939.8 "6406_3-3"  52.5400 "Sandstone" "Limestone" "Shale"  57.0000 30.00000 13.00000 "m/c"   "c/vc"  "Ovre_strand-skraning_eller_proksimal_progr._delta_front_(fan-delta)" "Delta_front/progr._kyst"
3939.9 "6406_3-3"  51.5400 "Sandstone" "Limestone" "Shale"  57.0000 30.00000 13.00000 "m/c"   "c/vc"  "Ovre_strand-skraning_eller_proksimal_progr._delta_front_(fan-delta)" "Delta_front/progr._kyst"
3940.0 "6406_3-3"  51.2700 "Sandstone" "Limestone" "Shale"  57.0000 30.00000 13.00000 "m/c"   "c/vc"  "Ovre_strand-skraning_eller_proksimal_progr._delta_front_(fan-delta)" "Delta_front/progr._kyst"
3940.1 "6406_3-3"  51.4800 "Sandstone" "Limestone" "Shale"  57.0000 30.00000 13.00000 "m/c"   "c/vc"  "Ovre_strand-skraning_eller_proksimal_progr._delta_front_(fan-delta)" "Delta_front/progr._kyst"
3940.2 "6406_3-3"  51.7100 "Sandstone" "Limestone" "Shale"  57.0000 30.00000 13.00000 "m/c"   "c/vc"  "Ovre_strand-skraning_eller_proksimal_progr._delta_front_(fan-delta)" "Delta_front/progr._kyst"
3940.3 "6406_3-3"  52.1800 "Sandstone" "Limestone" "Shale"  57.0000 30.00000 13.00000 "m/c"   "c/vc"  "Ovre_strand-skraning_eller_proksimal_progr._delta_front_(fan-delta)" "Delta_front/progr._kyst"
3940.4 "6406_3-3"  52.8500 "Sandstone" "Limestone" "Shale"  57.0000 30.00000 13.00000 "m/c"   "c/vc"  "Ovre_strand-skraning_eller_proksimal_progr._delta_front_(fan-delta)" "Delta_front/progr._kyst"
3940.5 "6406_3-3"  53.9900 "Sandstone" "Limestone" "Shale"  57.0000 30.00000 13.00000 "m/c"   "c/vc"  "Ovre_strand-skraning_eller_proksimal_progr._delta_front_(fan-delta)" "Delta_front/progr._kyst"
3940.6 "6406_3-3"  55.8200 "Sandstone" "Limestone" "Shale"  57.0000 30.00000 13.00000 "m/c"   "c/vc"  "Ovre_strand-skraning_eller_proksimal_progr._delta_front_(fan-delta)" "Delta_front/progr._kyst"
3940.7 "6406_3-3"  57.6400 "Sandstone" "Limestone" "Shale"  57.0000 30.00000 13.00000 "m/c"   "c/vc"  "Ovre_strand-skraning_eller_proksimal_progr._delta_front_(fan-delta)" "Delta_front/progr._kyst"
3940.8 "6406_3-3"  58.2500 "Sandstone" "Limestone" "Shale"  57.0000 30.00000 13.00000 "m/c"   "c/vc"  "Ovre_strand-skraning_eller_proksimal_progr._delta_front_(fan-delta)" "Delta_front/progr._kyst"
3940.9 "6406_3-3"  58.7500 "Sandstone" "Limestone" "Shale"  57.0000 30.00000 13.00000 "m/c"   "c/vc"  "Ovre_strand-skraning_eller_proksimal_progr._delta_front_(fan-delta)" "Delta_front/progr._kyst"
3941.0 "6406_3-3"  58.5300 "Sandstone" "Limestone" "Shale"  57.0000 30.00000 13.00000 "m/c"   "c/vc"  "Ovre_strand-skraning_eller_proksimal_progr._delta_front_(fan-delta)" "Delta_front/progr._kyst"
3941.1 "6406_3-3"  57.7000 "Sandstone" "Limestone" "Shale"  57.0000 30.00000 13.00000 "m/c"   "c/vc"  "Ovre_strand-skraning_eller_proksimal_progr._delta_front_(fan-delta)" "Delta_front/progr._kyst"
3941.2 "6406_3-3"  55.6000 "Sandstone" "Limestone" "Shale"  57.0000 30.00000 13.00000 "m/c"   "c/vc"  "Ovre_strand-skraning_eller_proksimal_progr._delta_front_(fan-delta)" "Delta_front/progr._kyst"
3941.3 "6406_3-3"  52.3500 "Sandstone" "Limestone" "Shale"  57.0000 30.00000 13.00000 "m/c"   "c/vc"  "Ovre_strand-skraning_eller_proksimal_progr._delta_front_(fan-delta)" "Delta_front/progr._kyst"
3941.4 "6406_3-3"  49.9500 "Sandstone" "Limestone" "Shale"  57.0000 30.00000 13.00000 "m/c"   "c/vc"  "Ovre_strand-skraning_eller_proksimal_progr._delta_front_(fan-delta)" "Delta_front/progr._kyst"
3941.5 "6406_3-3"  49.5600 "Sandstone" "Limestone" "Shale"  57.0000 30.00000 13.00000 "m/c"   "c/vc"  "Ovre_strand-skraning_eller_proksimal_progr._delta_front_(fan-delta)" "Delta_front/progr._kyst"
3941.6 "6406_3-3"  49.8200 "Sandstone" "Limestone" "Shale"  57.0000 30.00000 13.00000 "m/c"   "c/vc"  "Ovre_strand-skraning_eller_proksimal_progr._delta_front_(fan-delta)" "Delta_front/progr._kyst"
3941.7 "6406_3-3"  50.8100 "Sandstone" "Limestone" "Shale"  57.0000 30.00000 13.00000 "m/c"   "c/vc"  "Ovre_strand-skraning_eller_proksimal_progr._delta_front_(fan-delta)" "Delta_front/progr._kyst"
3941.8 "6406_3-3"  52.1100 "Sandstone" "Limestone" "Shale"  57.0000 30.00000 13.00000 "m/c"   "c/vc"  "Ovre_strand-skraning_eller_proksimal_progr._delta_front_(fan-delta)" "Delta_front/progr._kyst"
3941.9 "6406_3-3"  52.3900 "Sandstone" "Limestone" "Shale"  57.0000 30.00000 13.00000 "m/c"   "c/vc"  "Ovre_strand-skraning_eller_proksimal_progr._delta_front_(fan-delta)" "Delta_front/progr._kyst"
3942.0 "6406_3-3"  52.2800 "Sandstone" "Limestone" "Shale"  57.0000 30.00000 13.00000 "m/c"   "c/vc"  "Ovre_strand-skraning_eller_proksimal_progr._delta_front_(fan-delta)" "Delta_front/progr._kyst"
