~Version
VERS  .                                 3.0 : CWLS LAS ASCII Standard - Version 3.0
WRAP  . NO                                  : One line per depth step
DLM   . SPACE                               : Column data section delimiter
SOURCE. Converted to LAS by Log Studio 4.76 : GeoProvider

~Well
STRT.         3938.0 : Start depth
STOP.         3972.2 : Stop depth
STEP.              1 : Step
NULL.        -999.25 : No-value
COMP.                : Company
WELL. 6406/3-3       : Well
FLD .                : Field
LOC .                : Location
LATI.                : Latitude
LONG.                : Longitude
GDAT.                : Geodetic datum
CNTY.                : County
STAT.                : State
CTRY.                : Country
SRVC. GeoProvider AS : Service company
DATE.                : Date
API .                : API number
RUN .                : Run number

~Parameters
WellboreName.  : Wellbore name
RigName     .  : Rig name
StartDate   .  : Start date

~Curves
DEPTH.m            .  : null {F}Depth mMD
Hole_ID.-          .  : null {S}Hole ID
GR.API             .  : null {F}Gamma Ray
Lithology1.-       .  : null {S}Lithology 1
Lithology2.-       .  : null {S}Lithology 2
Lithology3.-       .  : null {S}Lithology 3
Lithology1.%       .  : null {F}Lithology 1 percentage
Lithology2.%       .  : null {F}Lithology 2 percentage
Lithology3.%       .  : null {F}Lithology 3 percentage
Grain_size_Top.-   .  : null {S}Grain size at the top 
Grain_size_Base.-  .  : null {S}Grain size at the bottom
Sub_Environment.-  .  : null {S}Sub Environment
Gross_Environment.-.  : null {S}Gross Environment

~Ascii
# ...
3954.6 "6406_3-3"  71.0700 -999.25   -999.25   -999.25 100.0000      0.0      0.0 -999.25 -999.25 -999.25                                                             "Delta_front/progr._kyst"
3954.7 "6406_3-3"  71.4800 -999.25   -999.25   -999.25 100.0000      0.0      0.0 -999.25 -999.25 -999.25                                                             "Delta_front/progr._kyst"
3954.8 "6406_3-3"  71.0000 -999.25   -999.25   -999.25 100.0000      0.0      0.0 -999.25 -999.25 -999.25                                                             "Delta_front/progr._kyst"
3954.9 "6406_3-3"  69.1700 -999.25   -999.25   -999.25 100.0000      0.0      0.0 -999.25 -999.25 -999.25                                                             "Delta_front/progr._kyst"
3955.0 "6406_3-3"  64.8900 -999.25   -999.25   -999.25 100.0000      0.0      0.0 -999.25 -999.25 -999.25                                                             "Delta_front/progr._kyst"
3955.1 "6406_3-3"  63.2200 -999.25   -999.25   -999.25 100.0000      0.0      0.0 -999.25 -999.25 -999.25                                                             "Delta_front/progr._kyst"
3955.2 "6406_3-3"  62.7700 -999.25   -999.25   -999.25 100.0000      0.0      0.0 -999.25 -999.25 -999.25                                                             "Delta_front/progr._kyst"
3955.3 "6406_3-3"  63.2300 -999.25   -999.25   -999.25 100.0000      0.0      0.0 -999.25 -999.25 -999.25                                                             "Delta_front/progr._kyst"
3955.4 "6406_3-3"  64.4800 -999.25   -999.25   -999.25 100.0000      0.0      0.0 -999.25 -999.25 -999.25                                                             "Delta_front/progr._kyst"
3955.5 "6406_3-3"  66.1900 -999.25   -999.25   -999.25 100.0000      0.0      0.0 -999.25 -999.25 -999.25                                                             "Delta_front/progr._kyst"
3955.6 "6406_3-3"  67.4500 -999.25   -999.25   -999.25 100.0000      0.0      0.0 -999.25 -999.25 -999.25                                                             "Delta_front/progr._kyst"
3955.7 "6406_3-3"  68.1000 -999.25   -999.25   -999.25 100.0000      0.0      0.0 -999.25 -999.25 -999.25                                                             "Delta_front/progr._kyst"
3955.8 "6406_3-3"  67.8300 -999.25   -999.25   -999.25 100.0000      0.0      0.0 -999.25 -999.25 -999.25                                                             "Delta_front/progr._kyst"
3955.9 "6406_3-3"  68.3900 -999.25   -999.25   -999.25 100.0000      0.0      0.0 -999.25 -999.25 -999.25                                                             "Delta_front/progr._kyst"
3956.0 "6406_3-3"  70.3100 -999.25   -999.25   -999.25 100.0000      0.0      0.0 -999.25 -999.25 -999.25                                                             "Delta_front/progr._kyst"
3956.1 "6406_3-3"  71.5100 "Sandstone" -999.25   -999.25 100.0000      0.0      0.0 "f/m"   "f/m"   "Ovre_strand-skraning/delta_front_"                                 "Delta_front/progr._kyst"
3956.2 "6406_3-3"  72.4000 "Sandstone" -999.25   -999.25 100.0000      0.0      0.0 "f/m"   "f/m"   "Ovre_strand-skraning/delta_front_"                                 "Delta_front/progr._kyst"
3956.3 "6406_3-3"  72.2300 "Sandstone" -999.25   -999.25 100.0000      0.0      0.0 "f/m"   "f/m"   "Ovre_strand-skraning/delta_front_"                                 "Delta_front/progr._kyst"
3956.4 "6406_3-3"  70.9000 "Sandstone" -999.25   -999.25 100.0000      0.0      0.0 "f/m"   "f/m"   "Ovre_strand-skraning/delta_front_"                                 "Delta_front/progr._kyst"
3956.5 "6406_3-3"  70.3200 "Sandstone" -999.25   -999.25 100.0000      0.0      0.0 "f/m"   "f/m"   "Ovre_strand-skraning/delta_front_"                                 "Delta_front/progr._kyst"
3956.6 "6406_3-3"  70.2800 "Sandstone" -999.25   -999.25 100.0000      0.0      0.0 "f/m"   "f/m"   "Ovre_strand-skraning/delta_front_"                                 "Delta_front/progr._kyst"
3956.7 "6406_3-3"  70.4200 "Sandstone" -999.25   -999.25 100.0000      0.0      0.0 "f/m"   "f/m"   "Ovre_strand-skraning/delta_front_"                                 "Delta_front/progr._kyst"
3956.8 "6406_3-3"  71.3500 "Sandstone" -999.25   -999.25 100.0000      0.0      0.0 "f/m"   "f/m"   "Ovre_strand-skraning/delta_front_"                                 "Delta_front/progr._kyst"
3956.9 "6406_3-3"  71.7600 "Sandstone" -999.25   -999.25 100.0000      0.0      0.0 "f/m"   "f/m"   "Ovre_strand-skraning/delta_front_"                                 "Delta_front/progr._kyst"
3957.0 "6406_3-3"  71.7200 "Sandstone" -999.25   -999.25 100.0000      0.0      0.0 "f/m"   "f/m"   "Ovre_strand-skraning/delta_front_"                                 "Delta_front/progr._kyst"
3957.1 "6406_3-3"  70.8900 "Sandstone" -999.25   -999.25 100.0000      0.0      0.0 "f/m"   "f/m"   "Ovre_strand-skraning/delta_front_"                                 "Delta_front/progr._kyst"
3957.2 "6406_3-3"  69.9800 "Sandstone" -999.25   -999.25 100.0000      0.0      0.0 "f/m"   "f/m"   "Ovre_strand-skraning/delta_front_"                                 "Delta_front/progr._kyst"
3957.3 "6406_3-3"  69.9200 "Sandstone" -999.25   -999.25 100.0000      0.0      0.0 "f/m"   "f/m"   "Ovre_strand-skraning/delta_front_"                                 "Delta_front/progr._kyst"
3957.4 "6406_3-3"  71.3800 "Sandstone" -999.25   -999.25 100.0000      0.0      0.0 "f/m"   "f/m"   "Ovre_strand-skraning/delta_front_"                                 "Delta_front/progr._kyst"
3957.5 "6406_3-3"  72.6000 "Sandstone" -999.25   -999.25 100.0000      0.0      0.0 "f/m"   "f/m"   "Ovre_strand-skraning/delta_front_"                                 "Delta_front/progr._kyst"
3957.6 "6406_3-3"  71.7200 "Sandstone" -999.25   -999.25 100.0000      0.0      0.0 "f/m"   "f/m"   "Ovre_strand-skraning/delta_front_"                                 "Delta_front/progr._kyst"
3957.7 "6406_3-3"  71.5800 "Sandstone" -999.25   -999.25 100.0000      0.0      0.0 "f/m"   "f/m"   "Ovre_strand-skraning/delta_front_"                                 "Delta_front/progr._kyst"
3957.8 "6406_3-3"  73.1900 "Sandstone" -999.25   -999.25 100.0000      0.0      0.0 "f/m"   "f/m"   "Ovre_strand-skraning/delta_front_"                                 "Delta_front/progr._kyst"
3957.9 "6406_3-3"  74.9900 "Sandstone" -999.25   -999.25 100.0000      0.0      0.0 "f/m"   "f/m"   "Ovre_strand-skraning/delta_front_"                                 "Delta_front/progr._kyst"
3958.0 "6406_3-3"  76.9600 "Sandstone" -999.25   -999.25 100.0000      0.0      0.0 "f/m"   "f/m"   "Ovre_strand-skraning/delta_front_"                                 "Delta_front/progr._kyst"
3958.1 "6406_3-3"  77.8300 "Sandstone" -999.25   -999.25 100.0000      0.0      0.0 "f/m"   "f/m"   "Ovre_strand-skraning/delta_front_"                                 "Delta_front/progr._kyst"
3958.2 "6406_3-3"  77.9800 "Sandstone" -999.25   -999.25 100.0000      0.0      0.0 "f/m"   "f/m"   "Ovre_strand-skraning/delta_front_"                                 "Delta_front/progr._kyst"
3958.3 "6406_3-3"  76.8000 "Sandstone" -999.25   -999.25 100.0000      0.0      0.0 "f/m"   "f/m"   "Ovre_strand-skraning/delta_front_"                                 "Delta_front/progr._kyst"
3958.4 "6406_3-3"  76.4400 "Sandstone" -999.25   -999.25 100.0000      0.0      0.0 "f/m"   "f/m"   "Ovre_strand-skraning/delta_front_"                                 "Delta_front/progr._kyst"
3958.5 "6406_3-3"  76.9000 "Sandstone" -999.25   -999.25 100.0000      0.0      0.0 "f/m"   "f/m"   "Ovre_strand-skraning/delta_front_"                                 "Delta_front/progr._kyst"
3958.6 "6406_3-3"  78.0700 "Sandstone" -999.25   -999.25 100.0000      0.0      0.0 "f/m"   "f/m"   "Ovre_strand-skraning/delta_front_"                                 "Delta_front/progr._kyst"
3958.7 "6406_3-3"  79.9700 "Sandstone" -999.25   -999.25 100.0000      0.0      0.0 "f/m"   "f/m"   "Ovre_strand-skraning/delta_front_"                                 "Delta_front/progr._kyst"
