~Version
VERS  .                                 3.0 : CWLS LAS ASCII Standard - Version 3.0
WRAP  . NO                                  : One line per depth step
DLM   . SPACE                               : Column data section delimiter
SOURCE. Converted to LAS by Log Studio 4.76 : GeoProvider

~Well
STRT.         3938.0 : Start depth
STOP.         3972.2 : Stop depth
STEP.              1 : Step
NULL.        -999.25 : No-value
COMP.                : Company
WELL. 6406/3-3       : Well
FLD .                : Field
LOC .                : Location
LATI.                : Latitude
LONG.                : Longitude
GDAT.                : Geodetic datum
CNTY.                : County
STAT.                : State
CTRY.                : Country
SRVC. GeoProvider AS : Service company
DATE.                : Date
API .                : API number
RUN .                : Run number

~Parameters
WellboreName.  : Wellbore name
RigName     .  : Rig name
StartDate   .  : Start date

~Curves
DEPTH.m            .  : null {F}Depth mMD
Hole_ID.-          .  : null {S}Hole ID
GR.API             .  : null {F}Gamma Ray
Lithology1.-       .  : null {S}Lithology 1
Lithology2.-       .  : null {S}Lithology 2
Lithology3.-       .  : null {S}Lithology 3
Lithology1.%       .  : null {F}Lithology 1 percentage
Lithology2.%       .  : null {F}Lithology 2 percentage
Lithology3.%       .  : null {F}Lithology 3 percentage
Grain_size_Top.-   .  : null {S}Grain size at the top 
Grain_size_Base.-  .  : null {S}Grain size at the bottom
Sub_Environment.-  .  : null {S}Sub Environment
Gross_Environment.-.  : null {S}Gross Environment

~Ascii
# ...
3967.2 "6406_3-3"  79.1100 "Sandstone" -999.25   -999.25 100.0000      0.0      0.0 "f/m"   "f/m"   "Ovre_strand-skraning/delta_front_"                                 "Delta_front/progr._kyst"
3967.3 "6406_3-3"  76.1600 "Sandstone" -999.25   -999.25 100.0000      0.0      0.0 "f/m"   "f/m"   "Ovre_strand-skraning/delta_front_"                                 "Delta_front/progr._kyst"
3967.4 "6406_3-3"  81.2300 "Sandstone" -999.25   -999.25 100.0000      0.0      0.0 "f/m"   "f/m"   "Ovre_strand-skraning/delta_front_"                                 "Delta_front/progr._kyst"
3967.5 "6406_3-3"  79.1700 "Sandstone" -999.25   -999.25 100.0000      0.0      0.0 "f/m"   "f/m"   "Ovre_strand-skraning/delta_front_"                                 "Delta_front/progr._kyst"
3967.6 "6406_3-3"  75.9200 "Sandstone" -999.25   -999.25 100.0000      0.0      0.0 "f/m"   "f/m"   "Ovre_strand-skraning/delta_front_"                                 "Delta_front/progr._kyst"
3967.7 "6406_3-3"  75.8600 "Sandstone" -999.25   -999.25 100.0000      0.0      0.0 "f/m"   "f/m"   "Ovre_strand-skraning/delta_front_"                                 "Delta_front/progr._kyst"
3967.8 "6406_3-3"  76.3100 "Sandstone" -999.25   -999.25 100.0000      0.0      0.0 "f/m"   "f/m"   "Ovre_strand-skraning/delta_front_"                                 "Delta_front/progr._kyst"
3967.9 "6406_3-3"  77.1600 "Sandstone" -999.25   -999.25 100.0000      0.0      0.0 "f/m"   "f/m"   "Ovre_strand-skraning/delta_front_"                                 "Delta_front/progr._kyst"
3968.0 "6406_3-3"  78.4300 "Sandstone" -999.25   -999.25 100.0000      0.0      0.0 "f/m"   "f/m"   "Ovre_strand-skraning/delta_front_"                                 "Delta_front/progr._kyst"
3968.1 "6406_3-3"  79.6900 "Sandstone" -999.25   -999.25 100.0000      0.0      0.0 "f/m"   "f/m"   "Ovre_strand-skraning/delta_front_"                                 "Delta_front/progr._kyst"
3968.2 "6406_3-3"  81.6400 "Sandstone" -999.25   -999.25 100.0000      0.0      0.0 "f/m"   "f/m"   "Ovre_strand-skraning/delta_front_"                                 "Delta_front/progr._kyst"
3968.3 "6406_3-3"  83.8600 "Sandstone" -999.25   -999.25 100.0000      0.0      0.0 "f/m"   "f/m"   "Ovre_strand-skraning/delta_front_"                                 "Delta_front/progr._kyst"
3968.4 "6406_3-3"  85.7000 "Sandstone" -999.25   -999.25 100.0000      0.0      0.0 "f/m"   "f/m"   "Ovre_strand-skraning/delta_front_"                                 "Delta_front/progr._kyst"
3968.5 "6406_3-3"  87.5400 "Sandstone" -999.25   -999.25 100.0000      0.0      0.0 "f/m"   "f/m"   "Ovre_strand-skraning/delta_front_"                                 "Delta_front/progr._kyst"
3968.6 "6406_3-3"  89.3600 "Sandstone" -999.25   -999.25 100.0000      0.0      0.0 "f/m"   "f/m"   "Ovre_strand-skraning/delta_front_"                                 "Delta_front/progr._kyst"
3968.7 "6406_3-3"  90.6100 "Sandstone" -999.25   -999.25 100.0000      0.0      0.0 "f/m"   "f/m"   "Ovre_strand-skraning/delta_front_"                                 "Delta_front/progr._kyst"
3968.8 "6406_3-3"  90.6600 "Sandstone" -999.25   -999.25 100.0000      0.0      0.0 "f/m"   "f/m"   "Ovre_strand-skraning/delta_front_"                                 "Delta_front/progr._kyst"
3968.9 "6406_3-3"  89.6200 "Sandstone" -999.25   -999.25 100.0000      0.0      0.0 "f/m"   "f/m"   "Ovre_strand-skraning/delta_front_"                                 "Delta_front/progr._kyst"
3969.0 "6406_3-3"  85.7800 "Sandstone" -999.25   -999.25 100.0000      0.0      0.0 "f/m"   "f/m"   "Ovre_strand-skraning/delta_front_"                                 "Delta_front/progr._kyst"
3969.1 "6406_3-3"  81.9100 "Sandstone" -999.25   -999.25 100.0000      0.0      0.0 "f/m"   "f/m"   "Ovre_strand-skraning/delta_front_"                                 "Delta_front/progr._kyst"
3969.2 "6406_3-3"  79.2200 "Sandstone" -999.25   -999.25 100.0000      0.0      0.0 "f/m"   "f/m"   "Ovre_strand-skraning/delta_front_"                                 "Delta_front/progr._kyst"
3969.3 "6406_3-3"  78.1000 "Sandstone" -999.25   -999.25 100.0000      0.0      0.0 "f/m"   "f/m"   "Ovre_strand-skraning/delta_front_"                                 "Delta_front/progr._kyst"
3969.4 "6406_3-3"  77.8500 "Sandstone" -999.25   -999.25 100.0000      0.0      0.0 "f/m"   "f/m"   "Ovre_strand-skraning/delta_front_"                                 "Delta_front/progr._kyst"
3969.5 "6406_3-3"  77.7500 "Sandstone" -999.25   -999.25 100.0000      0.0      0.0 "f/m"   "f/m"   "Ovre_strand-skraning/delta_front_"                                 "Delta_front/progr._kyst"
3969.6 "6406_3-3"  78.1000 "Sandstone" -999.25   -999.25 100.0000      0.0      0.0 "f/m"   "f/m"   "Ovre_strand-skraning/delta_front_"                                 "Delta_front/progr._kyst"
3969.7 "6406_3-3"  79.6400 "Sandstone" -999.25   -999.25 100.0000      0.0      0.0 "f/m"   "f/m"   "Ovre_strand-skraning/delta_front_"                                 "Delta_front/progr._kyst"
3969.8 "6406_3-3"  82.1500 "Sandstone" -999.25   -999.25 100.0000      0.0      0.0 "f/m"   "f/m"   "Ovre_strand-skraning/delta_front_"                                 "Delta_front/progr._kyst"
3969.9 "6406_3-3"  84.7800 "Sandstone" -999.25   -999.25 100.0000      0.0      0.0 "f/m"   "f/m"   "Ovre_strand-skraning/delta_front_"                                 "Delta_front/progr._kyst"
3970.0 "6406_3-3"  87.3700 "Sandstone" -999.25   -999.25 100.0000      0.0      0.0 "f/m"   "f/m"   "Ovre_strand-skraning/delta_front_"                                 "Delta_front/progr._kyst"
3970.1 "6406_3-3"  89.8700 "Sandstone" -999.25   -999.25 100.0000      0.0      0.0 "f/m"   "f/m"   "Ovre_strand-skraning/delta_front_"                                 "Delta_front/progr._kyst"
3970.2 "6406_3-3"  91.3900 "Sandstone" -999.25   -999.25 100.0000      0.0      0.0 "f/m"   "f/m"   "Ovre_strand-skraning/delta_front_"                                 "Delta_front/progr._kyst"
3970.3 "6406_3-3"  92.0500 "Sandstone" -999.25   -999.25 100.0000      0.0      0.0 "f/m"   "f/m"   "Ovre_strand-skraning/delta_front_"                                 "Delta_front/progr._kyst"
3970.4 "6406_3-3"  88.0400 "Sandstone" -999.25   -999.25 100.0000      0.0      0.0 "f/m"   "f/m"   "Ovre_strand-skraning/delta_front_"                                 "Delta_front/progr._kyst"
3970.5 "6406_3-3"  84.8400 "Sandstone" -999.25   -999.25 100.0000      0.0      0.0 "f/m"   "f/m"   "Ovre_strand-skraning/delta_front_"                                 "Delta_front/progr._kyst"
3970.6 "6406_3-3"  81.7100 "Sandstone" -999.25   -999.25 100.0000      0.0      0.0 "f/m"   "f/m"   "Ovre_strand-skraning/delta_front_"                                 "Delta_front/progr._kyst"
3970.7 "6406_3-3"  78.6900 "Sandstone" -999.25   -999.25 100.0000      0.0      0.0 "f/m"   "f/m"   "Ovre_strand-skraning/delta_front_"                                 "Delta_front/progr._kyst"
3970.8 "6406_3-3"  74.9800 "Sandstone" -999.25   -999.25 100.0000      0.0      0.0 "f/m"   "f/m"   "Ovre_strand-skraning/delta_front_"                                 "Delta_front/progr._kyst"
3970.9 "6406_3-3"  74.5200 "Sandstone" -999.25   -999.25 100.0000      0.0      0.0 "f/m"   "f/m"   "Ovre_strand-skraning/delta_front_"                                 "Delta_front/progr._kyst"
3971.0 "6406_3-3"  75.2200 "Sandstone" -999.25   -999.25 100.0000      0.0      0.0 "f/m"   "f/m"   "Ovre_strand-skraning/delta_front_"                                 "Delta_front/progr._kyst"
3971.1 "6406_3-3"  76.4400 "Sandstone" -999.25   -999.25 100.0000      0.0      0.0 "f/m"   "f/m"   "Ovre_strand-skraning/delta_front_"                                 "Delta_front/progr._kyst"
3971.2 "6406_3-3"  77.8900 "Sandstone" -999.25   -999.25 100.0000      0.0      0.0 "f/m"   "f/m"   "Ovre_strand-skraning/delta_front_"                                 "Delta_front/progr._kyst"
3971.3 "6406_3-3"  79.3300 "Sandstone" -999.25   -999.25 100.0000      0.0      0.0 "f/m"   "f/m"   "Ovre_strand-skraning/delta_front_"                                 "Delta_front/progr._kyst"
