~Version
VERS  .                                 3.0 : CWLS LAS ASCII Standard - Version 3.0
WRAP  . NO                                  : One line per depth step
DLM   . SPACE                               : Column data section delimiter
SOURCE. Converted to LAS by Log Studio 4.76 : GeoProvider

~Well
STRT.         3938.0 : Start depth
STOP.         3972.2 : Stop depth
STEP.              1 : Step
NULL.        -999.25 : No-value
COMP.                : Company
WELL. 6406/3-3       : Well
FLD .                : Field
LOC .                : Location
LATI.                : Latitude
LONG.                : Longitude
GDAT.                : Geodetic datum
CNTY.                : County
STAT.                : State
CTRY.                : Country
SRVC. GeoProvider AS : Service company
DATE.                : Date
API .                : API number
RUN .                : Run number

~Parameters
WellboreName.  : Wellbore name
RigName     .  : Rig name
StartDate   .  : Start date

~Curves
DEPTH.m            .  : null {F}Depth mMD
Hole_ID.-          .  : null {S}Hole ID
GR.API             .  : null {F}Gamma Ray
Lithology1.-       .  : null {S}Lithology 1
Lithology2.-       .  : null {S}Lithology 2
Lithology3.-       .  : null {S}Lithology 3
Lithology1.%       .  : null {F}Lithology 1 percentage
Lithology2.%       .  : null {F}Lithology 2 percentage
Lithology3.%       .  : null {F}Lithology 3 percentage
Grain_size_Top.-   .  : null {S}Grain size at the top 
Grain_size_Base.-  .  : null {S}Grain size at the bottom
Sub_Environment.-  .  : null {S}Sub Environment
Gross_Environment.-.  : null {S}Gross Environment

~Ascii
# ...
3963.0 "6406_3-3" 100.1000 "Sandstone" -999.25   -999.25 100.0000      0.0      0.0 "f/m"   "f/m"   "Ovre_strand-skraning/delta_front_"                                 "Delta_front/progr._kyst"
3963.1 "6406_3-3"  97.0600 "Sandstone" -999.25   -999.25 100.0000      0.0      0.0 "f/m"   "f/m"   "Ovre_strand-skraning/delta_front_"                                 "Delta_front/progr._kyst"
3963.2 "6406_3-3"  92.7500 "Sandstone" -999.25   -999.25 100.0000      0.0      0.0 "f/m"   "f/m"   "Ovre_strand-skraning/delta_front_"                                 "Delta_front/progr._kyst"
3963.3 "6406_3-3"  89.6100 "Sandstone" -999.25   -999.25 100.0000      0.0      0.0 "f/m"   "f/m"   "Ovre_strand-skraning/delta_front_"                                 "Delta_front/progr._kyst"
3963.4 "6406_3-3"  86.8100 "Sandstone" -999.25   -999.25 100.0000      0.0      0.0 "f/m"   "f/m"   "Ovre_strand-skraning/delta_front_"                                 "Delta_front/progr._kyst"
3963.5 "6406_3-3"  84.5700 "Sandstone" -999.25   -999.25 100.0000      0.0      0.0 "f/m"   "f/m"   "Ovre_strand-skraning/delta_front_"                                 "Delta_front/progr._kyst"
3963.6 "6406_3-3"  82.7000 "Sandstone" -999.25   -999.25 100.0000      0.0      0.0 "f/m"   "f/m"   "Ovre_strand-skraning/delta_front_"                                 "Delta_front/progr._kyst"
3963.7 "6406_3-3"  81.6900 "Sandstone" -999.25   -999.25 100.0000      0.0      0.0 "f/m"   "f/m"   "Ovre_strand-skraning/delta_front_"                                 "Delta_front/progr._kyst"
3963.8 "6406_3-3"  82.3800 "Sandstone" -999.25   -999.25 100.0000      0.0      0.0 "f/m"   "f/m"   "Ovre_strand-skraning/delta_front_"                                 "Delta_front/progr._kyst"
3963.9 "6406_3-3"  84.0800 "Sandstone" -999.25   -999.25 100.0000      0.0      0.0 "f/m"   "f/m"   "Ovre_strand-skraning/delta_front_"                                 "Delta_front/progr._kyst"
3964.0 "6406_3-3"  86.1000 "Sandstone" -999.25   -999.25 100.0000      0.0      0.0 "f/m"   "f/m"   "Ovre_strand-skraning/delta_front_"                                 "Delta_front/progr._kyst"
3964.1 "6406_3-3"  88.3700 "Sandstone" -999.25   -999.25 100.0000      0.0      0.0 "f/m"   "f/m"   "Ovre_strand-skraning/delta_front_"                                 "Delta_front/progr._kyst"
3964.2 "6406_3-3"  90.5300 "Sandstone" -999.25   -999.25 100.0000      0.0      0.0 "f/m"   "f/m"   "Ovre_strand-skraning/delta_front_"                                 "Delta_front/progr._kyst"
3964.3 "6406_3-3"  92.5600 "Sandstone" -999.25   -999.25 100.0000      0.0      0.0 "f/m"   "f/m"   "Ovre_strand-skraning/delta_front_"                                 "Delta_front/progr._kyst"
3964.4 "6406_3-3"  94.6400 "Sandstone" -999.25   -999.25 100.0000      0.0      0.0 "f/m"   "f/m"   "Ovre_strand-skraning/delta_front_"                                 "Delta_front/progr._kyst"
3964.5 "6406_3-3"  97.3300 "Sandstone" -999.25   -999.25 100.0000      0.0      0.0 "f/m"   "f/m"   "Ovre_strand-skraning/delta_front_"                                 "Delta_front/progr._kyst"
3964.6 "6406_3-3" 102.4700 "Sandstone" -999.25   -999.25 100.0000      0.0      0.0 "f/m"   "f/m"   "Ovre_strand-skraning/delta_front_"                                 "Delta_front/progr._kyst"
3964.7 "6406_3-3" 105.5300 "Sandstone" -999.25   -999.25 100.0000      0.0      0.0 "f/m"   "f/m"   "Ovre_strand-skraning/delta_front_"                                 "Delta_front/progr._kyst"
3964.8 "6406_3-3"  99.1700 "Sandstone" -999.25   -999.25 100.0000      0.0      0.0 "f/m"   "f/m"   "Ovre_strand-skraning/delta_front_"                                 "Delta_front/progr._kyst"
3964.9 "6406_3-3"  84.5400 "Sandstone" -999.25   -999.25 100.0000      0.0      0.0 "f/m"   "f/m"   "Ovre_strand-skraning/delta_front_"                                 "Delta_front/progr._kyst"
3965.0 "6406_3-3"  77.2200 "Sandstone" -999.25   -999.25 100.0000      0.0      0.0 "f/m"   "f/m"   "Ovre_strand-skraning/delta_front_"                                 "Delta_front/progr._kyst"
3965.1 "6406_3-3"  74.1600 "Sandstone" -999.25   -999.25 100.0000      0.0      0.0 "f/m"   "f/m"   "Ovre_strand-skraning/delta_front_"                                 "Delta_front/progr._kyst"
3965.2 "6406_3-3"  72.7600 "Sandstone" -999.25   -999.25 100.0000      0.0      0.0 "f/m"   "f/m"   "Ovre_strand-skraning/delta_front_"                                 "Delta_front/progr._kyst"
3965.3 "6406_3-3"  71.3600 "Sandstone" -999.25   -999.25 100.0000      0.0      0.0 "f/m"   "f/m"   "Ovre_strand-skraning/delta_front_"                                 "Delta_front/progr._kyst"
3965.4 "6406_3-3"  69.9600 "Sandstone" -999.25   -999.25 100.0000      0.0      0.0 "f/m"   "f/m"   "Ovre_strand-skraning/delta_front_"                                 "Delta_front/progr._kyst"
3965.5 "6406_3-3"  68.9300 "Sandstone" -999.25   -999.25 100.0000      0.0      0.0 "f/m"   "f/m"   "Ovre_strand-skraning/delta_front_"                                 "Delta_front/progr._kyst"
3965.6 "6406_3-3"  68.2800 "Sandstone" -999.25   -999.25 100.0000      0.0      0.0 "f/m"   "f/m"   "Ovre_strand-skraning/delta_front_"                                 "Delta_front/progr._kyst"
3965.7 "6406_3-3"  69.2000 "Sandstone" -999.25   -999.25 100.0000      0.0      0.0 "f/m"   "f/m"   "Ovre_strand-skraning/delta_front_"                                 "Delta_front/progr._kyst"
3965.8 "6406_3-3"  70.3100 "Sandstone" -999.25   -999.25 100.0000      0.0      0.0 "f/m"   "f/m"   "Ovre_strand-skraning/delta_front_"                                 "Delta_front/progr._kyst"
3965.9 "6406_3-3"  71.6700 "Sandstone" -999.25   -999.25 100.0000      0.0      0.0 "f/m"   "f/m"   "Ovre_strand-skraning/delta_front_"                                 "Delta_front/progr._kyst"
3966.0 "6406_3-3"  73.0200 "Sandstone" -999.25   -999.25 100.0000      0.0      0.0 "f/m"   "f/m"   "Ovre_strand-skraning/delta_front_"                                 "Delta_front/progr._kyst"
3966.1 "6406_3-3"  74.3700 "Sandstone" -999.25   -999.25 100.0000      0.0      0.0 "f/m"   "f/m"   "Ovre_strand-skraning/delta_front_"                                 "Delta_front/progr._kyst"
3966.2 "6406_3-3"  75.7300 "Sandstone" -999.25   -999.25 100.0000      0.0      0.0 "f/m"   "f/m"   "Ovre_strand-skraning/delta_front_"                                 "Delta_front/progr._kyst"
3966.3 "6406_3-3"  77.0100 "Sandstone" -999.25   -999.25 100.0000      0.0      0.0 "f/m"   "f/m"   "Ovre_strand-skraning/delta_front_"                                 "Delta_front/progr._kyst"
3966.4 "6406_3-3"  78.1600 "Sandstone" -999.25   -999.25 100.0000      0.0      0.0 "f/m"   "f/m"   "Ovre_strand-skraning/delta_front_"                                 "Delta_front/progr._kyst"
3966.5 "6406_3-3"  78.2700 "Sandstone" -999.25   -999.25 100.0000      0.0      0.0 "f/m"   "f/m"   "Ovre_strand-skraning/delta_front_"                                 "Delta_front/progr._kyst"
3966.6 "6406_3-3"  77.3100 "Sandstone" -999.25   -999.25 100.0000      0.0      0.0 "f/m"   "f/m"   "Ovre_strand-skraning/delta_front_"                                 "Delta_front/progr._kyst"
3966.7 "6406_3-3"  76.7300 "Sandstone" -999.25   -999.25 100.0000      0.0      0.0 "f/m"   "f/m"   "Ovre_strand-skraning/delta_front_"                                 "Delta_front/progr._kyst"
3966.8 "6406_3-3"  76.7300 "Sandstone" -999.25   -999.25 100.0000      0.0      0.0 "f/m"   "f/m"   "Ovre_strand-skraning/delta_front_"                                 "Delta_front/progr._kyst"
3966.9 "6406_3-3"  72.6200 "Sandstone" -999.25   -999.25 100.0000      0.0      0.0 "f/m"   "f/m"   "Ovre_strand-skraning/delta_front_"                                 "Delta_front/progr._kyst"
3967.0 "6406_3-3"  73.8800 "Sandstone" -999.25   -999.25 100.0000      0.0      0.0 "f/m"   "f/m"   "Ovre_strand-skraning/delta_front_"                                 "Delta_front/progr._kyst"
3967.1 "6406_3-3"  79.0000 "Sandstone" -999.25   -999.25 100.0000      0.0      0.0 "f/m"   "f/m"   "Ovre_strand-skraning/delta_front_"                                 "Delta_front/progr._kyst"
