~Version
VERS  .                                 3.0 : CWLS LAS ASCII Standard - Version 3.0
WRAP  . NO                                  : One line per depth step
DLM   . SPACE                               : Column data section delimiter
SOURCE. Converted to LAS by Log Studio 4.76 : GeoProvider

~Well
STRT.         3938.0 : Start depth
STOP.         3972.2 : Stop depth
STEP.              1 : Step
NULL.        -999.25 : No-value
COMP.                : Company
WELL. 6406/3-3       : Well
FLD .                : Field
LOC .                : Location
LATI.                : Latitude
LONG.                : Longitude
GDAT.                : Geodetic datum
CNTY.                : County
STAT.                : State
CTRY.                : Country
SRVC. GeoProvider AS : Service company
DATE.                : Date
API .                : API number
RUN .                : Run number

~Parameters
WellboreName.  : Wellbore name
RigName     .  : Rig name
StartDate   .  : Start date

~Curves
DEPTH.m            .  : null {F}Depth mMD
Hole_ID.-          .  : null {S}Hole ID
GR.API             .  : null {F}Gamma Ray
Lithology1.-       .  : null {S}Lithology 1
Lithology2.-       .  : null {S}Lithology 2
Lithology3.-       .  : null {S}Lithology 3
Lithology1.%       .  : null {F}Lithology 1 percentage
Lithology2.%       .  : null {F}Lithology 2 percentage
Lithology3.%       .  : null {F}Lithology 3 percentage
Grain_size_Top.-   .  : null {S}Grain size at the top 
Grain_size_Base.-  .  : null {S}Grain size at the bottom
Sub_Environment.-  .  : null {S}Sub Environment
Gross_Environment.-.  : null {S}Gross Environment

~Ascii
# ...
3946.2 "6406_3-3"  65.0600 "Sandstone" -999.25   -999.25 100.0000      0.0      0.0 "vc"    "m/c"   "Ovre_strand-skraning_eller_proksimal_progr._delta_front_(fan-delta)" "Delta_front/progr._kyst"
3946.3 "6406_3-3"  66.9200 "Sandstone" -999.25   -999.25 100.0000      0.0      0.0 "vc"    "m/c"   "Ovre_strand-skraning_eller_proksimal_progr._delta_front_(fan-delta)" "Delta_front/progr._kyst"
3946.4 "6406_3-3"  67.8000 "Sandstone" -999.25   -999.25 100.0000      0.0      0.0 "vc"    "m/c"   "Ovre_strand-skraning_eller_proksimal_progr._delta_front_(fan-delta)" "Delta_front/progr._kyst"
3946.5 "6406_3-3"  68.3600 "Sandstone" -999.25   -999.25 100.0000      0.0      0.0 "vc"    "m/c"   "Ovre_strand-skraning_eller_proksimal_progr._delta_front_(fan-delta)" "Delta_front/progr._kyst"
3946.6 "6406_3-3"  68.5800 "Sandstone" "Shale"   -999.25  85.0000 15.00000      0.0 "f/m"   "f/m"   "Ovre_strand-skraning_eller_proksimal_progr._delta_front_(fan-delta)" "Delta_front/progr._kyst"
3946.7 "6406_3-3"  68.7100 "Sandstone" "Shale"   -999.25  85.0000 15.00000      0.0 "f/m"   "f/m"   "Ovre_strand-skraning_eller_proksimal_progr._delta_front_(fan-delta)" "Delta_front/progr._kyst"
3946.8 "6406_3-3"  68.7700 "Sandstone" "Shale"   -999.25  85.0000 15.00000      0.0 "f/m"   "f/m"   "Ovre_strand-skraning_eller_proksimal_progr._delta_front_(fan-delta)" "Delta_front/progr._kyst"
3946.9 "6406_3-3"  68.8200 "Sandstone" "Shale"   -999.25  85.0000 15.00000      0.0 "f/m"   "f/m"   "Ovre_strand-skraning_eller_proksimal_progr._delta_front_(fan-delta)" "Delta_front/progr._kyst"
3947.0 "6406_3-3"  69.2000 "Sandstone" "Shale"   -999.25  85.0000 15.00000      0.0 "f/m"   "f/m"   "Ovre_strand-skraning_eller_proksimal_progr._delta_front_(fan-delta)" "Delta_front/progr._kyst"
3947.1 "6406_3-3"  69.7000 "Sandstone" "Shale"   -999.25  85.0000 15.00000      0.0 "f/m"   "f/m"   "Ovre_strand-skraning_eller_proksimal_progr._delta_front_(fan-delta)" "Delta_front/progr._kyst"
3947.2 "6406_3-3"  70.7200 "Sandstone" "Shale"   -999.25  85.0000 15.00000      0.0 "f/m"   "f/m"   "Ovre_strand-skraning/delta_front_"                                 "Delta_front/progr._kyst"
3947.3 "6406_3-3"  71.7400 "Sandstone" "Shale"   -999.25  85.0000 15.00000      0.0 "f/m"   "f/m"   "Ovre_strand-skraning/delta_front_"                                 "Delta_front/progr._kyst"
3947.4 "6406_3-3"  72.3100 "Sandstone" "Shale"   -999.25  85.0000 15.00000      0.0 "f/m"   "f/m"   "Ovre_strand-skraning/delta_front_"                                 "Delta_front/progr._kyst"
3947.5 "6406_3-3"  66.0300 "Sandstone" "Shale"   -999.25  85.0000 15.00000      0.0 "f/m"   "f/m"   "Ovre_strand-skraning/delta_front_"                                 "Delta_front/progr._kyst"
3947.6 "6406_3-3"  67.1800 "Sandstone" "Shale"   -999.25  85.0000 15.00000      0.0 "f/m"   "f/m"   "Ovre_strand-skraning/delta_front_"                                 "Delta_front/progr._kyst"
3947.7 "6406_3-3"  67.5700 "Sandstone" "Shale"   -999.25  85.0000 15.00000      0.0 "f/m"   "f/m"   "Ovre_strand-skraning/delta_front_"                                 "Delta_front/progr._kyst"
3947.8 "6406_3-3"  67.5200 "Sandstone" "Shale"   -999.25  85.0000 15.00000      0.0 "f/m"   "f/m"   "Ovre_strand-skraning/delta_front_"                                 "Delta_front/progr._kyst"
3947.9 "6406_3-3"  67.4700 "Sandstone" "Shale"   -999.25  85.0000 15.00000      0.0 "f/m"   "f/m"   "Ovre_strand-skraning/delta_front_"                                 "Delta_front/progr._kyst"
3948.0 "6406_3-3"  68.2300 "Sandstone" "Shale"   -999.25  85.0000 15.00000      0.0 "f/m"   "f/m"   "Ovre_strand-skraning/delta_front_"                                 "Delta_front/progr._kyst"
3948.1 "6406_3-3"  69.3400 "Sandstone" "Shale"   -999.25  85.0000 15.00000      0.0 "f/m"   "f/m"   "Ovre_strand-skraning/delta_front_"                                 "Delta_front/progr._kyst"
3948.2 "6406_3-3"  70.5600 "Sandstone" "Shale"   -999.25  85.0000 15.00000      0.0 "f/m"   "f/m"   "Ovre_strand-skraning/delta_front_"                                 "Delta_front/progr._kyst"
3948.3 "6406_3-3"  71.9400 "Sandstone" "Shale"   -999.25  85.0000 15.00000      0.0 "f/m"   "f/m"   "Ovre_strand-skraning/delta_front_"                                 "Delta_front/progr._kyst"
3948.4 "6406_3-3"  73.3200 "Sandstone" "Shale"   -999.25  85.0000 15.00000      0.0 "f/m"   "f/m"   "Ovre_strand-skraning/delta_front_"                                 "Delta_front/progr._kyst"
3948.5 "6406_3-3"  75.1300 "Sandstone" "Shale"   -999.25  85.0000 15.00000      0.0 "f/m"   "f/m"   "Ovre_strand-skraning/delta_front_"                                 "Delta_front/progr._kyst"
3948.6 "6406_3-3"  77.0100 "Sandstone" "Shale"   -999.25  85.0000 15.00000      0.0 "f/m"   "f/m"   "Ovre_strand-skraning/delta_front_"                                 "Delta_front/progr._kyst"
3948.7 "6406_3-3"  79.2500 "Sandstone" "Shale"   -999.25  85.0000 15.00000      0.0 "f/m"   "f/m"   "Ovre_strand-skraning/delta_front_"                                 "Delta_front/progr._kyst"
3948.8 "6406_3-3"  81.1500 "Sandstone" "Shale"   -999.25  85.0000 15.00000      0.0 "f/m"   "f/m"   "Ovre_strand-skraning/delta_front_"                                 "Delta_front/progr._kyst"
3948.9 "6406_3-3"  82.6400 "Sandstone" "Shale"   -999.25  85.0000 15.00000      0.0 "f/m"   "f/m"   "Ovre_strand-skraning/delta_front_"                                 "Delta_front/progr._kyst"
3949.0 "6406_3-3"  74.6200 "Sandstone" "Shale"   -999.25  85.0000 15.00000      0.0 "f/m"   "f/m"   "Ovre_strand-skraning/delta_front_"                                 "Delta_front/progr._kyst"
3949.1 "6406_3-3"  73.8100 "Sandstone" "Shale"   -999.25  85.0000 15.00000      0.0 "f/m"   "f/m"   "Ovre_strand-skraning/delta_front_"                                 "Delta_front/progr._kyst"
3949.2 "6406_3-3"  74.6200 "Sandstone" "Shale"   -999.25  85.0000 15.00000      0.0 "f/m"   "f/m"   "Ovre_strand-skraning/delta_front_"                                 "Delta_front/progr._kyst"
3949.3 "6406_3-3"  77.0600 "Sandstone" "Shale"   -999.25  85.0000 15.00000      0.0 "f/m"   "f/m"   "Ovre_strand-skraning/delta_front_"                                 "Delta_front/progr._kyst"
3949.4 "6406_3-3"  79.6600 "Sandstone" "Shale"   -999.25  85.0000 15.00000      0.0 "f/m"   "f/m"   "Ovre_strand-skraning/delta_front_"                                 "Delta_front/progr._kyst"
3949.5 "6406_3-3"  85.1100 "Sandstone" "Shale"   -999.25  85.0000 15.00000      0.0 "f/m"   "f/m"   "Ovre_strand-skraning/delta_front_"                                 "Delta_front/progr._kyst"
3949.6 "6406_3-3"  89.3700 "Sandstone" "Shale"   -999.25  85.0000 15.00000      0.0 "f/m"   "f/m"   "Ovre_strand-skraning/delta_front_"                                 "Delta_front/progr._kyst"
3949.7 "6406_3-3"  92.4000 "Sandstone" "Shale"   -999.25  85.0000 15.00000      0.0 "f/m"   "f/m"   "Ovre_strand-skraning/delta_front_"                                 "Delta_front/progr._kyst"
3949.8 "6406_3-3"  95.9200 "Sandstone" "Shale"   -999.25  85.0000 15.00000      0.0 "f/m"   "f/m"   "Ovre_strand-skraning/delta_front_"                                 "Delta_front/progr._kyst"
3949.9 "6406_3-3"  99.9500 "Sandstone" "Shale"   -999.25  85.0000 15.00000      0.0 "f/m"   "f/m"   "Ovre_strand-skraning/delta_front_"                                 "Delta_front/progr._kyst"
3950.0 "6406_3-3" 106.6300 "Sandstone" "Shale"   -999.25  85.0000 15.00000      0.0 "f/m"   "f/m"   "Ovre_strand-skraning/delta_front_"                                 "Delta_front/progr._kyst"
3950.1 "6406_3-3" 121.0900 "Sandstone" "Shale"   -999.25  85.0000 15.00000      0.0 "f/m"   "f/m"   "Ovre_strand-skraning/delta_front_"                                 "Delta_front/progr._kyst"
3950.2 "6406_3-3" 129.6700 "Sandstone" "Shale"   -999.25  85.0000 15.00000      0.0 "f/m"   "f/m"   "Ovre_strand-skraning/delta_front_"                                 "Delta_front/progr._kyst"
3950.3 "6406_3-3" 123.7700 "Sandstone" "Shale"   -999.25  85.0000 15.00000      0.0 "f/m"   "f/m"   "Ovre_strand-skraning/delta_front_"                                 "Delta_front/progr._kyst"
