~Version
VERS  .                                 3.0 : CWLS LAS ASCII Standard - Version 3.0
WRAP  . NO                                  : One line per depth step
DLM   . SPACE                               : Column data section delimiter
SOURCE. Converted to LAS by Log Studio 4.76 : GeoProvider

~Well
STRT.         3938.0 : Start depth
STOP.         3972.2 : Stop depth
STEP.              1 : Step
NULL.        -999.25 : No-value
COMP.                : Company
WELL. 6406/3-3       : Well
FLD .                : Field
LOC .                : Location
LATI.                : Latitude
LONG.                : Longitude
GDAT.                : Geodetic datum
CNTY.                : County
STAT.                : State
CTRY.                : Country
SRVC. GeoProvider AS : Service company
DATE.                : Date
API .                : API number
RUN .                : Run number

~Parameters
WellboreName.  : Wellbore name
RigName     .  : Rig name
StartDate   .  : Start date

~Curves
DEPTH.m            .  : null {F}Depth mMD
Hole_ID.-          .  : null {S}Hole ID
GR.API             .  : null {F}Gamma Ray
Lithology1.-       .  : null {S}Lithology 1
Lithology2.-       .  : null {S}Lithology 2
Lithology3.-       .  : null {S}Lithology 3
Lithology1.%       .  : null {F}Lithology 1 percentage
Lithology2.%       .  : null {F}Lithology 2 percentage
Lithology3.%       .  : null {F}Lithology 3 percentage
Grain_size_Top.-   .  : null {S}Grain size at the top 
Grain_size_Base.-  .  : null {S}Grain size at the bottom
Sub_Environment.-  .  : null {S}Sub Environment
Gross_Environment.-.  : null {S}Gross Environment

~Ascii
# ...
3958.8 "6406_3-3"  82.8700 "Sandstone" -999.25   -999.25 100.0000      0.0      0.0 "f/m"   "f/m"   "Ovre_strand-skraning/delta_front_"                                 "Delta_front/progr._kyst"
3958.9 "6406_3-3"  85.8600 "Sandstone" -999.25   -999.25 100.0000      0.0      0.0 "f/m"   "f/m"   "Ovre_strand-skraning/delta_front_"                                 "Delta_front/progr._kyst"
3959.0 "6406_3-3"  88.0200 "Sandstone" -999.25   -999.25 100.0000      0.0      0.0 "f/m"   "f/m"   "Ovre_strand-skraning/delta_front_"                                 "Delta_front/progr._kyst"
3959.1 "6406_3-3"  90.5700 "Sandstone" -999.25   -999.25 100.0000      0.0      0.0 "f/m"   "f/m"   "Ovre_strand-skraning/delta_front_"                                 "Delta_front/progr._kyst"
3959.2 "6406_3-3"  92.2900 "Sandstone" -999.25   -999.25 100.0000      0.0      0.0 "f/m"   "f/m"   "Ovre_strand-skraning/delta_front_"                                 "Delta_front/progr._kyst"
3959.3 "6406_3-3"  90.3100 "Sandstone" -999.25   -999.25 100.0000      0.0      0.0 "f/m"   "f/m"   "Ovre_strand-skraning/delta_front_"                                 "Delta_front/progr._kyst"
3959.4 "6406_3-3"  83.6300 "Sandstone" -999.25   -999.25 100.0000      0.0      0.0 "f/m"   "f/m"   "Ovre_strand-skraning/delta_front_"                                 "Delta_front/progr._kyst"
3959.5 "6406_3-3"  79.6400 "Sandstone" -999.25   -999.25 100.0000      0.0      0.0 "f/m"   "f/m"   "Ovre_strand-skraning/delta_front_"                                 "Delta_front/progr._kyst"
3959.6 "6406_3-3"  77.1000 "Sandstone" -999.25   -999.25 100.0000      0.0      0.0 "f/m"   "f/m"   "Ovre_strand-skraning/delta_front_"                                 "Delta_front/progr._kyst"
3959.7 "6406_3-3"  74.3600 "Sandstone" -999.25   -999.25 100.0000      0.0      0.0 "f/m"   "f/m"   "Ovre_strand-skraning/delta_front_"                                 "Delta_front/progr._kyst"
3959.8 "6406_3-3"  71.2000 "Sandstone" -999.25   -999.25 100.0000      0.0      0.0 "f/m"   "f/m"   "Ovre_strand-skraning/delta_front_"                                 "Delta_front/progr._kyst"
3959.9 "6406_3-3"  69.5400 "Sandstone" -999.25   -999.25 100.0000      0.0      0.0 "f/m"   "f/m"   "Ovre_strand-skraning/delta_front_"                                 "Delta_front/progr._kyst"
3960.0 "6406_3-3"  69.1500 "Sandstone" -999.25   -999.25 100.0000      0.0      0.0 "f/m"   "f/m"   "Ovre_strand-skraning/delta_front_"                                 "Delta_front/progr._kyst"
3960.1 "6406_3-3"  69.2400 "Sandstone" -999.25   -999.25 100.0000      0.0      0.0 "f/m"   "f/m"   "Ovre_strand-skraning/delta_front_"                                 "Delta_front/progr._kyst"
3960.2 "6406_3-3"  70.8600 "Sandstone" -999.25   -999.25 100.0000      0.0      0.0 "f/m"   "f/m"   "Ovre_strand-skraning/delta_front_"                                 "Delta_front/progr._kyst"
3960.3 "6406_3-3"  73.9100 "Sandstone" -999.25   -999.25 100.0000      0.0      0.0 "f/m"   "f/m"   "Ovre_strand-skraning/delta_front_"                                 "Delta_front/progr._kyst"
3960.4 "6406_3-3"  75.2900 "Sandstone" -999.25   -999.25 100.0000      0.0      0.0 "f/m"   "f/m"   "Ovre_strand-skraning/delta_front_"                                 "Delta_front/progr._kyst"
3960.5 "6406_3-3"  75.9400 "Sandstone" -999.25   -999.25 100.0000      0.0      0.0 "f/m"   "f/m"   "Ovre_strand-skraning/delta_front_"                                 "Delta_front/progr._kyst"
3960.6 "6406_3-3"  76.1400 "Sandstone" -999.25   -999.25 100.0000      0.0      0.0 "f/m"   "f/m"   "Ovre_strand-skraning/delta_front_"                                 "Delta_front/progr._kyst"
3960.7 "6406_3-3"  75.3900 "Sandstone" -999.25   -999.25 100.0000      0.0      0.0 "f/m"   "f/m"   "Ovre_strand-skraning/delta_front_"                                 "Delta_front/progr._kyst"
3960.8 "6406_3-3"  73.7500 "Sandstone" -999.25   -999.25 100.0000      0.0      0.0 "f/m"   "f/m"   "Ovre_strand-skraning/delta_front_"                                 "Delta_front/progr._kyst"
3960.9 "6406_3-3"  72.5400 "Sandstone" -999.25   -999.25 100.0000      0.0      0.0 "f/m"   "f/m"   "Ovre_strand-skraning/delta_front_"                                 "Delta_front/progr._kyst"
3961.0 "6406_3-3"  72.6700 "Sandstone" -999.25   -999.25 100.0000      0.0      0.0 "f/m"   "f/m"   "Ovre_strand-skraning/delta_front_"                                 "Delta_front/progr._kyst"
3961.1 "6406_3-3"  72.8000 "Sandstone" -999.25   -999.25 100.0000      0.0      0.0 "f/m"   "f/m"   "Ovre_strand-skraning/delta_front_"                                 "Delta_front/progr._kyst"
3961.2 "6406_3-3"  74.7400 "Sandstone" -999.25   -999.25 100.0000      0.0      0.0 "f/m"   "f/m"   "Ovre_strand-skraning/delta_front_"                                 "Delta_front/progr._kyst"
3961.3 "6406_3-3"  77.4700 "Sandstone" -999.25   -999.25 100.0000      0.0      0.0 "f/m"   "f/m"   "Ovre_strand-skraning/delta_front_"                                 "Delta_front/progr._kyst"
3961.4 "6406_3-3"  81.8300 "Sandstone" -999.25   -999.25 100.0000      0.0      0.0 "f/m"   "f/m"   "Ovre_strand-skraning/delta_front_"                                 "Delta_front/progr._kyst"
3961.5 "6406_3-3"  85.5900 "Sandstone" -999.25   -999.25 100.0000      0.0      0.0 "f/m"   "f/m"   "Ovre_strand-skraning/delta_front_"                                 "Delta_front/progr._kyst"
3961.6 "6406_3-3"  89.3900 "Sandstone" -999.25   -999.25 100.0000      0.0      0.0 "f/m"   "f/m"   "Ovre_strand-skraning/delta_front_"                                 "Delta_front/progr._kyst"
3961.7 "6406_3-3"  93.2100 "Sandstone" -999.25   -999.25 100.0000      0.0      0.0 "f/m"   "f/m"   "Ovre_strand-skraning/delta_front_"                                 "Delta_front/progr._kyst"
3961.8 "6406_3-3"  95.6600 "Sandstone" -999.25   -999.25 100.0000      0.0      0.0 "f/m"   "f/m"   "Ovre_strand-skraning/delta_front_"                                 "Delta_front/progr._kyst"
3961.9 "6406_3-3" 100.3100 "Sandstone" -999.25   -999.25 100.0000      0.0      0.0 "f/m"   "f/m"   "Ovre_strand-skraning/delta_front_"                                 "Delta_front/progr._kyst"
3962.0 "6406_3-3" 102.5000 "Sandstone" -999.25   -999.25 100.0000      0.0      0.0 "f/m"   "f/m"   "Ovre_strand-skraning/delta_front_"                                 "Delta_front/progr._kyst"
3962.1 "6406_3-3" 106.9200 "Sandstone" -999.25   -999.25 100.0000      0.0      0.0 "f/m"   "f/m"   "Ovre_strand-skraning/delta_front_"                                 "Delta_front/progr._kyst"
3962.2 "6406_3-3" 110.0600 "Sandstone" -999.25   -999.25 100.0000      0.0      0.0 "f/m"   "f/m"   "Ovre_strand-skraning/delta_front_"                                 "Delta_front/progr._kyst"
3962.3 "6406_3-3" 114.0800 "Sandstone" -999.25   -999.25 100.0000      0.0      0.0 "f/m"   "f/m"   "Ovre_strand-skraning/delta_front_"                                 "Delta_front/progr._kyst"
3962.4 "6406_3-3" 117.9700 "Sandstone" -999.25   -999.25 100.0000      0.0      0.0 "f/m"   "f/m"   "Ovre_strand-skraning/delta_front_"                                 "Delta_front/progr._kyst"
3962.5 "6406_3-3" 123.0700 "Sandstone" -999.25   -999.25 100.0000      0.0      0.0 "f/m"   "f/m"   "Ovre_strand-skraning/delta_front_"                                 "Delta_front/progr._kyst"
3962.6 "6406_3-3" 129.4700 "Sandstone" -999.25   -999.25 100.0000      0.0      0.0 "f/m"   "f/m"   "Ovre_strand-skraning/delta_front_"                                 "Delta_front/progr._kyst"
3962.7 "6406_3-3" 118.8400 "Sandstone" -999.25   -999.25 100.0000      0.0      0.0 "f/m"   "f/m"   "Ovre_strand-skraning/delta_front_"                                 "Delta_front/progr._kyst"
3962.8 "6406_3-3" 106.7200 "Sandstone" -999.25   -999.25 100.0000      0.0      0.0 "f/m"   "f/m"   "Ovre_strand-skraning/delta_front_"                                 "Delta_front/progr._kyst"
3962.9 "6406_3-3" 103.0200 "Sandstone" -999.25   -999.25 100.0000      0.0      0.0 "f/m"   "f/m"   "Ovre_strand-skraning/delta_front_"                                 "Delta_front/progr._kyst"
