~Version
VERS  .                                 3.0 : CWLS LAS ASCII Standard - Version 3.0
WRAP  . NO                                  : One line per depth step
DLM   . SPACE                               : Column data section delimiter
SOURCE. Converted to LAS by Log Studio 4.76 : GeoProvider

~Well
STRT.         3938.0 : Start depth
STOP.         3972.2 : Stop depth
STEP.              1 : Step
NULL.        -999.25 : No-value
COMP.                : Company
WELL. 6406/3-3       : Well
FLD .                : Field
LOC .                : Location
LATI.                : Latitude
LONG.                : Longitude
GDAT.                : Geodetic datum
CNTY.                : County
STAT.                : State
CTRY.                : Country
SRVC. GeoProvider AS : Service company
DATE.                : Date
API .                : API number
RUN .                : Run number

~Parameters
WellboreName.  : Wellbore name
RigName     .  : Rig name
StartDate   .  : Start date

~Curves
DEPTH.m            .  : null {F}Depth mMD
Hole_ID.-          .  : null {S}Hole ID
GR.API             .  : null {F}Gamma Ray
Lithology1.-       .  : null {S}Lithology 1
Lithology2.-       .  : null {S}Lithology 2
Lithology3.-       .  : null {S}Lithology 3
Lithology1.%       .  : null {F}Lithology 1 percentage
Lithology2.%       .  : null {F}Lithology 2 percentage
Lithology3.%       .  : null {F}Lithology 3 percentage
Grain_size_Top.-   .  : null {S}Grain size at the top 
Grain_size_Base.-  .  : null {S}Grain size at the bottom
Sub_Environment.-  .  : null {S}Sub Environment
Gross_Environment.-.  : null {S}Gross Environment

~Ascii
# ...
3942.1 "6406_3-3"  51.9200 "Sandstone" "Limestone" "Shale"  57.0000 30.00000 13.00000 "m/c"   "c/vc"  "Ovre_strand-skraning_eller_proksimal_progr._delta_front_(fan-delta)" "Delta_front/progr._kyst"
3942.2 "6406_3-3"  50.6200 "Sandstone" "Limestone" "Shale"  57.0000 30.00000 13.00000 "m/c"   "c/vc"  "Ovre_strand-skraning_eller_proksimal_progr._delta_front_(fan-delta)" "Delta_front/progr._kyst"
3942.3 "6406_3-3"  49.3200 "Sandstone" "Limestone" "Shale"  57.0000 30.00000 13.00000 "m/c"   "c/vc"  "Ovre_strand-skraning_eller_proksimal_progr._delta_front_(fan-delta)" "Delta_front/progr._kyst"
3942.4 "6406_3-3"  48.0200 "Sandstone" "Limestone" "Shale"  57.0000 30.00000 13.00000 "m/c"   "c/vc"  "Ovre_strand-skraning_eller_proksimal_progr._delta_front_(fan-delta)" "Delta_front/progr._kyst"
3942.5 "6406_3-3"  47.3200 "Sandstone" "Limestone" "Shale"  57.0000 30.00000 13.00000 "m/c"   "c/vc"  "Ovre_strand-skraning_eller_proksimal_progr._delta_front_(fan-delta)" "Delta_front/progr._kyst"
3942.6 "6406_3-3"  47.0800 "Sandstone" "Limestone" "Shale"  57.0000 30.00000 13.00000 "m/c"   "c/vc"  "Ovre_strand-skraning_eller_proksimal_progr._delta_front_(fan-delta)" "Delta_front/progr._kyst"
3942.7 "6406_3-3"  47.2700 "Sandstone" "Limestone" "Shale"  57.0000 30.00000 13.00000 "m/c"   "c/vc"  "Ovre_strand-skraning_eller_proksimal_progr._delta_front_(fan-delta)" "Delta_front/progr._kyst"
3942.8 "6406_3-3"  47.4500 "Sandstone" "Limestone" "Shale"  57.0000 30.00000 13.00000 "m/c"   "c/vc"  "Ovre_strand-skraning_eller_proksimal_progr._delta_front_(fan-delta)" "Delta_front/progr._kyst"
3942.9 "6406_3-3"  47.7900 "Sandstone" "Limestone" "Shale"  57.0000 30.00000 13.00000 "m/c"   "c/vc"  "Ovre_strand-skraning_eller_proksimal_progr._delta_front_(fan-delta)" "Delta_front/progr._kyst"
3943.0 "6406_3-3"  48.8200 "Sandstone" "Limestone" "Shale"  57.0000 30.00000 13.00000 "m/c"   "c/vc"  "Ovre_strand-skraning_eller_proksimal_progr._delta_front_(fan-delta)" "Delta_front/progr._kyst"
3943.1 "6406_3-3"  49.8500 "Sandstone" "Limestone" "Shale"  57.0000 30.00000 13.00000 "m/c"   "c/vc"  "Ovre_strand-skraning_eller_proksimal_progr._delta_front_(fan-delta)" "Delta_front/progr._kyst"
3943.2 "6406_3-3"  51.2100 "Sandstone" "Limestone" "Shale"  57.0000 30.00000 13.00000 "m/c"   "c/vc"  "Ovre_strand-skraning_eller_proksimal_progr._delta_front_(fan-delta)" "Delta_front/progr._kyst"
3943.3 "6406_3-3"  52.6500 "Sandstone" "Limestone" "Shale"  57.0000 30.00000 13.00000 "m/c"   "c/vc"  "Ovre_strand-skraning_eller_proksimal_progr._delta_front_(fan-delta)" "Delta_front/progr._kyst"
3943.4 "6406_3-3"  54.0800 "Sandstone" "Limestone" "Shale"  57.0000 30.00000 13.00000 "m/c"   "c/vc"  "Ovre_strand-skraning_eller_proksimal_progr._delta_front_(fan-delta)" "Delta_front/progr._kyst"
3943.5 "6406_3-3"  55.5400 "Sandstone" "Limestone" "Shale"  57.0000 30.00000 13.00000 "m/c"   "c/vc"  "Ovre_strand-skraning_eller_proksimal_progr._delta_front_(fan-delta)" "Delta_front/progr._kyst"
3943.6 "6406_3-3"  56.9300 "Sandstone" "Limestone" "Shale"  57.0000 30.00000 13.00000 "m/c"   "c/vc"  "Ovre_strand-skraning_eller_proksimal_progr._delta_front_(fan-delta)" "Delta_front/progr._kyst"
3943.7 "6406_3-3"  57.1100 "Sandstone" "Limestone" "Shale"  57.0000 30.00000 13.00000 "m/c"   "c/vc"  "Ovre_strand-skraning_eller_proksimal_progr._delta_front_(fan-delta)" "Delta_front/progr._kyst"
3943.8 "6406_3-3"  56.8500 "Sandstone" "Limestone" "Shale"  57.0000 30.00000 13.00000 "m/c"   "c/vc"  "Ovre_strand-skraning_eller_proksimal_progr._delta_front_(fan-delta)" "Delta_front/progr._kyst"
3943.9 "6406_3-3"  56.2000 "Sandstone" "Limestone" "Shale"  57.0000 30.00000 13.00000 "m/c"   "c/vc"  "Ovre_strand-skraning_eller_proksimal_progr._delta_front_(fan-delta)" "Delta_front/progr._kyst"
3944.0 "6406_3-3"  55.1400 "Sandstone" "Limestone" "Shale"  57.0000 30.00000 13.00000 "m/c"   "c/vc"  "Ovre_strand-skraning_eller_proksimal_progr._delta_front_(fan-delta)" "Delta_front/progr._kyst"
3944.1 "6406_3-3"  52.5400 "Sandstone" -999.25   -999.25 100.0000      0.0      0.0 "m/c"   "m/c"   "Ovre_strand-skraning_eller_proksimal_progr._delta_front_(fan-delta)" "Delta_front/progr._kyst"
3944.2 "6406_3-3"  51.1100 "Sandstone" -999.25   -999.25 100.0000      0.0      0.0 "m/c"   "m/c"   "Ovre_strand-skraning_eller_proksimal_progr._delta_front_(fan-delta)" "Delta_front/progr._kyst"
3944.3 "6406_3-3"  50.6700 "Sandstone" -999.25   -999.25 100.0000      0.0      0.0 "m/c"   "m/c"   "Ovre_strand-skraning_eller_proksimal_progr._delta_front_(fan-delta)" "Delta_front/progr._kyst"
3944.4 "6406_3-3"  50.8900 "Sandstone" -999.25   -999.25 100.0000      0.0      0.0 "m/c"   "m/c"   "Ovre_strand-skraning_eller_proksimal_progr._delta_front_(fan-delta)" "Delta_front/progr._kyst"
3944.5 "6406_3-3"  51.0900 "Sandstone" -999.25   -999.25 100.0000      0.0      0.0 "m/c"   "m/c"   "Ovre_strand-skraning_eller_proksimal_progr._delta_front_(fan-delta)" "Delta_front/progr._kyst"
3944.6 "6406_3-3"  51.2700 "Sandstone" -999.25   -999.25 100.0000      0.0      0.0 "m/c"   "m/c"   "Ovre_strand-skraning_eller_proksimal_progr._delta_front_(fan-delta)" "Delta_front/progr._kyst"
3944.7 "6406_3-3"  50.9200 "Sandstone" -999.25   -999.25 100.0000      0.0      0.0 "m/c"   "m/c"   "Ovre_strand-skraning_eller_proksimal_progr._delta_front_(fan-delta)" "Delta_front/progr._kyst"
3944.8 "6406_3-3"  50.6600 "Sandstone" -999.25   -999.25 100.0000      0.0      0.0 "m/c"   "m/c"   "Ovre_strand-skraning_eller_proksimal_progr._delta_front_(fan-delta)" "Delta_front/progr._kyst"
3944.9 "6406_3-3"  50.5500 "Sandstone" -999.25   -999.25 100.0000      0.0      0.0 "m/c"   "m/c"   "Ovre_strand-skraning_eller_proksimal_progr._delta_front_(fan-delta)" "Delta_front/progr._kyst"
3945.0 "6406_3-3"  50.4400 "Sandstone" -999.25   -999.25 100.0000      0.0      0.0 "m/c"   "m/c"   "Ovre_strand-skraning_eller_proksimal_progr._delta_front_(fan-delta)" "Delta_front/progr._kyst"
3945.1 "6406_3-3"  50.3700 "Sandstone" -999.25   -999.25 100.0000      0.0      0.0 "m/c"   "m/c"   "Ovre_strand-skraning_eller_proksimal_progr._delta_front_(fan-delta)" "Delta_front/progr._kyst"
3945.2 "6406_3-3"  50.4400 "Sandstone" -999.25   -999.25 100.0000      0.0      0.0 "m/c"   "m/c"   "Ovre_strand-skraning_eller_proksimal_progr._delta_front_(fan-delta)" "Delta_front/progr._kyst"
3945.3 "6406_3-3"  50.5200 "Sandstone" -999.25   -999.25 100.0000      0.0      0.0 "m/c"   "m/c"   "Ovre_strand-skraning_eller_proksimal_progr._delta_front_(fan-delta)" "Delta_front/progr._kyst"
3945.4 "6406_3-3"  51.0600 "Sandstone" -999.25   -999.25 100.0000      0.0      0.0 "m/c"   "m/c"   "Ovre_strand-skraning_eller_proksimal_progr._delta_front_(fan-delta)" "Delta_front/progr._kyst"
3945.5 "6406_3-3"  51.5900 "Sandstone" -999.25   -999.25 100.0000      0.0      0.0 "m/c"   "m/c"   "Ovre_strand-skraning_eller_proksimal_progr._delta_front_(fan-delta)" "Delta_front/progr._kyst"
3945.6 "6406_3-3"  52.3900 "Sandstone" -999.25   -999.25 100.0000      0.0      0.0 "m/c"   "m/c"   "Ovre_strand-skraning_eller_proksimal_progr._delta_front_(fan-delta)" "Delta_front/progr._kyst"
3945.7 "6406_3-3"  54.2300 "Sandstone" -999.25   -999.25 100.0000      0.0      0.0 "m/c"   "m/c"   "Ovre_strand-skraning_eller_proksimal_progr._delta_front_(fan-delta)" "Delta_front/progr._kyst"
3945.8 "6406_3-3"  56.5900 "Sandstone" -999.25   -999.25 100.0000      0.0      0.0 "m/c"   "m/c"   "Ovre_strand-skraning_eller_proksimal_progr._delta_front_(fan-delta)" "Delta_front/progr._kyst"
3945.9 "6406_3-3"  59.0500 "Sandstone" -999.25   -999.25 100.0000      0.0      0.0 "m/c"   "m/c"   "Ovre_strand-skraning_eller_proksimal_progr._delta_front_(fan-delta)" "Delta_front/progr._kyst"
3946.0 "6406_3-3"  61.1200 "Sandstone" -999.25   -999.25 100.0000      0.0      0.0 "m/c"   "m/c"   "Ovre_strand-skraning_eller_proksimal_progr._delta_front_(fan-delta)" "Delta_front/progr._kyst"
3946.1 "6406_3-3"  62.9500 "Sandstone" -999.25   -999.25 100.0000      0.0      0.0 "vc"    "m/c"   "Ovre_strand-skraning_eller_proksimal_progr._delta_front_(fan-delta)" "Delta_front/progr._kyst"
