~Version
VERS  .                                 3.0 : CWLS LAS ASCII Standard - Version 3.0
WRAP  . NO                                  : One line per depth step
DLM   . SPACE                               : Column data section delimiter
SOURCE. Converted to LAS by Log Studio 4.76 : GeoProvider

~Well
STRT.         3938.0 : Start depth
STOP.         3972.2 : Stop depth
STEP.              1 : Step
NULL.        -999.25 : No-value
COMP.                : Company
WELL. 6406/3-3       : Well
FLD .                : Field
LOC .                : Location
LATI.                : Latitude
LONG.                : Longitude
GDAT.                : Geodetic datum
CNTY.                : County
STAT.                : State
CTRY.                : Country
SRVC. GeoProvider AS : Service company
DATE.                : Date
API .                : API number
RUN .                : Run number

~Parameters
WellboreName.  : Wellbore name
RigName     .  : Rig name
StartDate   .  : Start date

~Curves
DEPTH.m            .  : null {F}Depth mMD
Hole_ID.-          .  : null {S}Hole ID
GR.API             .  : null {F}Gamma Ray
Lithology1.-       .  : null {S}Lithology 1
Lithology2.-       .  : null {S}Lithology 2
Lithology3.-       .  : null {S}Lithology 3
Lithology1.%       .  : null {F}Lithology 1 percentage
Lithology2.%       .  : null {F}Lithology 2 percentage
Lithology3.%       .  : null {F}Lithology 3 percentage
Grain_size_Top.-   .  : null {S}Grain size at the top 
Grain_size_Base.-  .  : null {S}Grain size at the bottom
Sub_Environment.-  .  : null {S}Sub Environment
Gross_Environment.-.  : null {S}Gross Environment

~Ascii
# ...
3950.4 "6406_3-3" 112.7900 "Sandstone" "Shale"   -999.25  85.0000 15.00000      0.0 "f/m"   "f/m"   "Ovre_strand-skraning/delta_front_"                                 "Delta_front/progr._kyst"
3950.5 "6406_3-3" 102.1600 "Sandstone" "Shale"   -999.25  85.0000 15.00000      0.0 "f/m"   "f/m"   "Ovre_strand-skraning/delta_front_"                                 "Delta_front/progr._kyst"
3950.6 "6406_3-3"  97.5600 "Sandstone" "Shale"   -999.25  85.0000 15.00000      0.0 "f/m"   "f/m"   "Ovre_strand-skraning/delta_front_"                                 "Delta_front/progr._kyst"
3950.7 "6406_3-3"  93.7000 "Sandstone" "Shale"   -999.25  85.0000 15.00000      0.0 "f/m"   "f/m"   "Ovre_strand-skraning/delta_front_"                                 "Delta_front/progr._kyst"
3950.8 "6406_3-3"  89.5700 "Sandstone" "Shale"   -999.25  85.0000 15.00000      0.0 "f/m"   "f/m"   "Ovre_strand-skraning/delta_front_"                                 "Delta_front/progr._kyst"
3950.9 "6406_3-3"  86.1300 "Sandstone" "Shale"   -999.25  85.0000 15.00000      0.0 "f/m"   "f/m"   "Ovre_strand-skraning/delta_front_"                                 "Delta_front/progr._kyst"
3951.0 "6406_3-3"  83.7300 "Sandstone" "Shale"   -999.25  85.0000 15.00000      0.0 "f/m"   "f/m"   "Ovre_strand-skraning/delta_front_"                                 "Delta_front/progr._kyst"
3951.1 "6406_3-3"  81.4100 "Sandstone" "Shale"   -999.25  85.0000 15.00000      0.0 "f/m"   "f/m"   "Ovre_strand-skraning/delta_front_"                                 "Delta_front/progr._kyst"
3951.2 "6406_3-3"  80.7600 "Sandstone" "Shale"   -999.25  85.0000 15.00000      0.0 "f/m"   "f/m"   "Ovre_strand-skraning/delta_front_"                                 "Delta_front/progr._kyst"
3951.3 "6406_3-3"  80.1400 "Sandstone" "Shale"   -999.25  85.0000 15.00000      0.0 "f/m"   "f/m"   "Ovre_strand-skraning/delta_front_"                                 "Delta_front/progr._kyst"
3951.4 "6406_3-3"  80.4200 "Sandstone" "Shale"   -999.25  85.0000 15.00000      0.0 "f/m"   "f/m"   "Ovre_strand-skraning/delta_front_"                                 "Delta_front/progr._kyst"
3951.5 "6406_3-3"  81.6200 "Sandstone" "Shale"   -999.25  85.0000 15.00000      0.0 "f/m"   "f/m"   "Ovre_strand-skraning/delta_front_"                                 "Delta_front/progr._kyst"
3951.6 "6406_3-3"  83.1600 "Sandstone" "Shale"   -999.25  85.0000 15.00000      0.0 "f/m"   "f/m"   "Ovre_strand-skraning/delta_front_"                                 "Delta_front/progr._kyst"
3951.7 "6406_3-3"  84.6900 "Sandstone" "Shale"   -999.25  85.0000 15.00000      0.0 "f/m"   "f/m"   "Ovre_strand-skraning/delta_front_"                                 "Delta_front/progr._kyst"
3951.8 "6406_3-3"  86.6400 "Sandstone" "Shale"   -999.25  85.0000 15.00000      0.0 "f/m"   "f/m"   "Ovre_strand-skraning/delta_front_"                                 "Delta_front/progr._kyst"
3951.9 "6406_3-3"  88.8500 "Sandstone" "Shale"   -999.25  85.0000 15.00000      0.0 "f/m"   "f/m"   "Ovre_strand-skraning/delta_front_"                                 "Delta_front/progr._kyst"
3952.0 "6406_3-3"  91.0600 "Sandstone" "Shale"   -999.25  85.0000 15.00000      0.0 "f/m"   "f/m"   "Ovre_strand-skraning/delta_front_"                                 "Delta_front/progr._kyst"
3952.1 "6406_3-3"  94.0200 "Sandstone" "Shale"   -999.25  85.0000 15.00000      0.0 "f/m"   "f/m"   "Ovre_strand-skraning/delta_front_"                                 "Delta_front/progr._kyst"
3952.2 "6406_3-3"  97.2000 "Sandstone" "Shale"   -999.25  85.0000 15.00000      0.0 "f/m"   "f/m"   "Ovre_strand-skraning/delta_front_"                                 "Delta_front/progr._kyst"
3952.3 "6406_3-3" 101.1500 "Sandstone" "Shale"   -999.25  85.0000 15.00000      0.0 "f/m"   "f/m"   "Ovre_strand-skraning/delta_front_"                                 "Delta_front/progr._kyst"
3952.4 "6406_3-3" 105.0900 "Sandstone" "Shale"   -999.25  85.0000 15.00000      0.0 "f/m"   "f/m"   "Ovre_strand-skraning/delta_front_"                                 "Delta_front/progr._kyst"
3952.5 "6406_3-3" 111.5800 -999.25   -999.25   -999.25 100.0000      0.0      0.0 -999.25 -999.25 "Ovre_strand-skraning/delta_front_"                                 "Delta_front/progr._kyst"
3952.6 "6406_3-3" 119.7400 -999.25   -999.25   -999.25 100.0000      0.0      0.0 -999.25 -999.25 "Ovre_strand-skraning/delta_front_"                                 "Delta_front/progr._kyst"
3952.7 "6406_3-3" 129.9000 -999.25   -999.25   -999.25 100.0000      0.0      0.0 -999.25 -999.25 -999.25                                                             "Delta_front/progr._kyst"
3952.8 "6406_3-3" 129.9000 -999.25   -999.25   -999.25 100.0000      0.0      0.0 -999.25 -999.25 -999.25                                                             "Delta_front/progr._kyst"
3952.9 "6406_3-3" 129.9000 -999.25   -999.25   -999.25 100.0000      0.0      0.0 -999.25 -999.25 -999.25                                                             "Delta_front/progr._kyst"
3953.0 "6406_3-3" 129.9000 -999.25   -999.25   -999.25 100.0000      0.0      0.0 -999.25 -999.25 -999.25                                                             "Delta_front/progr._kyst"
3953.1 "6406_3-3" 129.9000 -999.25   -999.25   -999.25 100.0000      0.0      0.0 -999.25 -999.25 -999.25                                                             "Delta_front/progr._kyst"
3953.2 "6406_3-3" 129.9000 -999.25   -999.25   -999.25 100.0000      0.0      0.0 -999.25 -999.25 -999.25                                                             "Delta_front/progr._kyst"
3953.3 "6406_3-3" 123.3500 -999.25   -999.25   -999.25 100.0000      0.0      0.0 -999.25 -999.25 -999.25                                                             "Delta_front/progr._kyst"
3953.4 "6406_3-3" 108.4800 -999.25   -999.25   -999.25 100.0000      0.0      0.0 -999.25 -999.25 -999.25                                                             "Delta_front/progr._kyst"
3953.5 "6406_3-3"  73.8700 -999.25   -999.25   -999.25 100.0000      0.0      0.0 -999.25 -999.25 -999.25                                                             "Delta_front/progr._kyst"
3953.6 "6406_3-3"  72.1400 -999.25   -999.25   -999.25 100.0000      0.0      0.0 -999.25 -999.25 -999.25                                                             "Delta_front/progr._kyst"
3953.7 "6406_3-3"  70.7600 -999.25   -999.25   -999.25 100.0000      0.0      0.0 -999.25 -999.25 -999.25                                                             "Delta_front/progr._kyst"
3953.8 "6406_3-3"  70.1900 -999.25   -999.25   -999.25 100.0000      0.0      0.0 -999.25 -999.25 -999.25                                                             "Delta_front/progr._kyst"
3953.9 "6406_3-3"  69.6100 -999.25   -999.25   -999.25 100.0000      0.0      0.0 -999.25 -999.25 -999.25                                                             "Delta_front/progr._kyst"
3954.0 "6406_3-3"  69.2300 -999.25   -999.25   -999.25 100.0000      0.0      0.0 -999.25 -999.25 -999.25                                                             "Delta_front/progr._kyst"
3954.1 "6406_3-3"  68.9100 -999.25   -999.25   -999.25 100.0000      0.0      0.0 -999.25 -999.25 -999.25                                                             "Delta_front/progr._kyst"
3954.2 "6406_3-3"  68.9800 -999.25   -999.25   -999.25 100.0000      0.0      0.0 -999.25 -999.25 -999.25                                                             "Delta_front/progr._kyst"
3954.3 "6406_3-3"  69.3000 -999.25   -999.25   -999.25 100.0000      0.0      0.0 -999.25 -999.25 -999.25                                                             "Delta_front/progr._kyst"
3954.4 "6406_3-3"  69.9400 -999.25   -999.25   -999.25 100.0000      0.0      0.0 -999.25 -999.25 -999.25                                                             "Delta_front/progr._kyst"
3954.5 "6406_3-3"  70.5800 -999.25   -999.25   -999.25 100.0000      0.0      0.0 -999.25 -999.25 -999.25                                                             "Delta_front/progr._kyst"
