~Version
VERS  .                                 3.0 : CWLS LAS ASCII Standard - Version 3.0
WRAP  . NO                                  : One line per depth step
DLM   . SPACE                               : Column data section delimiter
SOURCE. Converted to LAS by Log Studio 4.76 : GeoProvider

~Well
STRT.         1631.0 : Start depth
STOP.         1683.0 : Stop depth
STEP.              1 : Step
NULL.        -999.25 : No-value
COMP.                : Company
WELL. 6407/9-1       : Well
FLD .                : Field
LOC .                : Location
LATI.                : Latitude
LONG.                : Longitude
GDAT.                : Geodetic datum
CNTY.                : County
STAT.                : State
CTRY.                : Country
SRVC. GeoProvider AS : Service company
DATE.                : Date
API .                : API number
RUN .                : Run number

~Parameters
WellboreName.  : Wellbore name
RigName     .  : Rig name
StartDate   .  : Start date

~Curves
DEPTH.m            .  : null {F}Depth mMD
Hole_ID.-          .  : null {S}Hole ID
GR.API             .  : null {F}Gamma Ray
Lithology1.-       .  : null {S}Lithology 1
Lithology2.-       .  : null {S}Lithology 2
Lithology3.-       .  : null {S}Lithology 3
Lithology1.%       .  : null {F}Lithology 1 percentage
Lithology2.%       .  : null {F}Lithology 2 percentage
Lithology3.%       .  : null {F}Lithology 3 percentage
Grain_size_Top.-   .  : null {S}Grain size at the top 
Grain_size_Base.-  .  : null {S}Grain size at the bottom
Sub_Environment.-  .  : null {S}Sub Environment
Gross_Environment.-.  : null {S}Gross Environment

~Ascii
# ...
1635.2 "6407_9-1"  20.5300 "Sandstone" -999.25   -999.25 100.0000      0.0      0.0 "c/vc"  "c/vc"  "Central_sandbar_on_open_marine_'shelf'"      "Development_of_sandbars_on_a_high_energy_shelf"
1635.3 "6407_9-1"  20.0700 "Sandstone" -999.25   -999.25 100.0000      0.0      0.0 "c/vc"  "c/vc"  "Central_sandbar_on_open_marine_'shelf'"      "Development_of_sandbars_on_a_high_energy_shelf"
1635.4 "6407_9-1"  19.6200 "Sandstone" -999.25   -999.25 100.0000      0.0      0.0 "c/vc"  "c/vc"  "Central_sandbar_on_open_marine_'shelf'"      "Development_of_sandbars_on_a_high_energy_shelf"
1635.5 "6407_9-1"  19.1600 "Sandstone" -999.25   -999.25 100.0000      0.0      0.0 "c/vc"  "c/vc"  "Central_sandbar_on_open_marine_'shelf'"      "Development_of_sandbars_on_a_high_energy_shelf"
1635.6 "6407_9-1"  18.7000 "Sandstone" -999.25   -999.25 100.0000      0.0      0.0 "c/vc"  "c/vc"  "Central_sandbar_on_open_marine_'shelf'"      "Development_of_sandbars_on_a_high_energy_shelf"
1635.7 "6407_9-1"  18.2400 "Sandstone" -999.25   -999.25 100.0000      0.0      0.0 "c/vc"  "c/vc"  "Central_sandbar_on_open_marine_'shelf'"      "Development_of_sandbars_on_a_high_energy_shelf"
1635.8 "6407_9-1"  17.8700 "Sandstone" -999.25   -999.25 100.0000      0.0      0.0 "c/vc"  "c/vc"  "Central_sandbar_on_open_marine_'shelf'"      "Development_of_sandbars_on_a_high_energy_shelf"
1635.9 "6407_9-1"  18.9600 "Sandstone" -999.25   -999.25 100.0000      0.0      0.0 "c/vc"  "c/vc"  "Central_sandbar_on_open_marine_'shelf'"      "Development_of_sandbars_on_a_high_energy_shelf"
1636.0 "6407_9-1"  20.0400 "Sandstone" -999.25   -999.25 100.0000      0.0      0.0 "c/vc"  "c/vc"  "Central_sandbar_on_open_marine_'shelf'"      "Development_of_sandbars_on_a_high_energy_shelf"
1636.1 "6407_9-1"  20.7200 "Sandstone" -999.25   -999.25 100.0000      0.0      0.0 "c/vc"  "c/vc"  "Central_sandbar_on_open_marine_'shelf'"      "Development_of_sandbars_on_a_high_energy_shelf"
1636.2 "6407_9-1"  20.2200 "Sandstone" -999.25   -999.25 100.0000      0.0      0.0 "c/vc"  "c/vc"  "Central_sandbar_on_open_marine_'shelf'"      "Development_of_sandbars_on_a_high_energy_shelf"
1636.3 "6407_9-1"  19.7200 "Sandstone" -999.25   -999.25 100.0000      0.0      0.0 "c/vc"  "c/vc"  "Central_sandbar_on_open_marine_'shelf'"      "Development_of_sandbars_on_a_high_energy_shelf"
1636.4 "6407_9-1"  19.2200 "Sandstone" -999.25   -999.25 100.0000      0.0      0.0 "c/vc"  "c/vc"  "Central_sandbar_on_open_marine_'shelf'"      "Development_of_sandbars_on_a_high_energy_shelf"
1636.5 "6407_9-1"  18.7200 "Sandstone" -999.25   -999.25 100.0000      0.0      0.0 "c/vc"  "c/vc"  "Central_sandbar_on_open_marine_'shelf'"      "Development_of_sandbars_on_a_high_energy_shelf"
1636.6 "6407_9-1"  18.2200 "Sandstone" -999.25   -999.25 100.0000      0.0      0.0 "c/vc"  "c/vc"  "Central_sandbar_on_open_marine_'shelf'"      "Development_of_sandbars_on_a_high_energy_shelf"
1636.7 "6407_9-1"  17.7200 "Sandstone" -999.25   -999.25 100.0000      0.0      0.0 "c/vc"  "c/vc"  "Central_sandbar_on_open_marine_'shelf'"      "Development_of_sandbars_on_a_high_energy_shelf"
1636.8 "6407_9-1"  17.3300 "Sandstone" -999.25   -999.25 100.0000      0.0      0.0 "c/vc"  "c/vc"  "Central_sandbar_on_open_marine_'shelf'"      "Development_of_sandbars_on_a_high_energy_shelf"
1636.9 "6407_9-1"  17.5100 "Sandstone" -999.25   -999.25 100.0000      0.0      0.0 "c/vc"  "c/vc"  "Central_sandbar_on_open_marine_'shelf'"      "Development_of_sandbars_on_a_high_energy_shelf"
1637.0 "6407_9-1"  17.6800 "Sandstone" -999.25   -999.25 100.0000      0.0      0.0 "c/vc"  "c/vc"  "Central_sandbar_on_open_marine_'shelf'"      "Development_of_sandbars_on_a_high_energy_shelf"
1637.1 "6407_9-1"  17.8500 "Sandstone" -999.25   -999.25 100.0000      0.0      0.0 "c/vc"  "c/vc"  "Central_sandbar_on_open_marine_'shelf'"      "Development_of_sandbars_on_a_high_energy_shelf"
1637.2 "6407_9-1"  18.0300 "Sandstone" -999.25   -999.25 100.0000      0.0      0.0 "c/vc"  "c/vc"  "Central_sandbar_on_open_marine_'shelf'"      "Development_of_sandbars_on_a_high_energy_shelf"
1637.3 "6407_9-1"  18.2000 "Sandstone" -999.25   -999.25 100.0000      0.0      0.0 "c/vc"  "c/vc"  "Central_sandbar_on_open_marine_'shelf'"      "Development_of_sandbars_on_a_high_energy_shelf"
1637.4 "6407_9-1"  18.5600 "Sandstone" -999.25   -999.25 100.0000      0.0      0.0 "c/vc"  "c/vc"  "Central_sandbar_on_open_marine_'shelf'"      "Development_of_sandbars_on_a_high_energy_shelf"
1637.5 "6407_9-1"  19.3100 "Sandstone" -999.25   -999.25 100.0000      0.0      0.0 "c/vc"  "c/vc"  "Central_sandbar_on_open_marine_'shelf'"      "Development_of_sandbars_on_a_high_energy_shelf"
1637.6 "6407_9-1"  20.0600 "Sandstone" -999.25   -999.25 100.0000      0.0      0.0 "c/vc"  "c/vc"  "Central_sandbar_on_open_marine_'shelf'"      "Development_of_sandbars_on_a_high_energy_shelf"
1637.7 "6407_9-1"  20.8100 "Sandstone" -999.25   -999.25 100.0000      0.0      0.0 "c/vc"  "c/vc"  "Central_sandbar_on_open_marine_'shelf'"      "Development_of_sandbars_on_a_high_energy_shelf"
1637.8 "6407_9-1"  21.1300 "Sandstone" -999.25   -999.25 100.0000      0.0      0.0 "c/vc"  "c/vc"  "Central_sandbar_on_open_marine_'shelf'"      "Development_of_sandbars_on_a_high_energy_shelf"
1637.9 "6407_9-1"  20.3000 "Sandstone" "Limestone" "Coal"   92.0000  4.00000 4.000000 "c/vc"  "c/vc"  "Central_sandbar_on_open_marine_'shelf'"      "Development_of_sandbars_on_a_high_energy_shelf"
1638.0 "6407_9-1"  19.4600 "Sandstone" "Limestone" "Coal"   92.0000  4.00000 4.000000 "c/vc"  "c/vc"  "Central_sandbar_on_open_marine_'shelf'"      "Development_of_sandbars_on_a_high_energy_shelf"
1638.1 "6407_9-1"  18.6300 "Sandstone" "Limestone" "Coal"   92.0000  4.00000 4.000000 "c/vc"  "c/vc"  "Central_sandbar_on_open_marine_'shelf'"      "Development_of_sandbars_on_a_high_energy_shelf"
1638.2 "6407_9-1"  17.8000 "Sandstone" "Limestone" "Coal"   92.0000  4.00000 4.000000 "c/vc"  "c/vc"  "Central_sandbar_on_open_marine_'shelf'"      "Development_of_sandbars_on_a_high_energy_shelf"
1638.3 "6407_9-1"  17.7100 "Sandstone" "Limestone" "Coal"   92.0000  4.00000 4.000000 "c/vc"  "c/vc"  "Central_sandbar_on_open_marine_'shelf'"      "Development_of_sandbars_on_a_high_energy_shelf"
1638.4 "6407_9-1"  17.9300 "Sandstone" "Limestone" "Coal"   92.0000  4.00000 4.000000 "c/vc"  "c/vc"  "Central_sandbar_on_open_marine_'shelf'"      "Development_of_sandbars_on_a_high_energy_shelf"
1638.5 "6407_9-1"  18.1400 "Sandstone" "Limestone" "Coal"   92.0000  4.00000 4.000000 "c/vc"  "c/vc"  "Central_sandbar_on_open_marine_'shelf'"      "Development_of_sandbars_on_a_high_energy_shelf"
1638.6 "6407_9-1"  18.3600 "Sandstone" "Limestone" "Coal"   92.0000  4.00000 4.000000 "c/vc"  "c/vc"  "Central_sandbar_on_open_marine_'shelf'"      "Development_of_sandbars_on_a_high_energy_shelf"
1638.7 "6407_9-1"  18.5800 "Sandstone" "Limestone" "Coal"   92.0000  4.00000 4.000000 "c/vc"  "c/vc"  "Central_sandbar_on_open_marine_'shelf'"      "Development_of_sandbars_on_a_high_energy_shelf"
1638.8 "6407_9-1"  18.8000 "Sandstone" "Limestone" "Coal"   92.0000  4.00000 4.000000 "c/vc"  "c/vc"  "Central_sandbar_on_open_marine_'shelf'"      "Development_of_sandbars_on_a_high_energy_shelf"
1638.9 "6407_9-1"  18.4700 "Sandstone" "Limestone" "Coal"   92.0000  4.00000 4.000000 "c/vc"  "c/vc"  "Central_sandbar_on_open_marine_'shelf'"      "Development_of_sandbars_on_a_high_energy_shelf"
1639.0 "6407_9-1"  18.0700 "Sandstone" "Limestone" "Coal"   92.0000  4.00000 4.000000 "c/vc"  "c/vc"  "Central_sandbar_on_open_marine_'shelf'"      "Development_of_sandbars_on_a_high_energy_shelf"
1639.1 "6407_9-1"  17.6700 "Sandstone" "Limestone" "Coal"   92.0000  4.00000 4.000000 "c/vc"  "c/vc"  "Central_sandbar_on_open_marine_'shelf'"      "Development_of_sandbars_on_a_high_energy_shelf"
1639.2 "6407_9-1"  17.2800 "Sandstone" "Limestone" "Coal"   92.0000  4.00000 4.000000 "c/vc"  "c/vc"  "Central_sandbar_on_open_marine_'shelf'"      "Development_of_sandbars_on_a_high_energy_shelf"
