~Version
VERS  .                                 3.0 : CWLS LAS ASCII Standard - Version 3.0
WRAP  . NO                                  : One line per depth step
DLM   . SPACE                               : Column data section delimiter
SOURCE. Converted to LAS by Log Studio 4.76 : GeoProvider

~Well
STRT.         1631.0 : Start depth
STOP.         1683.0 : Stop depth
STEP.              1 : Step
NULL.        -999.25 : No-value
COMP.                : Company
WELL. 6407/9-1       : Well
FLD .                : Field
LOC .                : Location
LATI.                : Latitude
LONG.                : Longitude
GDAT.                : Geodetic datum
CNTY.                : County
STAT.                : State
CTRY.                : Country
SRVC. GeoProvider AS : Service company
DATE.                : Date
API .                : API number
RUN .                : Run number

~Parameters
WellboreName.  : Wellbore name
RigName     .  : Rig name
StartDate   .  : Start date

~Curves
DEPTH.m            .  : null {F}Depth mMD
Hole_ID.-          .  : null {S}Hole ID
GR.API             .  : null {F}Gamma Ray
Lithology1.-       .  : null {S}Lithology 1
Lithology2.-       .  : null {S}Lithology 2
Lithology3.-       .  : null {S}Lithology 3
Lithology1.%       .  : null {F}Lithology 1 percentage
Lithology2.%       .  : null {F}Lithology 2 percentage
Lithology3.%       .  : null {F}Lithology 3 percentage
Grain_size_Top.-   .  : null {S}Grain size at the top 
Grain_size_Base.-  .  : null {S}Grain size at the bottom
Sub_Environment.-  .  : null {S}Sub Environment
Gross_Environment.-.  : null {S}Gross Environment

~Ascii
# ...
1672.2 "6407_9-1"  -999.25 "Sandstone" "Limestone" -999.25  93.0000  7.00000      0.0 "vf/f"  "f/m"   "Offshore_Trangression"                       "Development_of_sandbars_on_a_high_energy_shelf"
1672.3 "6407_9-1"  -999.25 "Clay"    -999.25   -999.25 100.0000      0.0      0.0 "silt"  "silt/vf" "Offshore_Trangression"                       "Development_of_sandbars_on_a_high_energy_shelf"
1672.4 "6407_9-1"  -999.25 "Clay"    -999.25   -999.25 100.0000      0.0      0.0 "silt"  "silt/vf" "Offshore_Trangression"                       "Development_of_sandbars_on_a_high_energy_shelf"
1672.5 "6407_9-1"  -999.25 "Clay"    -999.25   -999.25 100.0000      0.0      0.0 "silt"  "silt/vf" "Offshore_Trangression"                       "Development_of_sandbars_on_a_high_energy_shelf"
1672.6 "6407_9-1"  -999.25 "Clay"    -999.25   -999.25 100.0000      0.0      0.0 "silt"  "silt/vf" "Offshore_Trangression"                       "Development_of_sandbars_on_a_high_energy_shelf"
1672.7 "6407_9-1"  -999.25 "Clay"    -999.25   -999.25 100.0000      0.0      0.0 "silt"  "silt/vf" "Offshore_Trangression"                       "Development_of_sandbars_on_a_high_energy_shelf"
1672.8 "6407_9-1"  -999.25 "Clay"    -999.25   -999.25 100.0000      0.0      0.0 "silt"  "silt/vf" "Offshore_Trangression"                       "Development_of_sandbars_on_a_high_energy_shelf"
1672.9 "6407_9-1"  -999.25 "Clay"    -999.25   -999.25 100.0000      0.0      0.0 "silt"  "silt/vf" "Offshore_Trangression"                       "Development_of_sandbars_on_a_high_energy_shelf"
1673.0 "6407_9-1"  -999.25 "Clay"    -999.25   -999.25 100.0000      0.0      0.0 "silt"  "silt/vf" "Offshore_Trangression"                       "Development_of_sandbars_on_a_high_energy_shelf"
1673.1 "6407_9-1"  -999.25 "Clay"    -999.25   -999.25 100.0000      0.0      0.0 "silt"  "silt/vf" "Offshore_Trangression"                       "Development_of_sandbars_on_a_high_energy_shelf"
1673.2 "6407_9-1"  -999.25 "Clay"    -999.25   -999.25 100.0000      0.0      0.0 "silt"  "silt/vf" "Offshore_Trangression"                       "Development_of_sandbars_on_a_high_energy_shelf"
1673.3 "6407_9-1"  -999.25 "Clay"    -999.25   -999.25 100.0000      0.0      0.0 "silt"  "silt/vf" "Offshore_Trangression"                       "Development_of_sandbars_on_a_high_energy_shelf"
1673.4 "6407_9-1" 129.5500 "Clay"    -999.25   -999.25 100.0000      0.0      0.0 "silt"  "silt/vf" "Offshore_Trangression"                       "Development_of_sandbars_on_a_high_energy_shelf"
1673.5 "6407_9-1" 121.3300 "Clay"    -999.25   -999.25 100.0000      0.0      0.0 "silt"  "silt/vf" "Offshore_Trangression"                       "Development_of_sandbars_on_a_high_energy_shelf"
1673.6 "6407_9-1" 112.9600 "Clay"    -999.25   -999.25 100.0000      0.0      0.0 "silt"  "silt/vf" "Offshore_Trangression"                       "Development_of_sandbars_on_a_high_energy_shelf"
1673.7 "6407_9-1" 104.5800 "Clay"    -999.25   -999.25 100.0000      0.0      0.0 "silt"  "silt/vf" "Offshore_Trangression"                       "Development_of_sandbars_on_a_high_energy_shelf"
1673.8 "6407_9-1"  96.2100 "Clay"    -999.25   -999.25 100.0000      0.0      0.0 "silt"  "silt/vf" "Offshore_Trangression"                       "Development_of_sandbars_on_a_high_energy_shelf"
1673.9 "6407_9-1"  92.4800 "Clay"    -999.25   -999.25 100.0000      0.0      0.0 "silt"  "silt/vf" "Offshore_Trangression"                       "Development_of_sandbars_on_a_high_energy_shelf"
1674.0 "6407_9-1"  94.8500 "Clay"    -999.25   -999.25 100.0000      0.0      0.0 "silt"  "silt/vf" "Offshore_Trangression"                       "Development_of_sandbars_on_a_high_energy_shelf"
1674.1 "6407_9-1"  97.2300 "Clay"    -999.25   -999.25 100.0000      0.0      0.0 "silt"  "silt/vf" "Offshore_Trangression"                       "Development_of_sandbars_on_a_high_energy_shelf"
1674.2 "6407_9-1"  99.6100 "Clay"    -999.25   -999.25 100.0000      0.0      0.0 "silt"  "silt/vf" "Offshore_Trangression"                       "Development_of_sandbars_on_a_high_energy_shelf"
1674.3 "6407_9-1" 101.9800 "Clay"    -999.25   -999.25 100.0000      0.0      0.0 "silt"  "silt/vf" "Offshore_Trangression"                       "Development_of_sandbars_on_a_high_energy_shelf"
1674.4 "6407_9-1" 103.5400 "Clay"    -999.25   -999.25 100.0000      0.0      0.0 "silt"  "silt/vf" "Offshore_Trangression"                       "Development_of_sandbars_on_a_high_energy_shelf"
1674.5 "6407_9-1"  98.1900 "Clay"    -999.25   -999.25 100.0000      0.0      0.0 "silt"  "silt/vf" "Offshore_Trangression"                       "Development_of_sandbars_on_a_high_energy_shelf"
1674.6 "6407_9-1"  92.8500 "Clay"    -999.25   -999.25 100.0000      0.0      0.0 "silt"  "silt/vf" "Offshore_Trangression"                       "Development_of_sandbars_on_a_high_energy_shelf"
1674.7 "6407_9-1"  87.5100 "Clay"    -999.25   -999.25 100.0000      0.0      0.0 "silt"  "silt/vf" "Offshore_Trangression"                       "Development_of_sandbars_on_a_high_energy_shelf"
1674.8 "6407_9-1"  82.1700 "Clay"    -999.25   -999.25 100.0000      0.0      0.0 "silt"  "silt/vf" "Offshore_Trangression"                       "Development_of_sandbars_on_a_high_energy_shelf"
1674.9 "6407_9-1"  80.2900 "Clay"    -999.25   -999.25 100.0000      0.0      0.0 "silt"  "silt/vf" "Offshore_Trangression"                       "Development_of_sandbars_on_a_high_energy_shelf"
1675.0 "6407_9-1"  79.4900 "Clay"    -999.25   -999.25 100.0000      0.0      0.0 "silt"  "silt/vf" "Offshore_Trangression"                       "Development_of_sandbars_on_a_high_energy_shelf"
1675.1 "6407_9-1"  78.6900 "Clay"    -999.25   -999.25 100.0000      0.0      0.0 "silt"  "silt/vf" "Offshore_Trangression"                       "Development_of_sandbars_on_a_high_energy_shelf"
1675.2 "6407_9-1"  78.5100 "Clay"    -999.25   -999.25 100.0000      0.0      0.0 "silt"  "silt/vf" "Offshore_Trangression"                       "Development_of_sandbars_on_a_high_energy_shelf"
1675.3 "6407_9-1"  78.9500 "Clay"    -999.25   -999.25 100.0000      0.0      0.0 "silt"  "silt/vf" "Offshore_Trangression"                       "Development_of_sandbars_on_a_high_energy_shelf"
1675.4 "6407_9-1"  79.3800 "Sandstone" "Limestone" -999.25  70.0000 30.00000      0.0 "f/m"   "silt/vf" "Erosion"                                     "Proximal_delta_front"                        
1675.5 "6407_9-1"  79.8200 "Sandstone" "Limestone" -999.25  70.0000 30.00000      0.0 "f/m"   "silt/vf" "Erosion"                                     "Proximal_delta_front"                        
1675.6 "6407_9-1"  79.6200 "Sandstone" "Limestone" -999.25  70.0000 30.00000      0.0 "f/m"   "silt/vf" "Erosion"                                     "Proximal_delta_front"                        
1675.7 "6407_9-1"  78.6300 "Sandstone" "Limestone" -999.25  70.0000 30.00000      0.0 "f/m"   "silt/vf" "Erosion"                                     "Proximal_delta_front"                        
1675.8 "6407_9-1"  77.6300 "Sandstone" "Limestone" -999.25  70.0000 30.00000      0.0 "f/m"   "silt/vf" "Erosion"                                     "Proximal_delta_front"                        
1675.9 "6407_9-1"  76.6300 "Sandstone" "Limestone" -999.25  70.0000 30.00000      0.0 "f/m"   "silt/vf" "Erosion"                                     "Proximal_delta_front"                        
1676.0 "6407_9-1"  76.8100 "Sandstone" "Limestone" -999.25  70.0000 30.00000      0.0 "f/m"   "silt/vf" "Erosion"                                     "Proximal_delta_front"                        
1676.1 "6407_9-1"  77.1300 "Sandstone" "Limestone" -999.25  70.0000 30.00000      0.0 "f/m"   "silt/vf" "Erosion"                                     "Proximal_delta_front"                        
1676.2 "6407_9-1"  77.4500 "Sandstone" "Limestone" -999.25  70.0000 30.00000      0.0 "f/m"   "silt/vf" "Erosion"                                     "Proximal_delta_front"                        
