~Version
VERS  .                                 3.0 : CWLS LAS ASCII Standard - Version 3.0
WRAP  . NO                                  : One line per depth step
DLM   . SPACE                               : Column data section delimiter
SOURCE. Converted to LAS by Log Studio 4.76 : GeoProvider

~Well
STRT.         1631.0 : Start depth
STOP.         1683.0 : Stop depth
STEP.              1 : Step
NULL.        -999.25 : No-value
COMP.                : Company
WELL. 6407/9-1       : Well
FLD .                : Field
LOC .                : Location
LATI.                : Latitude
LONG.                : Longitude
GDAT.                : Geodetic datum
CNTY.                : County
STAT.                : State
CTRY.                : Country
SRVC. GeoProvider AS : Service company
DATE.                : Date
API .                : API number
RUN .                : Run number

~Parameters
WellboreName.  : Wellbore name
RigName     .  : Rig name
StartDate   .  : Start date

~Curves
DEPTH.m            .  : null {F}Depth mMD
Hole_ID.-          .  : null {S}Hole ID
GR.API             .  : null {F}Gamma Ray
Lithology1.-       .  : null {S}Lithology 1
Lithology2.-       .  : null {S}Lithology 2
Lithology3.-       .  : null {S}Lithology 3
Lithology1.%       .  : null {F}Lithology 1 percentage
Lithology2.%       .  : null {F}Lithology 2 percentage
Lithology3.%       .  : null {F}Lithology 3 percentage
Grain_size_Top.-   .  : null {S}Grain size at the top 
Grain_size_Base.-  .  : null {S}Grain size at the bottom
Sub_Environment.-  .  : null {S}Sub Environment
Gross_Environment.-.  : null {S}Gross Environment

~Ascii
# ...
1655.7 "6407_9-1"  44.1200 "Sandstone" "Limestone" -999.25  96.0000  4.00000      0.0 "c"     "c/vc"  "Erosion"                                     "Development_of_sandbars_on_a_high_energy_shelf"
1655.8 "6407_9-1"  45.0400 "Sandstone" "Limestone" -999.25  96.0000  4.00000      0.0 "c"     "c/vc"  "Erosion"                                     "Development_of_sandbars_on_a_high_energy_shelf"
1655.9 "6407_9-1"  45.9700 "Sandstone" "Limestone" -999.25  96.0000  4.00000      0.0 "c"     "c/vc"  "Erosion"                                     "Development_of_sandbars_on_a_high_energy_shelf"
1656.0 "6407_9-1"  46.8900 "Sandstone" "Limestone" -999.25  96.0000  4.00000      0.0 "c"     "c/vc"  "Erosion"                                     "Development_of_sandbars_on_a_high_energy_shelf"
1656.1 "6407_9-1"  47.3000 "Sandstone" "Limestone" -999.25  96.0000  4.00000      0.0 "c"     "c/vc"  "Erosion"                                     "Development_of_sandbars_on_a_high_energy_shelf"
1656.2 "6407_9-1"  47.4900 "Sandstone" "Limestone" -999.25  96.0000  4.00000      0.0 "c"     "c/vc"  "Erosion"                                     "Development_of_sandbars_on_a_high_energy_shelf"
1656.3 "6407_9-1"  47.6800 "Sandstone" "Limestone" -999.25  96.0000  4.00000      0.0 "c"     "c/vc"  "Erosion"                                     "Development_of_sandbars_on_a_high_energy_shelf"
1656.4 "6407_9-1"  47.8700 "Sandstone" "Limestone" -999.25  96.0000  4.00000      0.0 "c"     "c/vc"  "Erosion"                                     "Development_of_sandbars_on_a_high_energy_shelf"
1656.5 "6407_9-1"  48.0600 "Sandstone" "Limestone" -999.25  96.0000  4.00000      0.0 "c"     "c/vc"  "Erosion"                                     "Development_of_sandbars_on_a_high_energy_shelf"
1656.6 "6407_9-1"  48.8300 "Sandstone" "Limestone" -999.25  96.0000  4.00000      0.0 "c"     "c/vc"  "Erosion"                                     "Development_of_sandbars_on_a_high_energy_shelf"
1656.7 "6407_9-1"  50.5700 "Sandstone" "Limestone" -999.25  96.0000  4.00000      0.0 "c"     "c/vc"  "Erosion"                                     "Development_of_sandbars_on_a_high_energy_shelf"
1656.8 "6407_9-1"  52.3200 "Sandstone" "Limestone" -999.25  96.0000  4.00000      0.0 "c"     "c/vc"  "Erosion"                                     "Development_of_sandbars_on_a_high_energy_shelf"
1656.9 "6407_9-1"  54.0700 "Sandstone" "Limestone" -999.25  96.0000  4.00000      0.0 "c"     "c/vc"  "Erosion"                                     "Development_of_sandbars_on_a_high_energy_shelf"
1657.0 "6407_9-1"  55.8100 "Sandstone" "Limestone" -999.25  96.0000  4.00000      0.0 "c"     "c/vc"  "Erosion"                                     "Development_of_sandbars_on_a_high_energy_shelf"
1657.1 "6407_9-1"  57.0200 "Sandstone" "Limestone" -999.25  96.0000  4.00000      0.0 "c"     "c/vc"  "Erosion"                                     "Development_of_sandbars_on_a_high_energy_shelf"
1657.2 "6407_9-1"  56.9900 "Sandstone" "Limestone" -999.25  96.0000  4.00000      0.0 "c"     "c/vc"  "Erosion"                                     "Development_of_sandbars_on_a_high_energy_shelf"
1657.3 "6407_9-1"  56.9500 "Sandstone" "Limestone" -999.25  96.0000  4.00000      0.0 "c"     "c/vc"  "Erosion"                                     "Development_of_sandbars_on_a_high_energy_shelf"
1657.4 "6407_9-1"  56.9100 "Sandstone" "Limestone" -999.25  96.0000  4.00000      0.0 "c"     "c/vc"  "Erosion"                                     "Development_of_sandbars_on_a_high_energy_shelf"
1657.5 "6407_9-1"  56.8700 "Sandstone" "Limestone" -999.25  96.0000  4.00000      0.0 "c"     "c/vc"  "Erosion"                                     "Development_of_sandbars_on_a_high_energy_shelf"
1657.6 "6407_9-1"  56.8300 "Sandstone" "Limestone" -999.25  96.0000  4.00000      0.0 "c"     "c/vc"  "Erosion"                                     "Development_of_sandbars_on_a_high_energy_shelf"
1657.7 "6407_9-1"  56.7900 "Sandstone" "Limestone" -999.25  96.0000  4.00000      0.0 "c"     "c/vc"  "Erosion"                                     "Development_of_sandbars_on_a_high_energy_shelf"
1657.8 "6407_9-1"  57.2100 "Sandstone" "Limestone" -999.25  96.0000  4.00000      0.0 "c"     "c/vc"  "Erosion"                                     "Development_of_sandbars_on_a_high_energy_shelf"
1657.9 "6407_9-1"  57.8000 "Sandstone" "Limestone" -999.25  96.0000  4.00000      0.0 "c"     "c/vc"  "Erosion"                                     "Development_of_sandbars_on_a_high_energy_shelf"
1658.0 "6407_9-1"  58.4000 "Sandstone" "Limestone" -999.25  96.0000  4.00000      0.0 "c"     "c/vc"  "Erosion"                                     "Development_of_sandbars_on_a_high_energy_shelf"
1658.1 "6407_9-1"  59.0000 "Sandstone" "Limestone" -999.25  96.0000  4.00000      0.0 "c"     "c/vc"  "Erosion"                                     "Development_of_sandbars_on_a_high_energy_shelf"
1658.2 "6407_9-1"  59.6000 "Sandstone" "Limestone" -999.25  96.0000  4.00000      0.0 "c"     "c/vc"  "Erosion"                                     "Development_of_sandbars_on_a_high_energy_shelf"
1658.3 "6407_9-1"  60.2000 "Sandstone" "Limestone" -999.25  96.0000  4.00000      0.0 "c"     "c/vc"  "Erosion"                                     "Development_of_sandbars_on_a_high_energy_shelf"
1658.4 "6407_9-1"  60.8000 "Sandstone" "Limestone" -999.25  96.0000  4.00000      0.0 "c"     "c/vc"  "Erosion"                                     "Development_of_sandbars_on_a_high_energy_shelf"
1658.5 "6407_9-1"  61.3600 "Sandstone" "Limestone" -999.25  96.0000  4.00000      0.0 "c"     "c/vc"  "Erosion"                                     "Development_of_sandbars_on_a_high_energy_shelf"
1658.6 "6407_9-1"  61.6100 "Sandstone" -999.25   -999.25 100.0000      0.0      0.0 "f"     "f/m"   "Marginal_sandbar_on_open_marine_'shelf'"     "Development_of_sandbars_on_a_high_energy_shelf"
1658.7 "6407_9-1"  61.8600 "Sandstone" -999.25   -999.25 100.0000      0.0      0.0 "f"     "f/m"   "Marginal_sandbar_on_open_marine_'shelf'"     "Development_of_sandbars_on_a_high_energy_shelf"
1658.8 "6407_9-1"  62.1800 "Sandstone" -999.25   -999.25 100.0000      0.0      0.0 "f"     "f/m"   "Marginal_sandbar_on_open_marine_'shelf'"     "Development_of_sandbars_on_a_high_energy_shelf"
1658.9 "6407_9-1"  63.7400 "Sandstone" -999.25   -999.25 100.0000      0.0      0.0 "f"     "f/m"   "Marginal_sandbar_on_open_marine_'shelf'"     "Development_of_sandbars_on_a_high_energy_shelf"
1659.0 "6407_9-1"  65.2900 "Sandstone" -999.25   -999.25 100.0000      0.0      0.0 "f"     "f/m"   "Marginal_sandbar_on_open_marine_'shelf'"     "Development_of_sandbars_on_a_high_energy_shelf"
1659.1 "6407_9-1"  65.8500 "Sandstone" -999.25   -999.25 100.0000      0.0      0.0 "f"     "f/m"   "Marginal_sandbar_on_open_marine_'shelf'"     "Development_of_sandbars_on_a_high_energy_shelf"
1659.2 "6407_9-1"  66.1200 "Sandstone" -999.25   -999.25 100.0000      0.0      0.0 "f"     "f/m"   "Marginal_sandbar_on_open_marine_'shelf'"     "Development_of_sandbars_on_a_high_energy_shelf"
1659.3 "6407_9-1"  66.3900 "Sandstone" -999.25   -999.25 100.0000      0.0      0.0 "f"     "f/m"   "Marginal_sandbar_on_open_marine_'shelf'"     "Development_of_sandbars_on_a_high_energy_shelf"
1659.4 "6407_9-1"  66.6600 "Sandstone" -999.25   -999.25 100.0000      0.0      0.0 "f"     "f/m"   "Marginal_sandbar_on_open_marine_'shelf'"     "Development_of_sandbars_on_a_high_energy_shelf"
1659.5 "6407_9-1"  66.9300 "Sandstone" -999.25   -999.25 100.0000      0.0      0.0 "f"     "f/m"   "Marginal_sandbar_on_open_marine_'shelf'"     "Development_of_sandbars_on_a_high_energy_shelf"
1659.6 "6407_9-1"  67.2000 "Sandstone" -999.25   -999.25 100.0000      0.0      0.0 "f"     "f/m"   "Marginal_sandbar_on_open_marine_'shelf'"     "Development_of_sandbars_on_a_high_energy_shelf"
1659.7 "6407_9-1"  67.4700 "Sandstone" -999.25   -999.25 100.0000      0.0      0.0 "f"     "f/m"   "Marginal_sandbar_on_open_marine_'shelf'"     "Development_of_sandbars_on_a_high_energy_shelf"
