~Version
VERS  .                                 3.0 : CWLS LAS ASCII Standard - Version 3.0
WRAP  . NO                                  : One line per depth step
DLM   . SPACE                               : Column data section delimiter
SOURCE. Converted to LAS by Log Studio 4.76 : GeoProvider

~Well
STRT.         1631.0 : Start depth
STOP.         1683.0 : Stop depth
STEP.              1 : Step
NULL.        -999.25 : No-value
COMP.                : Company
WELL. 6407/9-1       : Well
FLD .                : Field
LOC .                : Location
LATI.                : Latitude
LONG.                : Longitude
GDAT.                : Geodetic datum
CNTY.                : County
STAT.                : State
CTRY.                : Country
SRVC. GeoProvider AS : Service company
DATE.                : Date
API .                : API number
RUN .                : Run number

~Parameters
WellboreName.  : Wellbore name
RigName     .  : Rig name
StartDate   .  : Start date

~Curves
DEPTH.m            .  : null {F}Depth mMD
Hole_ID.-          .  : null {S}Hole ID
GR.API             .  : null {F}Gamma Ray
Lithology1.-       .  : null {S}Lithology 1
Lithology2.-       .  : null {S}Lithology 2
Lithology3.-       .  : null {S}Lithology 3
Lithology1.%       .  : null {F}Lithology 1 percentage
Lithology2.%       .  : null {F}Lithology 2 percentage
Lithology3.%       .  : null {F}Lithology 3 percentage
Grain_size_Top.-   .  : null {S}Grain size at the top 
Grain_size_Base.-  .  : null {S}Grain size at the bottom
Sub_Environment.-  .  : null {S}Sub Environment
Gross_Environment.-.  : null {S}Gross Environment

~Ascii
# ...
1643.4 "6407_9-1"  20.6900 -999.25   -999.25   -999.25 100.0000      0.0      0.0 -999.25 -999.25 "Central_sandbar_on_open_marine_'shelf'"      "Development_of_sandbars_on_a_high_energy_shelf"
1643.5 "6407_9-1"  19.2400 -999.25   -999.25   -999.25 100.0000      0.0      0.0 -999.25 -999.25 "Central_sandbar_on_open_marine_'shelf'"      "Development_of_sandbars_on_a_high_energy_shelf"
1643.6 "6407_9-1"  19.2100 -999.25   -999.25   -999.25 100.0000      0.0      0.0 -999.25 -999.25 "Central_sandbar_on_open_marine_'shelf'"      "Development_of_sandbars_on_a_high_energy_shelf"
1643.7 "6407_9-1"  19.7500 -999.25   -999.25   -999.25 100.0000      0.0      0.0 -999.25 -999.25 "Central_sandbar_on_open_marine_'shelf'"      "Development_of_sandbars_on_a_high_energy_shelf"
1643.8 "6407_9-1"  20.2900 -999.25   -999.25   -999.25 100.0000      0.0      0.0 -999.25 -999.25 "Central_sandbar_on_open_marine_'shelf'"      "Development_of_sandbars_on_a_high_energy_shelf"
1643.9 "6407_9-1"  20.8300 -999.25   -999.25   -999.25 100.0000      0.0      0.0 -999.25 -999.25 "Central_sandbar_on_open_marine_'shelf'"      "Development_of_sandbars_on_a_high_energy_shelf"
1644.0 "6407_9-1"  21.3700 -999.25   -999.25   -999.25 100.0000      0.0      0.0 -999.25 -999.25 "Central_sandbar_on_open_marine_'shelf'"      "Development_of_sandbars_on_a_high_energy_shelf"
1644.1 "6407_9-1"  21.9100 -999.25   -999.25   -999.25 100.0000      0.0      0.0 -999.25 -999.25 "Central_sandbar_on_open_marine_'shelf'"      "Development_of_sandbars_on_a_high_energy_shelf"
1644.2 "6407_9-1"  22.0200 -999.25   -999.25   -999.25 100.0000      0.0      0.0 -999.25 -999.25 "Central_sandbar_on_open_marine_'shelf'"      "Development_of_sandbars_on_a_high_energy_shelf"
1644.3 "6407_9-1"  21.8600 -999.25   -999.25   -999.25 100.0000      0.0      0.0 -999.25 -999.25 "Central_sandbar_on_open_marine_'shelf'"      "Development_of_sandbars_on_a_high_energy_shelf"
1644.4 "6407_9-1"  21.7100 -999.25   -999.25   -999.25 100.0000      0.0      0.0 -999.25 -999.25 "Central_sandbar_on_open_marine_'shelf'"      "Development_of_sandbars_on_a_high_energy_shelf"
1644.5 "6407_9-1"  21.5600 -999.25   -999.25   -999.25 100.0000      0.0      0.0 -999.25 -999.25 "Central_sandbar_on_open_marine_'shelf'"      "Development_of_sandbars_on_a_high_energy_shelf"
1644.6 "6407_9-1"  21.4000 -999.25   -999.25   -999.25 100.0000      0.0      0.0 -999.25 -999.25 "Central_sandbar_on_open_marine_'shelf'"      "Development_of_sandbars_on_a_high_energy_shelf"
1644.7 "6407_9-1"  21.2500 -999.25   -999.25   -999.25 100.0000      0.0      0.0 -999.25 -999.25 "Central_sandbar_on_open_marine_'shelf'"      "Development_of_sandbars_on_a_high_energy_shelf"
1644.8 "6407_9-1"  21.0900 -999.25   -999.25   -999.25 100.0000      0.0      0.0 -999.25 -999.25 "Central_sandbar_on_open_marine_'shelf'"      "Development_of_sandbars_on_a_high_energy_shelf"
1644.9 "6407_9-1"  20.6500 -999.25   -999.25   -999.25 100.0000      0.0      0.0 -999.25 -999.25 "Central_sandbar_on_open_marine_'shelf'"      "Development_of_sandbars_on_a_high_energy_shelf"
1645.0 "6407_9-1"  20.2200 -999.25   -999.25   -999.25 100.0000      0.0      0.0 -999.25 -999.25 "Central_sandbar_on_open_marine_'shelf'"      "Development_of_sandbars_on_a_high_energy_shelf"
1645.1 "6407_9-1"  19.7800 "Sandstone" "Limestone" -999.25  96.0000  4.00000      0.0 "c"     "c/vc"  "Offshore_Trangression"                       "Development_of_sandbars_on_a_high_energy_shelf"
1645.2 "6407_9-1"  19.3500 "Sandstone" "Limestone" -999.25  96.0000  4.00000      0.0 "c"     "c/vc"  "Offshore_Trangression"                       "Development_of_sandbars_on_a_high_energy_shelf"
1645.3 "6407_9-1"  18.9200 "Sandstone" "Limestone" -999.25  96.0000  4.00000      0.0 "c"     "c/vc"  "Offshore_Trangression"                       "Development_of_sandbars_on_a_high_energy_shelf"
1645.4 "6407_9-1"  18.7300 "Sandstone" "Limestone" -999.25  96.0000  4.00000      0.0 "c"     "c/vc"  "Offshore_Trangression"                       "Development_of_sandbars_on_a_high_energy_shelf"
1645.5 "6407_9-1"  19.5400 "Sandstone" "Limestone" -999.25  96.0000  4.00000      0.0 "c"     "c/vc"  "Offshore_Trangression"                       "Development_of_sandbars_on_a_high_energy_shelf"
1645.6 "6407_9-1"  20.3500 "Sandstone" "Limestone" -999.25  96.0000  4.00000      0.0 "c"     "c/vc"  "Offshore_Trangression"                       "Development_of_sandbars_on_a_high_energy_shelf"
1645.7 "6407_9-1"  21.1500 "Sandstone" "Limestone" -999.25  96.0000  4.00000      0.0 "c"     "c/vc"  "Offshore_Trangression"                       "Development_of_sandbars_on_a_high_energy_shelf"
1645.8 "6407_9-1"  21.9600 "Sandstone" "Limestone" -999.25  96.0000  4.00000      0.0 "c"     "c/vc"  "Offshore_Trangression"                       "Development_of_sandbars_on_a_high_energy_shelf"
1645.9 "6407_9-1"  22.7700 "Sandstone" "Limestone" -999.25  96.0000  4.00000      0.0 "c"     "c/vc"  "Offshore_Trangression"                       "Development_of_sandbars_on_a_high_energy_shelf"
1646.0 "6407_9-1"  22.3300 "Sandstone" "Limestone" -999.25  96.0000  4.00000      0.0 "c"     "c/vc"  "Offshore_Trangression"                       "Development_of_sandbars_on_a_high_energy_shelf"
1646.1 "6407_9-1"  21.7100 "Sandstone" "Limestone" -999.25  96.0000  4.00000      0.0 "c"     "c/vc"  "Offshore_Trangression"                       "Development_of_sandbars_on_a_high_energy_shelf"
1646.2 "6407_9-1"  21.1000 "Sandstone" "Limestone" -999.25  96.0000  4.00000      0.0 "c"     "c/vc"  "Offshore_Trangression"                       "Development_of_sandbars_on_a_high_energy_shelf"
1646.3 "6407_9-1"  20.4800 "Sandstone" "Limestone" -999.25  96.0000  4.00000      0.0 "c"     "c/vc"  "Offshore_Trangression"                       "Development_of_sandbars_on_a_high_energy_shelf"
1646.4 "6407_9-1"  19.8600 "Sandstone" "Limestone" -999.25  96.0000  4.00000      0.0 "c"     "c/vc"  "Offshore_Trangression"                       "Development_of_sandbars_on_a_high_energy_shelf"
1646.5 "6407_9-1"  19.8400 "Sandstone" "Limestone" -999.25  96.0000  4.00000      0.0 "c"     "c/vc"  "Offshore_Trangression"                       "Development_of_sandbars_on_a_high_energy_shelf"
1646.6 "6407_9-1"  20.3000 "Sandstone" "Limestone" -999.25  96.0000  4.00000      0.0 "c"     "c/vc"  "Offshore_Trangression"                       "Development_of_sandbars_on_a_high_energy_shelf"
1646.7 "6407_9-1"  20.7700 "Sandstone" "Limestone" -999.25  96.0000  4.00000      0.0 "c"     "c/vc"  "Offshore_Trangression"                       "Development_of_sandbars_on_a_high_energy_shelf"
1646.8 "6407_9-1"  21.2300 "Sandstone" "Limestone" -999.25  96.0000  4.00000      0.0 "c"     "c/vc"  "Offshore_Trangression"                       "Development_of_sandbars_on_a_high_energy_shelf"
1646.9 "6407_9-1"  21.7000 "Sandstone" "Limestone" -999.25  96.0000  4.00000      0.0 "c"     "c/vc"  "Offshore_Trangression"                       "Development_of_sandbars_on_a_high_energy_shelf"
1647.0 "6407_9-1"  22.1700 "Sandstone" "Limestone" -999.25  96.0000  4.00000      0.0 "c"     "c/vc"  "Offshore_Trangression"                       "Development_of_sandbars_on_a_high_energy_shelf"
1647.1 "6407_9-1"  22.6300 "Sandstone" "Limestone" -999.25  96.0000  4.00000      0.0 "c"     "c/vc"  "Offshore_Trangression"                       "Development_of_sandbars_on_a_high_energy_shelf"
1647.2 "6407_9-1"  23.1000 "Sandstone" "Limestone" -999.25  96.0000  4.00000      0.0 "c"     "c/vc"  "Offshore_Trangression"                       "Development_of_sandbars_on_a_high_energy_shelf"
1647.3 "6407_9-1"  23.1200 "Sandstone" "Limestone" -999.25  96.0000  4.00000      0.0 "c"     "c/vc"  "Offshore_Trangression"                       "Development_of_sandbars_on_a_high_energy_shelf"
1647.4 "6407_9-1"  23.1200 "Sandstone" "Limestone" -999.25  96.0000  4.00000      0.0 "c"     "c/vc"  "Offshore_Trangression"                       "Development_of_sandbars_on_a_high_energy_shelf"
