~Version
VERS  .                                 3.0 : CWLS LAS ASCII Standard - Version 3.0
WRAP  . NO                                  : One line per depth step
DLM   . SPACE                               : Column data section delimiter
SOURCE. Converted to LAS by Log Studio 4.76 : GeoProvider

~Well
STRT.         1631.0 : Start depth
STOP.         1683.0 : Stop depth
STEP.              1 : Step
NULL.        -999.25 : No-value
COMP.                : Company
WELL. 6407/9-1       : Well
FLD .                : Field
LOC .                : Location
LATI.                : Latitude
LONG.                : Longitude
GDAT.                : Geodetic datum
CNTY.                : County
STAT.                : State
CTRY.                : Country
SRVC. GeoProvider AS : Service company
DATE.                : Date
API .                : API number
RUN .                : Run number

~Parameters
WellboreName.  : Wellbore name
RigName     .  : Rig name
StartDate   .  : Start date

~Curves
DEPTH.m            .  : null {F}Depth mMD
Hole_ID.-          .  : null {S}Hole ID
GR.API             .  : null {F}Gamma Ray
Lithology1.-       .  : null {S}Lithology 1
Lithology2.-       .  : null {S}Lithology 2
Lithology3.-       .  : null {S}Lithology 3
Lithology1.%       .  : null {F}Lithology 1 percentage
Lithology2.%       .  : null {F}Lithology 2 percentage
Lithology3.%       .  : null {F}Lithology 3 percentage
Grain_size_Top.-   .  : null {S}Grain size at the top 
Grain_size_Base.-  .  : null {S}Grain size at the bottom
Sub_Environment.-  .  : null {S}Sub Environment
Gross_Environment.-.  : null {S}Gross Environment

~Ascii
1631.0 "6407_9-1"  20.4800 "Sandstone" -999.25   -999.25 100.0000      0.0      0.0 "c/vc"  "c/vc"  "Central_sandbar_on_open_marine_'shelf'"      "Development_of_sandbars_on_a_high_energy_shelf"
1631.1 "6407_9-1"  21.0300 "Sandstone" -999.25   -999.25 100.0000      0.0      0.0 "c/vc"  "c/vc"  "Central_sandbar_on_open_marine_'shelf'"      "Development_of_sandbars_on_a_high_energy_shelf"
1631.2 "6407_9-1"  21.5800 "Sandstone" -999.25   -999.25 100.0000      0.0      0.0 "c/vc"  "c/vc"  "Central_sandbar_on_open_marine_'shelf'"      "Development_of_sandbars_on_a_high_energy_shelf"
1631.3 "6407_9-1"  21.8600 "Sandstone" -999.25   -999.25 100.0000      0.0      0.0 "c/vc"  "c/vc"  "Central_sandbar_on_open_marine_'shelf'"      "Development_of_sandbars_on_a_high_energy_shelf"
1631.4 "6407_9-1"  22.1300 "Sandstone" -999.25   -999.25 100.0000      0.0      0.0 "c/vc"  "c/vc"  "Central_sandbar_on_open_marine_'shelf'"      "Development_of_sandbars_on_a_high_energy_shelf"
1631.5 "6407_9-1"  22.3900 "Sandstone" -999.25   -999.25 100.0000      0.0      0.0 "c/vc"  "c/vc"  "Central_sandbar_on_open_marine_'shelf'"      "Development_of_sandbars_on_a_high_energy_shelf"
1631.6 "6407_9-1"  22.5400 "Sandstone" -999.25   -999.25 100.0000      0.0      0.0 "c/vc"  "c/vc"  "Central_sandbar_on_open_marine_'shelf'"      "Development_of_sandbars_on_a_high_energy_shelf"
1631.7 "6407_9-1"  21.9700 "Sandstone" -999.25   -999.25 100.0000      0.0      0.0 "c/vc"  "c/vc"  "Central_sandbar_on_open_marine_'shelf'"      "Development_of_sandbars_on_a_high_energy_shelf"
1631.8 "6407_9-1"  21.4000 "Sandstone" -999.25   -999.25 100.0000      0.0      0.0 "c/vc"  "c/vc"  "Central_sandbar_on_open_marine_'shelf'"      "Development_of_sandbars_on_a_high_energy_shelf"
1631.9 "6407_9-1"  20.8200 "Sandstone" -999.25   -999.25 100.0000      0.0      0.0 "c/vc"  "c/vc"  "Central_sandbar_on_open_marine_'shelf'"      "Development_of_sandbars_on_a_high_energy_shelf"
1632.0 "6407_9-1"  20.2500 "Sandstone" -999.25   -999.25 100.0000      0.0      0.0 "c/vc"  "c/vc"  "Central_sandbar_on_open_marine_'shelf'"      "Development_of_sandbars_on_a_high_energy_shelf"
1632.1 "6407_9-1"  19.6800 "Sandstone" -999.25   -999.25 100.0000      0.0      0.0 "c/vc"  "c/vc"  "Central_sandbar_on_open_marine_'shelf'"      "Development_of_sandbars_on_a_high_energy_shelf"
1632.2 "6407_9-1"  19.1100 "Sandstone" -999.25   -999.25 100.0000      0.0      0.0 "c/vc"  "c/vc"  "Central_sandbar_on_open_marine_'shelf'"      "Development_of_sandbars_on_a_high_energy_shelf"
1632.3 "6407_9-1"  18.5400 "Sandstone" -999.25   -999.25 100.0000      0.0      0.0 "c/vc"  "c/vc"  "Central_sandbar_on_open_marine_'shelf'"      "Development_of_sandbars_on_a_high_energy_shelf"
1632.4 "6407_9-1"  17.9700 "Sandstone" -999.25   -999.25 100.0000      0.0      0.0 "c/vc"  "c/vc"  "Central_sandbar_on_open_marine_'shelf'"      "Development_of_sandbars_on_a_high_energy_shelf"
1632.5 "6407_9-1"  17.6000 "Sandstone" -999.25   -999.25 100.0000      0.0      0.0 "c/vc"  "c/vc"  "Central_sandbar_on_open_marine_'shelf'"      "Development_of_sandbars_on_a_high_energy_shelf"
1632.6 "6407_9-1"  17.7400 "Sandstone" -999.25   -999.25 100.0000      0.0      0.0 "c/vc"  "c/vc"  "Central_sandbar_on_open_marine_'shelf'"      "Development_of_sandbars_on_a_high_energy_shelf"
1632.7 "6407_9-1"  17.8800 "Sandstone" -999.25   -999.25 100.0000      0.0      0.0 "c/vc"  "c/vc"  "Central_sandbar_on_open_marine_'shelf'"      "Development_of_sandbars_on_a_high_energy_shelf"
1632.8 "6407_9-1"  18.0200 "Sandstone" -999.25   -999.25 100.0000      0.0      0.0 "c/vc"  "c/vc"  "Central_sandbar_on_open_marine_'shelf'"      "Development_of_sandbars_on_a_high_energy_shelf"
1632.9 "6407_9-1"  18.1700 "Sandstone" -999.25   -999.25 100.0000      0.0      0.0 "c/vc"  "c/vc"  "Central_sandbar_on_open_marine_'shelf'"      "Development_of_sandbars_on_a_high_energy_shelf"
1633.0 "6407_9-1"  18.3100 "Sandstone" -999.25   -999.25 100.0000      0.0      0.0 "c/vc"  "c/vc"  "Central_sandbar_on_open_marine_'shelf'"      "Development_of_sandbars_on_a_high_energy_shelf"
1633.1 "6407_9-1"  18.4500 "Sandstone" -999.25   -999.25 100.0000      0.0      0.0 "c/vc"  "c/vc"  "Central_sandbar_on_open_marine_'shelf'"      "Development_of_sandbars_on_a_high_energy_shelf"
1633.2 "6407_9-1"  18.5900 "Sandstone" -999.25   -999.25 100.0000      0.0      0.0 "c/vc"  "c/vc"  "Central_sandbar_on_open_marine_'shelf'"      "Development_of_sandbars_on_a_high_energy_shelf"
1633.3 "6407_9-1"  18.7400 "Sandstone" -999.25   -999.25 100.0000      0.0      0.0 "c/vc"  "c/vc"  "Central_sandbar_on_open_marine_'shelf'"      "Development_of_sandbars_on_a_high_energy_shelf"
1633.4 "6407_9-1"  18.8800 "Sandstone" -999.25   -999.25 100.0000      0.0      0.0 "c/vc"  "c/vc"  "Central_sandbar_on_open_marine_'shelf'"      "Development_of_sandbars_on_a_high_energy_shelf"
1633.5 "6407_9-1"  19.0200 "Sandstone" -999.25   -999.25 100.0000      0.0      0.0 "c/vc"  "c/vc"  "Central_sandbar_on_open_marine_'shelf'"      "Development_of_sandbars_on_a_high_energy_shelf"
1633.6 "6407_9-1"  19.4800 "Sandstone" -999.25   -999.25 100.0000      0.0      0.0 "c/vc"  "c/vc"  "Central_sandbar_on_open_marine_'shelf'"      "Development_of_sandbars_on_a_high_energy_shelf"
1633.7 "6407_9-1"  20.1300 "Sandstone" -999.25   -999.25 100.0000      0.0      0.0 "c/vc"  "c/vc"  "Central_sandbar_on_open_marine_'shelf'"      "Development_of_sandbars_on_a_high_energy_shelf"
1633.8 "6407_9-1"  20.7800 "Sandstone" -999.25   -999.25 100.0000      0.0      0.0 "c/vc"  "c/vc"  "Central_sandbar_on_open_marine_'shelf'"      "Development_of_sandbars_on_a_high_energy_shelf"
1633.9 "6407_9-1"  21.4300 "Sandstone" -999.25   -999.25 100.0000      0.0      0.0 "c/vc"  "c/vc"  "Central_sandbar_on_open_marine_'shelf'"      "Development_of_sandbars_on_a_high_energy_shelf"
1634.0 "6407_9-1"  22.0800 "Sandstone" -999.25   -999.25 100.0000      0.0      0.0 "c/vc"  "c/vc"  "Central_sandbar_on_open_marine_'shelf'"      "Development_of_sandbars_on_a_high_energy_shelf"
1634.1 "6407_9-1"  22.7300 "Sandstone" -999.25   -999.25 100.0000      0.0      0.0 "c/vc"  "c/vc"  "Central_sandbar_on_open_marine_'shelf'"      "Development_of_sandbars_on_a_high_energy_shelf"
1634.2 "6407_9-1"  22.3700 "Sandstone" -999.25   -999.25 100.0000      0.0      0.0 "c/vc"  "c/vc"  "Central_sandbar_on_open_marine_'shelf'"      "Development_of_sandbars_on_a_high_energy_shelf"
1634.3 "6407_9-1"  21.7400 "Sandstone" -999.25   -999.25 100.0000      0.0      0.0 "c/vc"  "c/vc"  "Central_sandbar_on_open_marine_'shelf'"      "Development_of_sandbars_on_a_high_energy_shelf"
1634.4 "6407_9-1"  21.1000 "Sandstone" -999.25   -999.25 100.0000      0.0      0.0 "c/vc"  "c/vc"  "Central_sandbar_on_open_marine_'shelf'"      "Development_of_sandbars_on_a_high_energy_shelf"
1634.5 "6407_9-1"  20.4700 "Sandstone" -999.25   -999.25 100.0000      0.0      0.0 "c/vc"  "c/vc"  "Central_sandbar_on_open_marine_'shelf'"      "Development_of_sandbars_on_a_high_energy_shelf"
1634.6 "6407_9-1"  19.8300 "Sandstone" -999.25   -999.25 100.0000      0.0      0.0 "c/vc"  "c/vc"  "Central_sandbar_on_open_marine_'shelf'"      "Development_of_sandbars_on_a_high_energy_shelf"
1634.7 "6407_9-1"  19.3800 "Sandstone" -999.25   -999.25 100.0000      0.0      0.0 "c/vc"  "c/vc"  "Central_sandbar_on_open_marine_'shelf'"      "Development_of_sandbars_on_a_high_energy_shelf"
1634.8 "6407_9-1"  19.6300 "Sandstone" -999.25   -999.25 100.0000      0.0      0.0 "c/vc"  "c/vc"  "Central_sandbar_on_open_marine_'shelf'"      "Development_of_sandbars_on_a_high_energy_shelf"
1634.9 "6407_9-1"  19.8800 "Sandstone" -999.25   -999.25 100.0000      0.0      0.0 "c/vc"  "c/vc"  "Central_sandbar_on_open_marine_'shelf'"      "Development_of_sandbars_on_a_high_energy_shelf"
1635.0 "6407_9-1"  20.1300 "Sandstone" -999.25   -999.25 100.0000      0.0      0.0 "c/vc"  "c/vc"  "Central_sandbar_on_open_marine_'shelf'"      "Development_of_sandbars_on_a_high_energy_shelf"
1635.1 "6407_9-1"  20.3800 "Sandstone" -999.25   -999.25 100.0000      0.0      0.0 "c/vc"  "c/vc"  "Central_sandbar_on_open_marine_'shelf'"      "Development_of_sandbars_on_a_high_energy_shelf"
