~Version
VERS  .                                 3.0 : CWLS LAS ASCII Standard - Version 3.0
WRAP  . NO                                  : One line per depth step
DLM   . SPACE                               : Column data section delimiter
SOURCE. Converted to LAS by Log Studio 4.76 : GeoProvider

~Well
STRT.         1631.0 : Start depth
STOP.         1683.0 : Stop depth
STEP.              1 : Step
NULL.        -999.25 : No-value
COMP.                : Company
WELL. 6407/9-1       : Well
FLD .                : Field
LOC .                : Location
LATI.                : Latitude
LONG.                : Longitude
GDAT.                : Geodetic datum
CNTY.                : County
STAT.                : State
CTRY.                : Country
SRVC. GeoProvider AS : Service company
DATE.                : Date
API .                : API number
RUN .                : Run number

~Parameters
WellboreName.  : Wellbore name
RigName     .  : Rig name
StartDate   .  : Start date

~Curves
DEPTH.m            .  : null {F}Depth mMD
Hole_ID.-          .  : null {S}Hole ID
GR.API             .  : null {F}Gamma Ray
Lithology1.-       .  : null {S}Lithology 1
Lithology2.-       .  : null {S}Lithology 2
Lithology3.-       .  : null {S}Lithology 3
Lithology1.%       .  : null {F}Lithology 1 percentage
Lithology2.%       .  : null {F}Lithology 2 percentage
Lithology3.%       .  : null {F}Lithology 3 percentage
Grain_size_Top.-   .  : null {S}Grain size at the top 
Grain_size_Base.-  .  : null {S}Grain size at the bottom
Sub_Environment.-  .  : null {S}Sub Environment
Gross_Environment.-.  : null {S}Gross Environment

~Ascii
# ...
1664.0 "6407_9-1"  75.0600 "Sandstone" "Limestone" -999.25  93.0000  7.00000      0.0 "vf/f"  "f/m"   "Marginal_sandbar_on_open_marine_'shelf'"     "Development_of_sandbars_on_a_high_energy_shelf"
1664.1 "6407_9-1"  75.6500 "Sandstone" "Limestone" -999.25  93.0000  7.00000      0.0 "vf/f"  "f/m"   "Marginal_sandbar_on_open_marine_'shelf'"     "Development_of_sandbars_on_a_high_energy_shelf"
1664.2 "6407_9-1"  77.2500 "Sandstone" "Limestone" -999.25  93.0000  7.00000      0.0 "vf/f"  "f/m"   "Marginal_sandbar_on_open_marine_'shelf'"     "Development_of_sandbars_on_a_high_energy_shelf"
1664.3 "6407_9-1"  78.8500 "Sandstone" "Limestone" -999.25  93.0000  7.00000      0.0 "vf/f"  "f/m"   "Marginal_sandbar_on_open_marine_'shelf'"     "Development_of_sandbars_on_a_high_energy_shelf"
1664.4 "6407_9-1"  80.5500 "Sandstone" "Limestone" -999.25  93.0000  7.00000      0.0 "vf/f"  "f/m"   "Marginal_sandbar_on_open_marine_'shelf'"     "Development_of_sandbars_on_a_high_energy_shelf"
1664.5 "6407_9-1"  82.2400 "Sandstone" "Limestone" -999.25  93.0000  7.00000      0.0 "vf/f"  "f/m"   "Marginal_sandbar_on_open_marine_'shelf'"     "Development_of_sandbars_on_a_high_energy_shelf"
1664.6 "6407_9-1"  83.9400 "Sandstone" "Limestone" -999.25  93.0000  7.00000      0.0 "vf/f"  "f/m"   "Marginal_sandbar_on_open_marine_'shelf'"     "Development_of_sandbars_on_a_high_energy_shelf"
1664.7 "6407_9-1"  85.6400 "Sandstone" "Limestone" -999.25  93.0000  7.00000      0.0 "vf/f"  "f/m"   "Marginal_sandbar_on_open_marine_'shelf'"     "Development_of_sandbars_on_a_high_energy_shelf"
1664.8 "6407_9-1"  87.3300 "Sandstone" "Limestone" -999.25  93.0000  7.00000      0.0 "vf/f"  "f/m"   "Marginal_sandbar_on_open_marine_'shelf'"     "Development_of_sandbars_on_a_high_energy_shelf"
1664.9 "6407_9-1"  87.8500 "Sandstone" "Limestone" -999.25  93.0000  7.00000      0.0 "vf/f"  "f/m"   "Marginal_sandbar_on_open_marine_'shelf'"     "Development_of_sandbars_on_a_high_energy_shelf"
1665.0 "6407_9-1"  88.3100 "Sandstone" "Limestone" -999.25  93.0000  7.00000      0.0 "vf/f"  "f/m"   "Marginal_sandbar_on_open_marine_'shelf'"     "Development_of_sandbars_on_a_high_energy_shelf"
1665.1 "6407_9-1"  88.7700 "Sandstone" "Limestone" -999.25  93.0000  7.00000      0.0 "vf/f"  "f/m"   "Marginal_sandbar_on_open_marine_'shelf'"     "Development_of_sandbars_on_a_high_energy_shelf"
1665.2 "6407_9-1"  89.2400 "Sandstone" "Limestone" -999.25  93.0000  7.00000      0.0 "vf/f"  "f/m"   "Marginal_sandbar_on_open_marine_'shelf'"     "Development_of_sandbars_on_a_high_energy_shelf"
1665.3 "6407_9-1"  89.7000 "Sandstone" "Limestone" -999.25  93.0000  7.00000      0.0 "vf/f"  "f/m"   "Marginal_sandbar_on_open_marine_'shelf'"     "Development_of_sandbars_on_a_high_energy_shelf"
1665.4 "6407_9-1"  90.1600 "Sandstone" "Limestone" -999.25  93.0000  7.00000      0.0 "vf/f"  "f/m"   "Marginal_sandbar_on_open_marine_'shelf'"     "Development_of_sandbars_on_a_high_energy_shelf"
1665.5 "6407_9-1"  90.6300 "Sandstone" "Limestone" -999.25  93.0000  7.00000      0.0 "vf/f"  "f/m"   "Marginal_sandbar_on_open_marine_'shelf'"     "Development_of_sandbars_on_a_high_energy_shelf"
1665.6 "6407_9-1"  91.3700 "Sandstone" "Limestone" -999.25  93.0000  7.00000      0.0 "vf/f"  "f/m"   "Marginal_sandbar_on_open_marine_'shelf'"     "Development_of_sandbars_on_a_high_energy_shelf"
1665.7 "6407_9-1"  92.1600 "Sandstone" "Limestone" -999.25  93.0000  7.00000      0.0 "vf/f"  "f/m"   "Marginal_sandbar_on_open_marine_'shelf'"     "Development_of_sandbars_on_a_high_energy_shelf"
1665.8 "6407_9-1"  92.9600 "Sandstone" "Limestone" -999.25  93.0000  7.00000      0.0 "vf/f"  "f/m"   "Marginal_sandbar_on_open_marine_'shelf'"     "Development_of_sandbars_on_a_high_energy_shelf"
1665.9 "6407_9-1"  93.7500 "Sandstone" "Limestone" -999.25  93.0000  7.00000      0.0 "vf/f"  "f/m"   "Marginal_sandbar_on_open_marine_'shelf'"     "Development_of_sandbars_on_a_high_energy_shelf"
1666.0 "6407_9-1"  94.5400 "Sandstone" "Limestone" -999.25  93.0000  7.00000      0.0 "vf/f"  "f/m"   "Marginal_sandbar_on_open_marine_'shelf'"     "Development_of_sandbars_on_a_high_energy_shelf"
1666.1 "6407_9-1"  95.3300 "Sandstone" "Limestone" -999.25  93.0000  7.00000      0.0 "vf/f"  "f/m"   "Marginal_sandbar_on_open_marine_'shelf'"     "Development_of_sandbars_on_a_high_energy_shelf"
1666.2 "6407_9-1"  96.1200 "Sandstone" "Limestone" -999.25  93.0000  7.00000      0.0 "vf/f"  "f/m"   "Marginal_sandbar_on_open_marine_'shelf'"     "Development_of_sandbars_on_a_high_energy_shelf"
1666.3 "6407_9-1"  96.1100 "Sandstone" "Limestone" -999.25  93.0000  7.00000      0.0 "vf/f"  "f/m"   "Marginal_sandbar_on_open_marine_'shelf'"     "Development_of_sandbars_on_a_high_energy_shelf"
1666.4 "6407_9-1"  95.3100 "Sandstone" "Limestone" -999.25  93.0000  7.00000      0.0 "vf/f"  "f/m"   "Marginal_sandbar_on_open_marine_'shelf'"     "Development_of_sandbars_on_a_high_energy_shelf"
1666.5 "6407_9-1"  94.5100 "Sandstone" "Limestone" -999.25  93.0000  7.00000      0.0 "vf/f"  "f/m"   "Marginal_sandbar_on_open_marine_'shelf'"     "Development_of_sandbars_on_a_high_energy_shelf"
1666.6 "6407_9-1"  93.7200 "Sandstone" "Limestone" -999.25  93.0000  7.00000      0.0 "vf/f"  "f/m"   "Marginal_sandbar_on_open_marine_'shelf'"     "Development_of_sandbars_on_a_high_energy_shelf"
1666.7 "6407_9-1"  93.0600 "Sandstone" "Limestone" -999.25  93.0000  7.00000      0.0 "vf/f"  "f/m"   "Marginal_sandbar_on_open_marine_'shelf'"     "Development_of_sandbars_on_a_high_energy_shelf"
1666.8 "6407_9-1"  92.4600 "Sandstone" "Limestone" -999.25  93.0000  7.00000      0.0 "vf/f"  "f/m"   "Marginal_sandbar_on_open_marine_'shelf'"     "Development_of_sandbars_on_a_high_energy_shelf"
1666.9 "6407_9-1"  91.8600 "Sandstone" "Limestone" -999.25  93.0000  7.00000      0.0 "vf/f"  "f/m"   "Marginal_sandbar_on_open_marine_'shelf'"     "Development_of_sandbars_on_a_high_energy_shelf"
1667.0 "6407_9-1"  91.2600 "Sandstone" "Limestone" -999.25  93.0000  7.00000      0.0 "vf/f"  "f/m"   "Marginal_sandbar_on_open_marine_'shelf'"     "Development_of_sandbars_on_a_high_energy_shelf"
1667.1 "6407_9-1"  94.4600 "Sandstone" "Limestone" -999.25  93.0000  7.00000      0.0 "vf/f"  "f/m"   "Marginal_sandbar_on_open_marine_'shelf'"     "Development_of_sandbars_on_a_high_energy_shelf"
1667.2 "6407_9-1"  94.2600 "Sandstone" "Limestone" -999.25  93.0000  7.00000      0.0 "vf/f"  "f/m"   "Marginal_sandbar_on_open_marine_'shelf'"     "Development_of_sandbars_on_a_high_energy_shelf"
1667.3 "6407_9-1"  94.0600 "Sandstone" "Limestone" -999.25  93.0000  7.00000      0.0 "vf/f"  "f/m"   "Marginal_sandbar_on_open_marine_'shelf'"     "Development_of_sandbars_on_a_high_energy_shelf"
1667.4 "6407_9-1"  92.4000 "Sandstone" "Limestone" -999.25  93.0000  7.00000      0.0 "vf/f"  "f/m"   "Marginal_sandbar_on_open_marine_'shelf'"     "Development_of_sandbars_on_a_high_energy_shelf"
1667.5 "6407_9-1"  89.7700 "Sandstone" "Limestone" -999.25  93.0000  7.00000      0.0 "vf/f"  "f/m"   "Marginal_sandbar_on_open_marine_'shelf'"     "Development_of_sandbars_on_a_high_energy_shelf"
1667.6 "6407_9-1"  87.1400 "Sandstone" "Limestone" -999.25  93.0000  7.00000      0.0 "vf/f"  "f/m"   "Marginal_sandbar_on_open_marine_'shelf'"     "Development_of_sandbars_on_a_high_energy_shelf"
1667.7 "6407_9-1"  84.5100 "Sandstone" "Limestone" -999.25  93.0000  7.00000      0.0 "vf/f"  "f/m"   "Marginal_sandbar_on_open_marine_'shelf'"     "Development_of_sandbars_on_a_high_energy_shelf"
1667.8 "6407_9-1"  81.8800 "Sandstone" "Limestone" -999.25  93.0000  7.00000      0.0 "vf/f"  "f/m"   "Marginal_sandbar_on_open_marine_'shelf'"     "Development_of_sandbars_on_a_high_energy_shelf"
1667.9 "6407_9-1"  79.3100 "Sandstone" "Limestone" -999.25  93.0000  7.00000      0.0 "vf/f"  "f/m"   "Marginal_sandbar_on_open_marine_'shelf'"     "Development_of_sandbars_on_a_high_energy_shelf"
1668.0 "6407_9-1"  79.5800 "Sandstone" "Limestone" -999.25  93.0000  7.00000      0.0 "vf/f"  "f/m"   "Marginal_sandbar_on_open_marine_'shelf'"     "Development_of_sandbars_on_a_high_energy_shelf"
