~Version
VERS  .                                 3.0 : CWLS LAS ASCII Standard - Version 3.0
WRAP  . NO                                  : One line per depth step
DLM   . SPACE                               : Column data section delimiter
SOURCE. Converted to LAS by Log Studio 4.76 : GeoProvider

~Well
STRT.         1631.0 : Start depth
STOP.         1683.0 : Stop depth
STEP.              1 : Step
NULL.        -999.25 : No-value
COMP.                : Company
WELL. 6407/9-1       : Well
FLD .                : Field
LOC .                : Location
LATI.                : Latitude
LONG.                : Longitude
GDAT.                : Geodetic datum
CNTY.                : County
STAT.                : State
CTRY.                : Country
SRVC. GeoProvider AS : Service company
DATE.                : Date
API .                : API number
RUN .                : Run number

~Parameters
WellboreName.  : Wellbore name
RigName     .  : Rig name
StartDate   .  : Start date

~Curves
DEPTH.m            .  : null {F}Depth mMD
Hole_ID.-          .  : null {S}Hole ID
GR.API             .  : null {F}Gamma Ray
Lithology1.-       .  : null {S}Lithology 1
Lithology2.-       .  : null {S}Lithology 2
Lithology3.-       .  : null {S}Lithology 3
Lithology1.%       .  : null {F}Lithology 1 percentage
Lithology2.%       .  : null {F}Lithology 2 percentage
Lithology3.%       .  : null {F}Lithology 3 percentage
Grain_size_Top.-   .  : null {S}Grain size at the top 
Grain_size_Base.-  .  : null {S}Grain size at the bottom
Sub_Environment.-  .  : null {S}Sub Environment
Gross_Environment.-.  : null {S}Gross Environment

~Ascii
# ...
1659.8 "6407_9-1"  67.7400 "Sandstone" -999.25   -999.25 100.0000      0.0      0.0 "f"     "f/m"   "Marginal_sandbar_on_open_marine_'shelf'"     "Development_of_sandbars_on_a_high_energy_shelf"
1659.9 "6407_9-1"  68.0100 "Sandstone" -999.25   -999.25 100.0000      0.0      0.0 "f"     "f/m"   "Marginal_sandbar_on_open_marine_'shelf'"     "Development_of_sandbars_on_a_high_energy_shelf"
1660.0 "6407_9-1"  68.2800 "Sandstone" -999.25   -999.25 100.0000      0.0      0.0 "f"     "f/m"   "Marginal_sandbar_on_open_marine_'shelf'"     "Development_of_sandbars_on_a_high_energy_shelf"
1660.1 "6407_9-1"  68.5500 "Sandstone" -999.25   -999.25 100.0000      0.0      0.0 "f"     "f/m"   "Marginal_sandbar_on_open_marine_'shelf'"     "Development_of_sandbars_on_a_high_energy_shelf"
1660.2 "6407_9-1"  68.8200 "Sandstone" -999.25   -999.25 100.0000      0.0      0.0 "f"     "f/m"   "Marginal_sandbar_on_open_marine_'shelf'"     "Development_of_sandbars_on_a_high_energy_shelf"
1660.3 "6407_9-1"  69.3300 "Sandstone" -999.25   -999.25 100.0000      0.0      0.0 "f"     "f/m"   "Marginal_sandbar_on_open_marine_'shelf'"     "Development_of_sandbars_on_a_high_energy_shelf"
1660.4 "6407_9-1"  70.0000 "Sandstone" -999.25   -999.25 100.0000      0.0      0.0 "f"     "f/m"   "Marginal_sandbar_on_open_marine_'shelf'"     "Development_of_sandbars_on_a_high_energy_shelf"
1660.5 "6407_9-1"  70.6600 "Sandstone" -999.25   -999.25 100.0000      0.0      0.0 "f"     "f/m"   "Marginal_sandbar_on_open_marine_'shelf'"     "Development_of_sandbars_on_a_high_energy_shelf"
1660.6 "6407_9-1"  71.6100 "Sandstone" -999.25   -999.25 100.0000      0.0      0.0 "f"     "f/m"   "Marginal_sandbar_on_open_marine_'shelf'"     "Development_of_sandbars_on_a_high_energy_shelf"
1660.7 "6407_9-1"  72.7900 "Sandstone" -999.25   -999.25 100.0000      0.0      0.0 "f"     "f/m"   "Marginal_sandbar_on_open_marine_'shelf'"     "Development_of_sandbars_on_a_high_energy_shelf"
1660.8 "6407_9-1"  73.9600 "Sandstone" -999.25   -999.25 100.0000      0.0      0.0 "f"     "f/m"   "Marginal_sandbar_on_open_marine_'shelf'"     "Development_of_sandbars_on_a_high_energy_shelf"
1660.9 "6407_9-1"  75.1300 "Sandstone" -999.25   -999.25 100.0000      0.0      0.0 "f"     "f/m"   "Marginal_sandbar_on_open_marine_'shelf'"     "Development_of_sandbars_on_a_high_energy_shelf"
1661.0 "6407_9-1"  76.0200 "Sandstone" -999.25   -999.25 100.0000      0.0      0.0 "f"     "f/m"   "Marginal_sandbar_on_open_marine_'shelf'"     "Development_of_sandbars_on_a_high_energy_shelf"
1661.1 "6407_9-1"  76.0200 "Sandstone" -999.25   -999.25 100.0000      0.0      0.0 "f"     "f/m"   "Marginal_sandbar_on_open_marine_'shelf'"     "Development_of_sandbars_on_a_high_energy_shelf"
1661.2 "6407_9-1"  76.0200 "Sandstone" -999.25   -999.25 100.0000      0.0      0.0 "f"     "f/m"   "Marginal_sandbar_on_open_marine_'shelf'"     "Development_of_sandbars_on_a_high_energy_shelf"
1661.3 "6407_9-1"  71.9500 "Sandstone" -999.25   -999.25 100.0000      0.0      0.0 "f"     "f/m"   "Marginal_sandbar_on_open_marine_'shelf'"     "Development_of_sandbars_on_a_high_energy_shelf"
1661.4 "6407_9-1"  67.7400 "Sandstone" -999.25   -999.25 100.0000      0.0      0.0 "f"     "f/m"   "Marginal_sandbar_on_open_marine_'shelf'"     "Development_of_sandbars_on_a_high_energy_shelf"
1661.5 "6407_9-1"  63.5400 -999.25   -999.25   -999.25 100.0000      0.0      0.0 -999.25 -999.25 "Marginal_sandbar_on_open_marine_'shelf'"     "Development_of_sandbars_on_a_high_energy_shelf"
1661.6 "6407_9-1"  60.3600 -999.25   -999.25   -999.25 100.0000      0.0      0.0 -999.25 -999.25 "Marginal_sandbar_on_open_marine_'shelf'"     "Development_of_sandbars_on_a_high_energy_shelf"
1661.7 "6407_9-1"  59.7100 -999.25   -999.25   -999.25 100.0000      0.0      0.0 -999.25 -999.25 "Marginal_sandbar_on_open_marine_'shelf'"     "Development_of_sandbars_on_a_high_energy_shelf"
1661.8 "6407_9-1"  60.7100 -999.25   -999.25   -999.25 100.0000      0.0      0.0 -999.25 -999.25 "Marginal_sandbar_on_open_marine_'shelf'"     "Development_of_sandbars_on_a_high_energy_shelf"
1661.9 "6407_9-1"  60.8300 -999.25   -999.25   -999.25 100.0000      0.0      0.0 -999.25 -999.25 "Marginal_sandbar_on_open_marine_'shelf'"     "Development_of_sandbars_on_a_high_energy_shelf"
1662.0 "6407_9-1"  62.2700 -999.25   -999.25   -999.25 100.0000      0.0      0.0 -999.25 -999.25 "Marginal_sandbar_on_open_marine_'shelf'"     "Development_of_sandbars_on_a_high_energy_shelf"
1662.1 "6407_9-1"  66.2600 -999.25   -999.25   -999.25 100.0000      0.0      0.0 -999.25 -999.25 "Marginal_sandbar_on_open_marine_'shelf'"     "Development_of_sandbars_on_a_high_energy_shelf"
1662.2 "6407_9-1"  70.1600 -999.25   -999.25   -999.25 100.0000      0.0      0.0 -999.25 -999.25 "Marginal_sandbar_on_open_marine_'shelf'"     "Development_of_sandbars_on_a_high_energy_shelf"
1662.3 "6407_9-1"  73.0500 -999.25   -999.25   -999.25 100.0000      0.0      0.0 -999.25 -999.25 "Marginal_sandbar_on_open_marine_'shelf'"     "Development_of_sandbars_on_a_high_energy_shelf"
1662.4 "6407_9-1"  75.9300 -999.25   -999.25   -999.25 100.0000      0.0      0.0 -999.25 -999.25 "Marginal_sandbar_on_open_marine_'shelf'"     "Development_of_sandbars_on_a_high_energy_shelf"
1662.5 "6407_9-1"  78.5700 -999.25   -999.25   -999.25 100.0000      0.0      0.0 -999.25 -999.25 "Marginal_sandbar_on_open_marine_'shelf'"     "Development_of_sandbars_on_a_high_energy_shelf"
1662.6 "6407_9-1"  81.1500 -999.25   -999.25   -999.25 100.0000      0.0      0.0 -999.25 -999.25 "Marginal_sandbar_on_open_marine_'shelf'"     "Development_of_sandbars_on_a_high_energy_shelf"
1662.7 "6407_9-1"  83.7300 -999.25   -999.25   -999.25 100.0000      0.0      0.0 -999.25 -999.25 "Marginal_sandbar_on_open_marine_'shelf'"     "Development_of_sandbars_on_a_high_energy_shelf"
1662.8 "6407_9-1"  85.6200 -999.25   -999.25   -999.25 100.0000      0.0      0.0 -999.25 -999.25 "Marginal_sandbar_on_open_marine_'shelf'"     "Development_of_sandbars_on_a_high_energy_shelf"
1662.9 "6407_9-1"  84.1900 -999.25   -999.25   -999.25 100.0000      0.0      0.0 -999.25 -999.25 "Marginal_sandbar_on_open_marine_'shelf'"     "Development_of_sandbars_on_a_high_energy_shelf"
1663.0 "6407_9-1"  82.7300 -999.25   -999.25   -999.25 100.0000      0.0      0.0 -999.25 -999.25 "Marginal_sandbar_on_open_marine_'shelf'"     "Development_of_sandbars_on_a_high_energy_shelf"
1663.1 "6407_9-1"  81.2700 "Sandstone" "Limestone" -999.25  93.0000  7.00000      0.0 "vf/f"  "f/m"   "Marginal_sandbar_on_open_marine_'shelf'"     "Development_of_sandbars_on_a_high_energy_shelf"
1663.2 "6407_9-1"  78.0500 "Sandstone" "Limestone" -999.25  93.0000  7.00000      0.0 "vf/f"  "f/m"   "Marginal_sandbar_on_open_marine_'shelf'"     "Development_of_sandbars_on_a_high_energy_shelf"
1663.3 "6407_9-1"  76.8900 "Sandstone" "Limestone" -999.25  93.0000  7.00000      0.0 "vf/f"  "f/m"   "Marginal_sandbar_on_open_marine_'shelf'"     "Development_of_sandbars_on_a_high_energy_shelf"
1663.4 "6407_9-1"  77.0700 "Sandstone" "Limestone" -999.25  93.0000  7.00000      0.0 "vf/f"  "f/m"   "Marginal_sandbar_on_open_marine_'shelf'"     "Development_of_sandbars_on_a_high_energy_shelf"
1663.5 "6407_9-1"  77.3600 "Sandstone" "Limestone" -999.25  93.0000  7.00000      0.0 "vf/f"  "f/m"   "Marginal_sandbar_on_open_marine_'shelf'"     "Development_of_sandbars_on_a_high_energy_shelf"
1663.6 "6407_9-1"  77.3900 "Sandstone" "Limestone" -999.25  93.0000  7.00000      0.0 "vf/f"  "f/m"   "Marginal_sandbar_on_open_marine_'shelf'"     "Development_of_sandbars_on_a_high_energy_shelf"
1663.7 "6407_9-1"  77.0200 "Sandstone" "Limestone" -999.25  93.0000  7.00000      0.0 "vf/f"  "f/m"   "Marginal_sandbar_on_open_marine_'shelf'"     "Development_of_sandbars_on_a_high_energy_shelf"
1663.8 "6407_9-1"  76.5200 "Sandstone" "Limestone" -999.25  93.0000  7.00000      0.0 "vf/f"  "f/m"   "Marginal_sandbar_on_open_marine_'shelf'"     "Development_of_sandbars_on_a_high_energy_shelf"
1663.9 "6407_9-1"  75.7900 "Sandstone" "Limestone" -999.25  93.0000  7.00000      0.0 "vf/f"  "f/m"   "Marginal_sandbar_on_open_marine_'shelf'"     "Development_of_sandbars_on_a_high_energy_shelf"
