~Version
VERS  .                                 3.0 : CWLS LAS ASCII Standard - Version 3.0
WRAP  . NO                                  : One line per depth step
DLM   . SPACE                               : Column data section delimiter
SOURCE. Converted to LAS by Log Studio 4.76 : GeoProvider

~Well
STRT.         1631.0 : Start depth
STOP.         1683.0 : Stop depth
STEP.              1 : Step
NULL.        -999.25 : No-value
COMP.                : Company
WELL. 6407/9-1       : Well
FLD .                : Field
LOC .                : Location
LATI.                : Latitude
LONG.                : Longitude
GDAT.                : Geodetic datum
CNTY.                : County
STAT.                : State
CTRY.                : Country
SRVC. GeoProvider AS : Service company
DATE.                : Date
API .                : API number
RUN .                : Run number

~Parameters
WellboreName.  : Wellbore name
RigName     .  : Rig name
StartDate   .  : Start date

~Curves
DEPTH.m            .  : null {F}Depth mMD
Hole_ID.-          .  : null {S}Hole ID
GR.API             .  : null {F}Gamma Ray
Lithology1.-       .  : null {S}Lithology 1
Lithology2.-       .  : null {S}Lithology 2
Lithology3.-       .  : null {S}Lithology 3
Lithology1.%       .  : null {F}Lithology 1 percentage
Lithology2.%       .  : null {F}Lithology 2 percentage
Lithology3.%       .  : null {F}Lithology 3 percentage
Grain_size_Top.-   .  : null {S}Grain size at the top 
Grain_size_Base.-  .  : null {S}Grain size at the bottom
Sub_Environment.-  .  : null {S}Sub Environment
Gross_Environment.-.  : null {S}Gross Environment

~Ascii
# ...
1680.4 "6407_9-1"  82.7600 "Sandstone" "Limestone" -999.25  82.0000 18.00000      0.0 "f"     "f/m"   "Erosion_Upper_shoreface_or_proximal_mouth_bar" "Proximal_delta_front"                        
1680.5 "6407_9-1"  80.0200 "Sandstone" "Limestone" -999.25  82.0000 18.00000      0.0 "f"     "f/m"   "Erosion_Upper_shoreface_or_proximal_mouth_bar" "Proximal_delta_front"                        
1680.6 "6407_9-1"  73.2100 "Sandstone" "Limestone" -999.25  82.0000 18.00000      0.0 "f"     "f/m"   "Erosion_Upper_shoreface_or_proximal_mouth_bar" "Proximal_delta_front"                        
1680.7 "6407_9-1"  64.9700 "Sandstone" "Limestone" -999.25  82.0000 18.00000      0.0 "f"     "f/m"   "Erosion_Upper_shoreface_or_proximal_mouth_bar" "Proximal_delta_front"                        
1680.8 "6407_9-1"  56.7400 "Sandstone" "Limestone" -999.25  82.0000 18.00000      0.0 "f"     "f/m"   "Erosion_Upper_shoreface_or_proximal_mouth_bar" "Proximal_delta_front"                        
1680.9 "6407_9-1"  50.7700 "Sandstone" "Limestone" -999.25  82.0000 18.00000      0.0 "f"     "f/m"   "Erosion_Upper_shoreface_or_proximal_mouth_bar" "Proximal_delta_front"                        
1681.0 "6407_9-1"  46.7200 "Sandstone" "Limestone" -999.25  82.0000 18.00000      0.0 "f"     "f/m"   "Erosion_Upper_shoreface_or_proximal_mouth_bar" "Proximal_delta_front"                        
1681.1 "6407_9-1"  44.4100 "Sandstone" "Limestone" -999.25  82.0000 18.00000      0.0 "f"     "f/m"   "Erosion_Upper_shoreface_or_proximal_mouth_bar" "Proximal_delta_front"                        
1681.2 "6407_9-1"  44.6100 "Sandstone" "Limestone" -999.25  82.0000 18.00000      0.0 "f"     "f/m"   "Erosion_Upper_shoreface_or_proximal_mouth_bar" "Proximal_delta_front"                        
1681.3 "6407_9-1"  44.8100 "Sandstone" "Limestone" -999.25  82.0000 18.00000      0.0 "f"     "f/m"   "Erosion_Upper_shoreface_or_proximal_mouth_bar" "Proximal_delta_front"                        
1681.4 "6407_9-1"  47.0000 "Sandstone" "Limestone" -999.25  82.0000 18.00000      0.0 "f"     "f/m"   "Erosion_Upper_shoreface_or_proximal_mouth_bar" "Proximal_delta_front"                        
1681.5 "6407_9-1"  50.3700 "Sandstone" "Limestone" -999.25  82.0000 18.00000      0.0 "f"     "f/m"   "Erosion_Upper_shoreface_or_proximal_mouth_bar" "Proximal_delta_front"                        
1681.6 "6407_9-1"  51.8100 "Sandstone" "Limestone" -999.25  82.0000 18.00000      0.0 "f"     "f/m"   "Erosion_Upper_shoreface_or_proximal_mouth_bar" "Proximal_delta_front"                        
1681.7 "6407_9-1"  51.9700 "Sandstone" "Limestone" -999.25  82.0000 18.00000      0.0 "f"     "f/m"   "Erosion_Upper_shoreface_or_proximal_mouth_bar" "Proximal_delta_front"                        
1681.8 "6407_9-1"  52.1200 "Sandstone" "Limestone" -999.25  82.0000 18.00000      0.0 "f"     "f/m"   "Erosion_Upper_shoreface_or_proximal_mouth_bar" "Proximal_delta_front"                        
1681.9 "6407_9-1"  51.7900 "Sandstone" "Limestone" -999.25  82.0000 18.00000      0.0 "f"     "f/m"   "Erosion_Upper_shoreface_or_proximal_mouth_bar" "Proximal_delta_front"                        
1682.0 "6407_9-1"  50.3300 "Sandstone" "Limestone" -999.25  82.0000 18.00000      0.0 "f"     "f/m"   "Erosion_Upper_shoreface_or_proximal_mouth_bar" "Proximal_delta_front"                        
1682.1 "6407_9-1"  48.8700 "Sandstone" "Limestone" -999.25  82.0000 18.00000      0.0 "f"     "f/m"   "Erosion_Upper_shoreface_or_proximal_mouth_bar" "Proximal_delta_front"                        
1682.2 "6407_9-1"  47.4000 "Sandstone" "Limestone" -999.25  82.0000 18.00000      0.0 "f"     "f/m"   "Erosion_Upper_shoreface_or_proximal_mouth_bar" "Proximal_delta_front"                        
1682.3 "6407_9-1"  42.7100 "Sandstone" "Limestone" -999.25  82.0000 18.00000      0.0 "f"     "f/m"   "Erosion_Upper_shoreface_or_proximal_mouth_bar" "Proximal_delta_front"                        
1682.4 "6407_9-1"  38.0200 "Sandstone" "Limestone" -999.25  82.0000 18.00000      0.0 "f"     "f/m"   "Erosion_Upper_shoreface_or_proximal_mouth_bar" "Proximal_delta_front"                        
1682.5 "6407_9-1"  33.3300 "Sandstone" "Limestone" -999.25  82.0000 18.00000      0.0 "f"     "f/m"   "Erosion_Upper_shoreface_or_proximal_mouth_bar" "Proximal_delta_front"                        
1682.6 "6407_9-1"  28.6400 "Sandstone" "Limestone" -999.25  82.0000 18.00000      0.0 "f"     "f/m"   "Erosion_Upper_shoreface_or_proximal_mouth_bar" "Proximal_delta_front"                        
1682.7 "6407_9-1"  23.9500 "Sandstone" "Limestone" -999.25  82.0000 18.00000      0.0 "f"     "f/m"   "Erosion_Upper_shoreface_or_proximal_mouth_bar" "Proximal_delta_front"                        
1682.8 "6407_9-1"  23.6300 "Sandstone" "Limestone" -999.25  82.0000 18.00000      0.0 "f"     "f/m"   "Erosion_Upper_shoreface_or_proximal_mouth_bar" "Proximal_delta_front"                        
1682.9 "6407_9-1"  24.1300 "Sandstone" "Limestone" -999.25  82.0000 18.00000      0.0 "f"     "f/m"   "Erosion_Upper_shoreface_or_proximal_mouth_bar" "Proximal_delta_front"                        
1683.0 "6407_9-1"  24.8800 "Sandstone" "Limestone" -999.25  82.0000 18.00000      0.0 "f"     "f/m"   "Erosion_Upper_shoreface_or_proximal_mouth_bar" "Proximal_delta_front"                        
