~Version
VERS  .                                 3.0 : CWLS LAS ASCII Standard - Version 3.0
WRAP  . NO                                  : One line per depth step
DLM   . SPACE                               : Column data section delimiter
SOURCE. Converted to LAS by Log Studio 4.76 : GeoProvider

~Well
STRT.         1631.0 : Start depth
STOP.         1683.0 : Stop depth
STEP.              1 : Step
NULL.        -999.25 : No-value
COMP.                : Company
WELL. 6407/9-1       : Well
FLD .                : Field
LOC .                : Location
LATI.                : Latitude
LONG.                : Longitude
GDAT.                : Geodetic datum
CNTY.                : County
STAT.                : State
CTRY.                : Country
SRVC. GeoProvider AS : Service company
DATE.                : Date
API .                : API number
RUN .                : Run number

~Parameters
WellboreName.  : Wellbore name
RigName     .  : Rig name
StartDate   .  : Start date

~Curves
DEPTH.m            .  : null {F}Depth mMD
Hole_ID.-          .  : null {S}Hole ID
GR.API             .  : null {F}Gamma Ray
Lithology1.-       .  : null {S}Lithology 1
Lithology2.-       .  : null {S}Lithology 2
Lithology3.-       .  : null {S}Lithology 3
Lithology1.%       .  : null {F}Lithology 1 percentage
Lithology2.%       .  : null {F}Lithology 2 percentage
Lithology3.%       .  : null {F}Lithology 3 percentage
Grain_size_Top.-   .  : null {S}Grain size at the top 
Grain_size_Base.-  .  : null {S}Grain size at the bottom
Sub_Environment.-  .  : null {S}Sub Environment
Gross_Environment.-.  : null {S}Gross Environment

~Ascii
# ...
1647.5 "6407_9-1"  23.1200 "Sandstone" "Limestone" -999.25  96.0000  4.00000      0.0 "c"     "c/vc"  "Offshore_Trangression"                       "Development_of_sandbars_on_a_high_energy_shelf"
1647.6 "6407_9-1"  23.1200 "Sandstone" "Limestone" -999.25  96.0000  4.00000      0.0 "c"     "c/vc"  "Offshore_Trangression"                       "Development_of_sandbars_on_a_high_energy_shelf"
1647.7 "6407_9-1"  23.1200 "Sandstone" "Limestone" -999.25  96.0000  4.00000      0.0 "c"     "c/vc"  "Offshore_Trangression"                       "Development_of_sandbars_on_a_high_energy_shelf"
1647.8 "6407_9-1"  23.4300 "Sandstone" "Limestone" -999.25  96.0000  4.00000      0.0 "c"     "c/vc"  "Offshore_Trangression"                       "Development_of_sandbars_on_a_high_energy_shelf"
1647.9 "6407_9-1"  23.9300 "Sandstone" "Limestone" -999.25  96.0000  4.00000      0.0 "c"     "c/vc"  "Offshore_Trangression"                       "Development_of_sandbars_on_a_high_energy_shelf"
1648.0 "6407_9-1"  24.4300 "Sandstone" "Limestone" -999.25  96.0000  4.00000      0.0 "c"     "c/vc"  "Offshore_Trangression"                       "Development_of_sandbars_on_a_high_energy_shelf"
1648.1 "6407_9-1"  24.9300 "Sandstone" "Limestone" -999.25  96.0000  4.00000      0.0 "c"     "c/vc"  "Offshore_Trangression"                       "Development_of_sandbars_on_a_high_energy_shelf"
1648.2 "6407_9-1"  25.4300 "Sandstone" "Limestone" -999.25  96.0000  4.00000      0.0 "c"     "c/vc"  "Offshore_Trangression"                       "Development_of_sandbars_on_a_high_energy_shelf"
1648.3 "6407_9-1"  25.9300 "Sandstone" "Limestone" -999.25  96.0000  4.00000      0.0 "c"     "c/vc"  "Offshore_Trangression"                       "Development_of_sandbars_on_a_high_energy_shelf"
1648.4 "6407_9-1"  26.4300 "Sandstone" "Limestone" -999.25  96.0000  4.00000      0.0 "c"     "c/vc"  "Offshore_Trangression"                       "Development_of_sandbars_on_a_high_energy_shelf"
1648.5 "6407_9-1"  26.9300 "Sandstone" "Limestone" -999.25  96.0000  4.00000      0.0 "c"     "c/vc"  "Offshore_Trangression"                       "Development_of_sandbars_on_a_high_energy_shelf"
1648.6 "6407_9-1"  27.4200 "Sandstone" "Limestone" -999.25  96.0000  4.00000      0.0 "c"     "c/vc"  "Offshore_Trangression"                       "Development_of_sandbars_on_a_high_energy_shelf"
1648.7 "6407_9-1"  27.9200 "Sandstone" "Limestone" -999.25  96.0000  4.00000      0.0 "c"     "c/vc"  "Offshore_Trangression"                       "Development_of_sandbars_on_a_high_energy_shelf"
1648.8 "6407_9-1"  28.2600 "Sandstone" "Limestone" -999.25  96.0000  4.00000      0.0 "c"     "c/vc"  "Offshore_Trangression"                       "Development_of_sandbars_on_a_high_energy_shelf"
1648.9 "6407_9-1"  28.5900 "Sandstone" "Limestone" -999.25  96.0000  4.00000      0.0 "c"     "c/vc"  "Offshore_Trangression"                       "Development_of_sandbars_on_a_high_energy_shelf"
1649.0 "6407_9-1"  28.9200 "Sandstone" "Limestone" -999.25  96.0000  4.00000      0.0 "c"     "c/vc"  "Offshore_Trangression"                       "Development_of_sandbars_on_a_high_energy_shelf"
1649.1 "6407_9-1"  29.2600 "Sandstone" "Limestone" -999.25  96.0000  4.00000      0.0 "c"     "c/vc"  "Offshore_Trangression"                       "Development_of_sandbars_on_a_high_energy_shelf"
1649.2 "6407_9-1"  29.6500 "Sandstone" "Limestone" -999.25  96.0000  4.00000      0.0 "c"     "c/vc"  "Offshore_Trangression"                       "Development_of_sandbars_on_a_high_energy_shelf"
1649.3 "6407_9-1"  30.1100 "Sandstone" "Limestone" -999.25  96.0000  4.00000      0.0 "c"     "c/vc"  "Offshore_Trangression"                       "Development_of_sandbars_on_a_high_energy_shelf"
1649.4 "6407_9-1"  30.5800 "Sandstone" "Limestone" -999.25  96.0000  4.00000      0.0 "c"     "c/vc"  "Offshore_Trangression"                       "Development_of_sandbars_on_a_high_energy_shelf"
1649.5 "6407_9-1"  31.0400 "Sandstone" "Limestone" -999.25  96.0000  4.00000      0.0 "c"     "c/vc"  "Offshore_Trangression"                       "Development_of_sandbars_on_a_high_energy_shelf"
1649.6 "6407_9-1"  31.2000 "Sandstone" "Limestone" -999.25  96.0000  4.00000      0.0 "c"     "c/vc"  "Offshore_Trangression"                       "Development_of_sandbars_on_a_high_energy_shelf"
1649.7 "6407_9-1"  31.1800 "Sandstone" "Limestone" -999.25  96.0000  4.00000      0.0 "c"     "c/vc"  "Offshore_Trangression"                       "Development_of_sandbars_on_a_high_energy_shelf"
1649.8 "6407_9-1"  31.1500 "Sandstone" "Limestone" -999.25  96.0000  4.00000      0.0 "c"     "c/vc"  "Offshore_Trangression"                       "Development_of_sandbars_on_a_high_energy_shelf"
1649.9 "6407_9-1"  31.1200 "Sandstone" "Limestone" -999.25  96.0000  4.00000      0.0 "c"     "c/vc"  "Offshore_Trangression"                       "Development_of_sandbars_on_a_high_energy_shelf"
1650.0 "6407_9-1"  31.0900 "Sandstone" "Limestone" -999.25  96.0000  4.00000      0.0 "c"     "c/vc"  "Erosion"                                     "Development_of_sandbars_on_a_high_energy_shelf"
1650.1 "6407_9-1"  31.0600 "Sandstone" "Limestone" -999.25  96.0000  4.00000      0.0 "c"     "c/vc"  "Erosion"                                     "Development_of_sandbars_on_a_high_energy_shelf"
1650.2 "6407_9-1"  31.0300 "Sandstone" "Limestone" -999.25  96.0000  4.00000      0.0 "c"     "c/vc"  "Erosion"                                     "Development_of_sandbars_on_a_high_energy_shelf"
1650.3 "6407_9-1"  31.0000 "Sandstone" "Limestone" -999.25  96.0000  4.00000      0.0 "c"     "c/vc"  "Erosion"                                     "Development_of_sandbars_on_a_high_energy_shelf"
1650.4 "6407_9-1"  30.9700 "Sandstone" "Limestone" -999.25  96.0000  4.00000      0.0 "c"     "c/vc"  "Erosion"                                     "Development_of_sandbars_on_a_high_energy_shelf"
1650.5 "6407_9-1"  32.0900 "Sandstone" "Limestone" -999.25  96.0000  4.00000      0.0 "c"     "c/vc"  "Erosion"                                     "Development_of_sandbars_on_a_high_energy_shelf"
1650.6 "6407_9-1"  33.2200 "Sandstone" "Limestone" -999.25  96.0000  4.00000      0.0 "c"     "c/vc"  "Erosion"                                     "Development_of_sandbars_on_a_high_energy_shelf"
1650.7 "6407_9-1"  34.3500 "Sandstone" "Limestone" -999.25  96.0000  4.00000      0.0 "c"     "c/vc"  "Erosion"                                     "Development_of_sandbars_on_a_high_energy_shelf"
1650.8 "6407_9-1"  35.2300 "Sandstone" "Limestone" -999.25  96.0000  4.00000      0.0 "c"     "c/vc"  "Erosion"                                     "Development_of_sandbars_on_a_high_energy_shelf"
1650.9 "6407_9-1"  34.9800 "Sandstone" "Limestone" -999.25  96.0000  4.00000      0.0 "c"     "c/vc"  "Erosion"                                     "Development_of_sandbars_on_a_high_energy_shelf"
1651.0 "6407_9-1"  34.7300 "Sandstone" "Limestone" -999.25  96.0000  4.00000      0.0 "c"     "c/vc"  "Erosion"                                     "Development_of_sandbars_on_a_high_energy_shelf"
1651.1 "6407_9-1"  34.4800 "Sandstone" "Limestone" -999.25  96.0000  4.00000      0.0 "c"     "c/vc"  "Erosion"                                     "Development_of_sandbars_on_a_high_energy_shelf"
1651.2 "6407_9-1"  34.2300 "Sandstone" "Limestone" -999.25  96.0000  4.00000      0.0 "c"     "c/vc"  "Erosion"                                     "Development_of_sandbars_on_a_high_energy_shelf"
1651.3 "6407_9-1"  33.9800 "Sandstone" "Limestone" -999.25  96.0000  4.00000      0.0 "c"     "c/vc"  "Erosion"                                     "Development_of_sandbars_on_a_high_energy_shelf"
1651.4 "6407_9-1"  33.7500 "Sandstone" "Limestone" -999.25  96.0000  4.00000      0.0 "c"     "c/vc"  "Erosion"                                     "Development_of_sandbars_on_a_high_energy_shelf"
1651.5 "6407_9-1"  33.5200 "Sandstone" "Limestone" -999.25  96.0000  4.00000      0.0 "c"     "c/vc"  "Erosion"                                     "Development_of_sandbars_on_a_high_energy_shelf"
