~Version
VERS  .                                 3.0 : CWLS LAS ASCII Standard - Version 3.0
WRAP  . NO                                  : One line per depth step
DLM   . SPACE                               : Column data section delimiter
SOURCE. Converted to LAS by Log Studio 4.76 : GeoProvider

~Well
STRT.         1631.0 : Start depth
STOP.         1683.0 : Stop depth
STEP.              1 : Step
NULL.        -999.25 : No-value
COMP.                : Company
WELL. 6407/9-1       : Well
FLD .                : Field
LOC .                : Location
LATI.                : Latitude
LONG.                : Longitude
GDAT.                : Geodetic datum
CNTY.                : County
STAT.                : State
CTRY.                : Country
SRVC. GeoProvider AS : Service company
DATE.                : Date
API .                : API number
RUN .                : Run number

~Parameters
WellboreName.  : Wellbore name
RigName     .  : Rig name
StartDate   .  : Start date

~Curves
DEPTH.m            .  : null {F}Depth mMD
Hole_ID.-          .  : null {S}Hole ID
GR.API             .  : null {F}Gamma Ray
Lithology1.-       .  : null {S}Lithology 1
Lithology2.-       .  : null {S}Lithology 2
Lithology3.-       .  : null {S}Lithology 3
Lithology1.%       .  : null {F}Lithology 1 percentage
Lithology2.%       .  : null {F}Lithology 2 percentage
Lithology3.%       .  : null {F}Lithology 3 percentage
Grain_size_Top.-   .  : null {S}Grain size at the top 
Grain_size_Base.-  .  : null {S}Grain size at the bottom
Sub_Environment.-  .  : null {S}Sub Environment
Gross_Environment.-.  : null {S}Gross Environment

~Ascii
# ...
1639.3 "6407_9-1"  16.8800 "Sandstone" "Limestone" "Coal"   92.0000  4.00000 4.000000 "c/vc"  "c/vc"  "Central_sandbar_on_open_marine_'shelf'"      "Development_of_sandbars_on_a_high_energy_shelf"
1639.4 "6407_9-1"  16.4800 "Sandstone" "Limestone" "Coal"   92.0000  4.00000 4.000000 "c/vc"  "c/vc"  "Central_sandbar_on_open_marine_'shelf'"      "Development_of_sandbars_on_a_high_energy_shelf"
1639.5 "6407_9-1"  16.5600 "Sandstone" "Limestone" "Coal"   92.0000  4.00000 4.000000 "c/vc"  "c/vc"  "Central_sandbar_on_open_marine_'shelf'"      "Development_of_sandbars_on_a_high_energy_shelf"
1639.6 "6407_9-1"  17.0600 "Sandstone" "Limestone" "Coal"   92.0000  4.00000 4.000000 "c/vc"  "c/vc"  "Central_sandbar_on_open_marine_'shelf'"      "Development_of_sandbars_on_a_high_energy_shelf"
1639.7 "6407_9-1"  17.5600 "Sandstone" "Limestone" "Coal"   92.0000  4.00000 4.000000 "c/vc"  "c/vc"  "Central_sandbar_on_open_marine_'shelf'"      "Development_of_sandbars_on_a_high_energy_shelf"
1639.8 "6407_9-1"  18.0600 "Sandstone" "Limestone" "Coal"   92.0000  4.00000 4.000000 "c/vc"  "c/vc"  "Central_sandbar_on_open_marine_'shelf'"      "Development_of_sandbars_on_a_high_energy_shelf"
1639.9 "6407_9-1"  18.5600 "Sandstone" "Limestone" "Coal"   92.0000  4.00000 4.000000 "c/vc"  "c/vc"  "Central_sandbar_on_open_marine_'shelf'"      "Development_of_sandbars_on_a_high_energy_shelf"
1640.0 "6407_9-1"  19.0500 "Sandstone" "Limestone" "Coal"   92.0000  4.00000 4.000000 "c/vc"  "c/vc"  "Central_sandbar_on_open_marine_'shelf'"      "Development_of_sandbars_on_a_high_energy_shelf"
1640.1 "6407_9-1"  19.5500 "Sandstone" "Limestone" "Coal"   92.0000  4.00000 4.000000 "c/vc"  "c/vc"  "Central_sandbar_on_open_marine_'shelf'"      "Development_of_sandbars_on_a_high_energy_shelf"
1640.2 "6407_9-1"  19.4400 "Sandstone" "Limestone" "Coal"   92.0000  4.00000 4.000000 "c/vc"  "c/vc"  "Central_sandbar_on_open_marine_'shelf'"      "Development_of_sandbars_on_a_high_energy_shelf"
1640.3 "6407_9-1"  19.2900 "Sandstone" "Limestone" "Coal"   92.0000  4.00000 4.000000 "c/vc"  "c/vc"  "Central_sandbar_on_open_marine_'shelf'"      "Development_of_sandbars_on_a_high_energy_shelf"
1640.4 "6407_9-1"  19.1400 "Sandstone" "Limestone" "Coal"   92.0000  4.00000 4.000000 "c/vc"  "c/vc"  "Central_sandbar_on_open_marine_'shelf'"      "Development_of_sandbars_on_a_high_energy_shelf"
1640.5 "6407_9-1"  18.9900 "Sandstone" "Limestone" "Coal"   92.0000  4.00000 4.000000 "c/vc"  "c/vc"  "Central_sandbar_on_open_marine_'shelf'"      "Development_of_sandbars_on_a_high_energy_shelf"
1640.6 "6407_9-1"  18.8400 "Sandstone" "Limestone" "Coal"   92.0000  4.00000 4.000000 "c/vc"  "c/vc"  "Central_sandbar_on_open_marine_'shelf'"      "Development_of_sandbars_on_a_high_energy_shelf"
1640.7 "6407_9-1"  19.2000 "Sandstone" "Limestone" "Coal"   92.0000  4.00000 4.000000 "c/vc"  "c/vc"  "Central_sandbar_on_open_marine_'shelf'"      "Development_of_sandbars_on_a_high_energy_shelf"
1640.8 "6407_9-1"  19.6300 "Sandstone" "Limestone" "Coal"   92.0000  4.00000 4.000000 "c/vc"  "c/vc"  "Central_sandbar_on_open_marine_'shelf'"      "Development_of_sandbars_on_a_high_energy_shelf"
1640.9 "6407_9-1"  20.0600 "Sandstone" "Limestone" "Coal"   92.0000  4.00000 4.000000 "c/vc"  "c/vc"  "Central_sandbar_on_open_marine_'shelf'"      "Development_of_sandbars_on_a_high_energy_shelf"
1641.0 "6407_9-1"  20.5000 "Sandstone" "Limestone" "Coal"   92.0000  4.00000 4.000000 "c/vc"  "c/vc"  "Central_sandbar_on_open_marine_'shelf'"      "Development_of_sandbars_on_a_high_energy_shelf"
1641.1 "6407_9-1"  20.9300 "Sandstone" "Limestone" "Coal"   92.0000  4.00000 4.000000 "c/vc"  "c/vc"  "Central_sandbar_on_open_marine_'shelf'"      "Development_of_sandbars_on_a_high_energy_shelf"
1641.2 "6407_9-1"  21.3600 "Sandstone" "Limestone" "Coal"   92.0000  4.00000 4.000000 "c/vc"  "c/vc"  "Central_sandbar_on_open_marine_'shelf'"      "Development_of_sandbars_on_a_high_energy_shelf"
1641.3 "6407_9-1"  21.7900 "Sandstone" "Limestone" "Coal"   92.0000  4.00000 4.000000 "c/vc"  "c/vc"  "Central_sandbar_on_open_marine_'shelf'"      "Development_of_sandbars_on_a_high_energy_shelf"
1641.4 "6407_9-1"  22.0000 "Sandstone" "Limestone" "Coal"   92.0000  4.00000 4.000000 "c/vc"  "c/vc"  "Central_sandbar_on_open_marine_'shelf'"      "Development_of_sandbars_on_a_high_energy_shelf"
1641.5 "6407_9-1"  21.5600 "Sandstone" "Limestone" "Coal"   92.0000  4.00000 4.000000 "c/vc"  "c/vc"  "Central_sandbar_on_open_marine_'shelf'"      "Development_of_sandbars_on_a_high_energy_shelf"
1641.6 "6407_9-1"  21.1300 "Sandstone" "Limestone" "Coal"   92.0000  4.00000 4.000000 "c/vc"  "c/vc"  "Central_sandbar_on_open_marine_'shelf'"      "Development_of_sandbars_on_a_high_energy_shelf"
1641.7 "6407_9-1"  20.7000 "Sandstone" "Limestone" "Coal"   92.0000  4.00000 4.000000 "c/vc"  "c/vc"  "Central_sandbar_on_open_marine_'shelf'"      "Development_of_sandbars_on_a_high_energy_shelf"
1641.8 "6407_9-1"  20.2600 "Sandstone" "Limestone" "Coal"   92.0000  4.00000 4.000000 "c/vc"  "c/vc"  "Central_sandbar_on_open_marine_'shelf'"      "Development_of_sandbars_on_a_high_energy_shelf"
1641.9 "6407_9-1"  19.8300 "Sandstone" "Limestone" "Coal"   92.0000  4.00000 4.000000 "c/vc"  "c/vc"  "Central_sandbar_on_open_marine_'shelf'"      "Development_of_sandbars_on_a_high_energy_shelf"
1642.0 "6407_9-1"  19.9300 "Sandstone" "Limestone" "Coal"   92.0000  4.00000 4.000000 "c/vc"  "c/vc"  "Central_sandbar_on_open_marine_'shelf'"      "Development_of_sandbars_on_a_high_energy_shelf"
1642.1 "6407_9-1"  20.7300 "Sandstone" "Limestone" "Coal"   92.0000  4.00000 4.000000 "c/vc"  "c/vc"  "Central_sandbar_on_open_marine_'shelf'"      "Development_of_sandbars_on_a_high_energy_shelf"
1642.2 "6407_9-1"  21.5200 "Sandstone" "Limestone" "Coal"   92.0000  4.00000 4.000000 "c/vc"  "c/vc"  "Central_sandbar_on_open_marine_'shelf'"      "Development_of_sandbars_on_a_high_energy_shelf"
1642.3 "6407_9-1"  22.3200 "Sandstone" "Limestone" "Coal"   92.0000  4.00000 4.000000 "c/vc"  "c/vc"  "Central_sandbar_on_open_marine_'shelf'"      "Development_of_sandbars_on_a_high_energy_shelf"
1642.4 "6407_9-1"  23.1200 "Sandstone" "Limestone" "Coal"   92.0000  4.00000 4.000000 "c/vc"  "c/vc"  "Central_sandbar_on_open_marine_'shelf'"      "Development_of_sandbars_on_a_high_energy_shelf"
1642.5 "6407_9-1"  23.6000 "Sandstone" "Limestone" "Coal"   92.0000  4.00000 4.000000 "c/vc"  "c/vc"  "Central_sandbar_on_open_marine_'shelf'"      "Development_of_sandbars_on_a_high_energy_shelf"
1642.6 "6407_9-1"  23.5000 "Sandstone" "Limestone" "Coal"   92.0000  4.00000 4.000000 "c/vc"  "c/vc"  "Central_sandbar_on_open_marine_'shelf'"      "Development_of_sandbars_on_a_high_energy_shelf"
1642.7 "6407_9-1"  23.4000 "Sandstone" "Limestone" "Coal"   92.0000  4.00000 4.000000 "c/vc"  "c/vc"  "Central_sandbar_on_open_marine_'shelf'"      "Development_of_sandbars_on_a_high_energy_shelf"
1642.8 "6407_9-1"  23.3100 "Sandstone" "Limestone" "Coal"   92.0000  4.00000 4.000000 "c/vc"  "c/vc"  "Central_sandbar_on_open_marine_'shelf'"      "Development_of_sandbars_on_a_high_energy_shelf"
1642.9 "6407_9-1"  23.2100 "Sandstone" "Limestone" "Coal"   92.0000  4.00000 4.000000 "c/vc"  "c/vc"  "Central_sandbar_on_open_marine_'shelf'"      "Development_of_sandbars_on_a_high_energy_shelf"
1643.0 "6407_9-1"  23.1100 "Sandstone" "Limestone" "Coal"   92.0000  4.00000 4.000000 "c/vc"  "c/vc"  "Central_sandbar_on_open_marine_'shelf'"      "Development_of_sandbars_on_a_high_energy_shelf"
1643.1 "6407_9-1"  23.0200 "Sandstone" "Limestone" "Coal"   92.0000  4.00000 4.000000 "c/vc"  "c/vc"  "Central_sandbar_on_open_marine_'shelf'"      "Development_of_sandbars_on_a_high_energy_shelf"
1643.2 "6407_9-1"  22.9200 "Sandstone" "Limestone" "Coal"   92.0000  4.00000 4.000000 "c/vc"  "c/vc"  "Central_sandbar_on_open_marine_'shelf'"      "Development_of_sandbars_on_a_high_energy_shelf"
1643.3 "6407_9-1"  22.1500 -999.25   -999.25   -999.25 100.0000      0.0      0.0 -999.25 -999.25 "Central_sandbar_on_open_marine_'shelf'"      "Development_of_sandbars_on_a_high_energy_shelf"
