~Version
VERS  .                                 3.0 : CWLS LAS ASCII Standard - Version 3.0
WRAP  . NO                                  : One line per depth step
DLM   . SPACE                               : Column data section delimiter
SOURCE. Converted to LAS by Log Studio 4.76 : GeoProvider

~Well
STRT.         1631.0 : Start depth
STOP.         1683.0 : Stop depth
STEP.              1 : Step
NULL.        -999.25 : No-value
COMP.                : Company
WELL. 6407/9-1       : Well
FLD .                : Field
LOC .                : Location
LATI.                : Latitude
LONG.                : Longitude
GDAT.                : Geodetic datum
CNTY.                : County
STAT.                : State
CTRY.                : Country
SRVC. GeoProvider AS : Service company
DATE.                : Date
API .                : API number
RUN .                : Run number

~Parameters
WellboreName.  : Wellbore name
RigName     .  : Rig name
StartDate   .  : Start date

~Curves
DEPTH.m            .  : null {F}Depth mMD
Hole_ID.-          .  : null {S}Hole ID
GR.API             .  : null {F}Gamma Ray
Lithology1.-       .  : null {S}Lithology 1
Lithology2.-       .  : null {S}Lithology 2
Lithology3.-       .  : null {S}Lithology 3
Lithology1.%       .  : null {F}Lithology 1 percentage
Lithology2.%       .  : null {F}Lithology 2 percentage
Lithology3.%       .  : null {F}Lithology 3 percentage
Grain_size_Top.-   .  : null {S}Grain size at the top 
Grain_size_Base.-  .  : null {S}Grain size at the bottom
Sub_Environment.-  .  : null {S}Sub Environment
Gross_Environment.-.  : null {S}Gross Environment

~Ascii
# ...
1676.3 "6407_9-1"  77.7700 "Sandstone" "Limestone" -999.25  70.0000 30.00000      0.0 "f/m"   "silt/vf" "Erosion"                                     "Proximal_delta_front"                        
1676.4 "6407_9-1"  78.1000 "Sandstone" "Limestone" -999.25  70.0000 30.00000      0.0 "f/m"   "silt/vf" "Erosion"                                     "Proximal_delta_front"                        
1676.5 "6407_9-1"  78.4200 "Sandstone" "Limestone" -999.25  70.0000 30.00000      0.0 "f/m"   "silt/vf" "Erosion"                                     "Proximal_delta_front"                        
1676.6 "6407_9-1"  78.7400 "Sandstone" "Limestone" -999.25  70.0000 30.00000      0.0 "f/m"   "silt/vf" "Erosion"                                     "Proximal_delta_front"                        
1676.7 "6407_9-1"  79.0200 "Sandstone" "Limestone" -999.25  70.0000 30.00000      0.0 "f/m"   "silt/vf" "Erosion"                                     "Proximal_delta_front"                        
1676.8 "6407_9-1"  77.9600 "Sandstone" "Limestone" -999.25  70.0000 30.00000      0.0 "f/m"   "silt/vf" "Erosion"                                     "Proximal_delta_front"                        
1676.9 "6407_9-1"  76.9100 "Sandstone" "Limestone" -999.25  70.0000 30.00000      0.0 "f/m"   "silt/vf" "Erosion"                                     "Proximal_delta_front"                        
1677.0 "6407_9-1"  75.8500 "Sandstone" "Limestone" -999.25  70.0000 30.00000      0.0 "f/m"   "silt/vf" "Erosion"                                     "Proximal_delta_front"                        
1677.1 "6407_9-1"  74.7900 "Sandstone" "Limestone" -999.25  70.0000 30.00000      0.0 "f/m"   "silt/vf" "Erosion"                                     "Proximal_delta_front"                        
1677.2 "6407_9-1"  73.3400 "Sandstone" "Limestone" -999.25  82.0000 18.00000      0.0 "f"     "f/m"   "Erosion"                                     "Proximal_delta_front"                        
1677.3 "6407_9-1"  71.7200 "Sandstone" "Limestone" -999.25  82.0000 18.00000      0.0 "f"     "f/m"   "Erosion"                                     "Proximal_delta_front"                        
1677.4 "6407_9-1"  70.1100 "Sandstone" "Limestone" -999.25  82.0000 18.00000      0.0 "f"     "f/m"   "Erosion"                                     "Proximal_delta_front"                        
1677.5 "6407_9-1"  67.9400 "Sandstone" "Limestone" -999.25  82.0000 18.00000      0.0 "f"     "f/m"   "Erosion_Upper_shoreface_or_proximal_mouth_bar" "Proximal_delta_front"                        
1677.6 "6407_9-1"  65.0200 "Sandstone" "Limestone" -999.25  82.0000 18.00000      0.0 "f"     "f/m"   "Erosion_Upper_shoreface_or_proximal_mouth_bar" "Proximal_delta_front"                        
1677.7 "6407_9-1"  62.1000 "Sandstone" "Limestone" -999.25  82.0000 18.00000      0.0 "f"     "f/m"   "Erosion_Upper_shoreface_or_proximal_mouth_bar" "Proximal_delta_front"                        
1677.8 "6407_9-1"  59.1800 "Sandstone" "Limestone" -999.25  82.0000 18.00000      0.0 "f"     "f/m"   "Erosion_Upper_shoreface_or_proximal_mouth_bar" "Proximal_delta_front"                        
1677.9 "6407_9-1"  63.1700 "Sandstone" "Limestone" -999.25  82.0000 18.00000      0.0 "f"     "f/m"   "Erosion_Upper_shoreface_or_proximal_mouth_bar" "Proximal_delta_front"                        
1678.0 "6407_9-1"  69.5700 "Sandstone" "Limestone" -999.25  82.0000 18.00000      0.0 "f"     "f/m"   "Erosion_Upper_shoreface_or_proximal_mouth_bar" "Proximal_delta_front"                        
1678.1 "6407_9-1"  81.4400 "Sandstone" "Limestone" -999.25  82.0000 18.00000      0.0 "f"     "f/m"   "Erosion_Upper_shoreface_or_proximal_mouth_bar" "Proximal_delta_front"                        
1678.2 "6407_9-1"  85.8200 "Sandstone" "Limestone" -999.25  82.0000 18.00000      0.0 "f"     "f/m"   "Erosion_Upper_shoreface_or_proximal_mouth_bar" "Proximal_delta_front"                        
1678.3 "6407_9-1" 103.8500 "Sandstone" "Limestone" -999.25  82.0000 18.00000      0.0 "f"     "f/m"   "Erosion_Upper_shoreface_or_proximal_mouth_bar" "Proximal_delta_front"                        
1678.4 "6407_9-1" 108.3400 "Sandstone" "Limestone" -999.25  82.0000 18.00000      0.0 "f"     "f/m"   "Erosion_Upper_shoreface_or_proximal_mouth_bar" "Proximal_delta_front"                        
1678.5 "6407_9-1" 112.6500 "Sandstone" "Limestone" -999.25  82.0000 18.00000      0.0 "f"     "f/m"   "Erosion_Upper_shoreface_or_proximal_mouth_bar" "Proximal_delta_front"                        
1678.6 "6407_9-1" 110.5500 "Sandstone" "Limestone" -999.25  82.0000 18.00000      0.0 "f"     "f/m"   "Erosion_Upper_shoreface_or_proximal_mouth_bar" "Proximal_delta_front"                        
1678.7 "6407_9-1" 108.4400 "Sandstone" "Limestone" -999.25  82.0000 18.00000      0.0 "f"     "f/m"   "Erosion_Upper_shoreface_or_proximal_mouth_bar" "Proximal_delta_front"                        
1678.8 "6407_9-1"  90.8000 "Sandstone" "Limestone" -999.25  82.0000 18.00000      0.0 "f"     "f/m"   "Erosion_Upper_shoreface_or_proximal_mouth_bar" "Proximal_delta_front"                        
1678.9 "6407_9-1"  80.2500 "Sandstone" "Limestone" -999.25  82.0000 18.00000      0.0 "f"     "f/m"   "Erosion_Upper_shoreface_or_proximal_mouth_bar" "Proximal_delta_front"                        
1679.0 "6407_9-1"  78.8100 "Sandstone" "Limestone" -999.25  82.0000 18.00000      0.0 "f"     "f/m"   "Erosion_Upper_shoreface_or_proximal_mouth_bar" "Proximal_delta_front"                        
1679.1 "6407_9-1"  77.3700 "Sandstone" "Limestone" -999.25  82.0000 18.00000      0.0 "f"     "f/m"   "Erosion_Upper_shoreface_or_proximal_mouth_bar" "Proximal_delta_front"                        
1679.2 "6407_9-1"  75.9200 "Sandstone" "Limestone" -999.25  82.0000 18.00000      0.0 "f"     "f/m"   "Erosion_Upper_shoreface_or_proximal_mouth_bar" "Proximal_delta_front"                        
1679.3 "6407_9-1"  74.4800 "Sandstone" "Limestone" -999.25  82.0000 18.00000      0.0 "f"     "f/m"   "Erosion_Upper_shoreface_or_proximal_mouth_bar" "Proximal_delta_front"                        
1679.4 "6407_9-1"  73.6000 "Sandstone" "Limestone" -999.25  82.0000 18.00000      0.0 "f"     "f/m"   "Erosion_Upper_shoreface_or_proximal_mouth_bar" "Proximal_delta_front"                        
1679.5 "6407_9-1"  73.0400 "Sandstone" "Limestone" -999.25  82.0000 18.00000      0.0 "f"     "f/m"   "Erosion_Upper_shoreface_or_proximal_mouth_bar" "Proximal_delta_front"                        
1679.6 "6407_9-1"  72.5400 "Sandstone" "Limestone" -999.25  82.0000 18.00000      0.0 "f"     "f/m"   "Erosion_Upper_shoreface_or_proximal_mouth_bar" "Proximal_delta_front"                        
1679.7 "6407_9-1"  73.8100 "Sandstone" "Limestone" -999.25  82.0000 18.00000      0.0 "f"     "f/m"   "Erosion_Upper_shoreface_or_proximal_mouth_bar" "Proximal_delta_front"                        
1679.8 "6407_9-1"  75.3400 "Sandstone" "Limestone" -999.25  82.0000 18.00000      0.0 "f"     "f/m"   "Erosion_Upper_shoreface_or_proximal_mouth_bar" "Proximal_delta_front"                        
1679.9 "6407_9-1"  76.8800 "Sandstone" "Limestone" -999.25  82.0000 18.00000      0.0 "f"     "f/m"   "Erosion_Upper_shoreface_or_proximal_mouth_bar" "Proximal_delta_front"                        
1680.0 "6407_9-1"  79.3200 "Sandstone" "Limestone" -999.25  82.0000 18.00000      0.0 "f"     "f/m"   "Erosion_Upper_shoreface_or_proximal_mouth_bar" "Proximal_delta_front"                        
1680.1 "6407_9-1"  82.4400 "Sandstone" "Limestone" -999.25  82.0000 18.00000      0.0 "f"     "f/m"   "Erosion_Upper_shoreface_or_proximal_mouth_bar" "Proximal_delta_front"                        
1680.2 "6407_9-1"  86.5800 "Sandstone" "Limestone" -999.25  82.0000 18.00000      0.0 "f"     "f/m"   "Erosion_Upper_shoreface_or_proximal_mouth_bar" "Proximal_delta_front"                        
1680.3 "6407_9-1"  85.5100 "Sandstone" "Limestone" -999.25  82.0000 18.00000      0.0 "f"     "f/m"   "Erosion_Upper_shoreface_or_proximal_mouth_bar" "Proximal_delta_front"                        
