~Version
VERS  .                                 3.0 : CWLS LAS ASCII Standard - Version 3.0
WRAP  . NO                                  : One line per depth step
DLM   . SPACE                               : Column data section delimiter
SOURCE. Converted to LAS by Log Studio 4.76 : GeoProvider

~Well
STRT.         1631.0 : Start depth
STOP.         1683.0 : Stop depth
STEP.              1 : Step
NULL.        -999.25 : No-value
COMP.                : Company
WELL. 6407/9-1       : Well
FLD .                : Field
LOC .                : Location
LATI.                : Latitude
LONG.                : Longitude
GDAT.                : Geodetic datum
CNTY.                : County
STAT.                : State
CTRY.                : Country
SRVC. GeoProvider AS : Service company
DATE.                : Date
API .                : API number
RUN .                : Run number

~Parameters
WellboreName.  : Wellbore name
RigName     .  : Rig name
StartDate   .  : Start date

~Curves
DEPTH.m            .  : null {F}Depth mMD
Hole_ID.-          .  : null {S}Hole ID
GR.API             .  : null {F}Gamma Ray
Lithology1.-       .  : null {S}Lithology 1
Lithology2.-       .  : null {S}Lithology 2
Lithology3.-       .  : null {S}Lithology 3
Lithology1.%       .  : null {F}Lithology 1 percentage
Lithology2.%       .  : null {F}Lithology 2 percentage
Lithology3.%       .  : null {F}Lithology 3 percentage
Grain_size_Top.-   .  : null {S}Grain size at the top 
Grain_size_Base.-  .  : null {S}Grain size at the bottom
Sub_Environment.-  .  : null {S}Sub Environment
Gross_Environment.-.  : null {S}Gross Environment

~Ascii
# ...
1668.1 "6407_9-1"  79.6700 "Sandstone" "Limestone" -999.25  93.0000  7.00000      0.0 "vf/f"  "f/m"   "Marginal_sandbar_on_open_marine_'shelf'"     "Development_of_sandbars_on_a_high_energy_shelf"
1668.2 "6407_9-1"  79.7600 "Sandstone" "Limestone" -999.25  93.0000  7.00000      0.0 "vf/f"  "f/m"   "Marginal_sandbar_on_open_marine_'shelf'"     "Development_of_sandbars_on_a_high_energy_shelf"
1668.3 "6407_9-1"  82.5700 "Sandstone" "Limestone" -999.25  93.0000  7.00000      0.0 "vf/f"  "f/m"   "Marginal_sandbar_on_open_marine_'shelf'"     "Development_of_sandbars_on_a_high_energy_shelf"
1668.4 "6407_9-1"  88.4200 "Sandstone" "Limestone" -999.25  93.0000  7.00000      0.0 "vf/f"  "f/m"   "Marginal_sandbar_on_open_marine_'shelf'"     "Development_of_sandbars_on_a_high_energy_shelf"
1668.5 "6407_9-1"  91.6400 "Sandstone" "Limestone" -999.25  93.0000  7.00000      0.0 "vf/f"  "f/m"   "Marginal_sandbar_on_open_marine_'shelf'"     "Development_of_sandbars_on_a_high_energy_shelf"
1668.6 "6407_9-1"  93.7200 "Sandstone" "Limestone" -999.25  93.0000  7.00000      0.0 "vf/f"  "f/m"   "Marginal_sandbar_on_open_marine_'shelf'"     "Development_of_sandbars_on_a_high_energy_shelf"
1668.7 "6407_9-1"  95.7900 "Sandstone" "Limestone" -999.25  93.0000  7.00000      0.0 "vf/f"  "f/m"   "Marginal_sandbar_on_open_marine_'shelf'"     "Development_of_sandbars_on_a_high_energy_shelf"
1668.8 "6407_9-1"  97.7600 "Sandstone" "Limestone" -999.25  93.0000  7.00000      0.0 "vf/f"  "f/m"   "Marginal_sandbar_on_open_marine_'shelf'"     "Development_of_sandbars_on_a_high_energy_shelf"
1668.9 "6407_9-1"  99.6700 "Sandstone" "Limestone" -999.25  93.0000  7.00000      0.0 "vf/f"  "f/m"   "Marginal_sandbar_on_open_marine_'shelf'"     "Development_of_sandbars_on_a_high_energy_shelf"
1669.0 "6407_9-1" 101.5700 "Sandstone" "Limestone" -999.25  93.0000  7.00000      0.0 "vf/f"  "f/m"   "Marginal_sandbar_on_open_marine_'shelf'"     "Development_of_sandbars_on_a_high_energy_shelf"
1669.1 "6407_9-1" 104.0700 "Sandstone" "Limestone" -999.25  93.0000  7.00000      0.0 "vf/f"  "f/m"   "Marginal_sandbar_on_open_marine_'shelf'"     "Development_of_sandbars_on_a_high_energy_shelf"
1669.2 "6407_9-1" 106.6700 "Sandstone" "Limestone" -999.25  93.0000  7.00000      0.0 "vf/f"  "f/m"   "Marginal_sandbar_on_open_marine_'shelf'"     "Development_of_sandbars_on_a_high_energy_shelf"
1669.3 "6407_9-1" 111.0300 "Sandstone" "Limestone" -999.25  93.0000  7.00000      0.0 "vf/f"  "f/m"   "Marginal_sandbar_on_open_marine_'shelf'"     "Development_of_sandbars_on_a_high_energy_shelf"
1669.4 "6407_9-1" 116.8400 "Sandstone" "Limestone" -999.25  93.0000  7.00000      0.0 "vf/f"  "f/m"   "Marginal_sandbar_on_open_marine_'shelf'"     "Development_of_sandbars_on_a_high_energy_shelf"
1669.5 "6407_9-1" 120.9800 "Sandstone" "Limestone" -999.25  93.0000  7.00000      0.0 "vf/f"  "f/m"   "Marginal_sandbar_on_open_marine_'shelf'"     "Development_of_sandbars_on_a_high_energy_shelf"
1669.6 "6407_9-1" 125.1300 "Sandstone" "Limestone" -999.25  93.0000  7.00000      0.0 "vf/f"  "f/m"   "Marginal_sandbar_on_open_marine_'shelf'"     "Development_of_sandbars_on_a_high_energy_shelf"
1669.7 "6407_9-1" 132.2800 "Sandstone" "Limestone" -999.25  93.0000  7.00000      0.0 "vf/f"  "f/m"   "Marginal_sandbar_on_open_marine_'shelf'"     "Development_of_sandbars_on_a_high_energy_shelf"
1669.8 "6407_9-1" 144.6800 "Sandstone" "Limestone" -999.25  93.0000  7.00000      0.0 "vf/f"  "f/m"   "Marginal_sandbar_on_open_marine_'shelf'"     "Development_of_sandbars_on_a_high_energy_shelf"
1669.9 "6407_9-1"  -999.25 "Sandstone" "Limestone" -999.25  93.0000  7.00000      0.0 "vf/f"  "f/m"   "Marginal_sandbar_on_open_marine_'shelf'"     "Development_of_sandbars_on_a_high_energy_shelf"
1670.0 "6407_9-1"  -999.25 "Sandstone" "Limestone" -999.25  93.0000  7.00000      0.0 "vf/f"  "f/m"   "Marginal_sandbar_on_open_marine_'shelf'"     "Development_of_sandbars_on_a_high_energy_shelf"
1670.1 "6407_9-1"  -999.25 "Sandstone" "Limestone" -999.25  93.0000  7.00000      0.0 "vf/f"  "f/m"   "Marginal_sandbar_on_open_marine_'shelf'"     "Development_of_sandbars_on_a_high_energy_shelf"
1670.2 "6407_9-1"  -999.25 "Sandstone" "Limestone" -999.25  93.0000  7.00000      0.0 "vf/f"  "f/m"   "Marginal_sandbar_on_open_marine_'shelf'"     "Development_of_sandbars_on_a_high_energy_shelf"
1670.3 "6407_9-1"  -999.25 "Sandstone" "Limestone" -999.25  93.0000  7.00000      0.0 "vf/f"  "f/m"   "Marginal_sandbar_on_open_marine_'shelf'"     "Development_of_sandbars_on_a_high_energy_shelf"
1670.4 "6407_9-1"  -999.25 "Sandstone" "Limestone" -999.25  93.0000  7.00000      0.0 "vf/f"  "f/m"   "Marginal_sandbar_on_open_marine_'shelf'"     "Development_of_sandbars_on_a_high_energy_shelf"
1670.5 "6407_9-1"  -999.25 "Sandstone" "Limestone" -999.25  93.0000  7.00000      0.0 "vf/f"  "f/m"   "Marginal_sandbar_on_open_marine_'shelf'"     "Development_of_sandbars_on_a_high_energy_shelf"
1670.6 "6407_9-1"  -999.25 "Sandstone" "Limestone" -999.25  93.0000  7.00000      0.0 "vf/f"  "f/m"   "Marginal_sandbar_on_open_marine_'shelf'"     "Development_of_sandbars_on_a_high_energy_shelf"
1670.7 "6407_9-1"  -999.25 "Sandstone" "Limestone" -999.25  93.0000  7.00000      0.0 "vf/f"  "f/m"   "Marginal_sandbar_on_open_marine_'shelf'"     "Development_of_sandbars_on_a_high_energy_shelf"
1670.8 "6407_9-1"  -999.25 "Sandstone" "Limestone" -999.25  93.0000  7.00000      0.0 "vf/f"  "f/m"   "Marginal_sandbar_on_open_marine_'shelf'"     "Development_of_sandbars_on_a_high_energy_shelf"
1670.9 "6407_9-1"  -999.25 "Sandstone" "Limestone" -999.25  93.0000  7.00000      0.0 "vf/f"  "f/m"   "Marginal_sandbar_on_open_marine_'shelf'"     "Development_of_sandbars_on_a_high_energy_shelf"
1671.0 "6407_9-1"  -999.25 "Sandstone" "Limestone" -999.25  93.0000  7.00000      0.0 "vf/f"  "f/m"   "Marginal_sandbar_on_open_marine_'shelf'"     "Development_of_sandbars_on_a_high_energy_shelf"
1671.1 "6407_9-1"  -999.25 "Sandstone" "Limestone" -999.25  93.0000  7.00000      0.0 "vf/f"  "f/m"   "Marginal_sandbar_on_open_marine_'shelf'"     "Development_of_sandbars_on_a_high_energy_shelf"
1671.2 "6407_9-1"  -999.25 "Sandstone" "Limestone" -999.25  93.0000  7.00000      0.0 "vf/f"  "f/m"   "Marginal_sandbar_on_open_marine_'shelf'"     "Development_of_sandbars_on_a_high_energy_shelf"
1671.3 "6407_9-1"  -999.25 "Sandstone" "Limestone" -999.25  93.0000  7.00000      0.0 "vf/f"  "f/m"   "Marginal_sandbar_on_open_marine_'shelf'"     "Development_of_sandbars_on_a_high_energy_shelf"
1671.4 "6407_9-1"  -999.25 "Sandstone" "Limestone" -999.25  93.0000  7.00000      0.0 "vf/f"  "f/m"   "Marginal_sandbar_on_open_marine_'shelf'"     "Development_of_sandbars_on_a_high_energy_shelf"
1671.5 "6407_9-1"  -999.25 "Sandstone" "Limestone" -999.25  93.0000  7.00000      0.0 "vf/f"  "f/m"   "Marginal_sandbar_on_open_marine_'shelf'"     "Development_of_sandbars_on_a_high_energy_shelf"
1671.6 "6407_9-1"  -999.25 "Sandstone" "Limestone" -999.25  93.0000  7.00000      0.0 "vf/f"  "f/m"   "Marginal_sandbar_on_open_marine_'shelf'"     "Development_of_sandbars_on_a_high_energy_shelf"
1671.7 "6407_9-1"  -999.25 "Sandstone" "Limestone" -999.25  93.0000  7.00000      0.0 "vf/f"  "f/m"   "Marginal_sandbar_on_open_marine_'shelf'"     "Development_of_sandbars_on_a_high_energy_shelf"
1671.8 "6407_9-1"  -999.25 "Sandstone" "Limestone" -999.25  93.0000  7.00000      0.0 "vf/f"  "f/m"   "Marginal_sandbar_on_open_marine_'shelf'"     "Development_of_sandbars_on_a_high_energy_shelf"
1671.9 "6407_9-1"  -999.25 "Sandstone" "Limestone" -999.25  93.0000  7.00000      0.0 "vf/f"  "f/m"   "Marginal_sandbar_on_open_marine_'shelf'"     "Development_of_sandbars_on_a_high_energy_shelf"
1672.0 "6407_9-1"  -999.25 "Sandstone" "Limestone" -999.25  93.0000  7.00000      0.0 "vf/f"  "f/m"   "Marginal_sandbar_on_open_marine_'shelf'"     "Development_of_sandbars_on_a_high_energy_shelf"
1672.1 "6407_9-1"  -999.25 "Sandstone" "Limestone" -999.25  93.0000  7.00000      0.0 "vf/f"  "f/m"   "Marginal_sandbar_on_open_marine_'shelf'"     "Development_of_sandbars_on_a_high_energy_shelf"
