~Version
VERS  .                                 3.0 : CWLS LAS ASCII Standard - Version 3.0
WRAP  . NO                                  : One line per depth step
DLM   . SPACE                               : Column data section delimiter
SOURCE. Converted to LAS by Log Studio 4.76 : GeoProvider

~Well
STRT.         1631.0 : Start depth
STOP.         1683.0 : Stop depth
STEP.              1 : Step
NULL.        -999.25 : No-value
COMP.                : Company
WELL. 6407/9-1       : Well
FLD .                : Field
LOC .                : Location
LATI.                : Latitude
LONG.                : Longitude
GDAT.                : Geodetic datum
CNTY.                : County
STAT.                : State
CTRY.                : Country
SRVC. GeoProvider AS : Service company
DATE.                : Date
API .                : API number
RUN .                : Run number

~Parameters
WellboreName.  : Wellbore name
RigName     .  : Rig name
StartDate   .  : Start date

~Curves
DEPTH.m            .  : null {F}Depth mMD
Hole_ID.-          .  : null {S}Hole ID
GR.API             .  : null {F}Gamma Ray
Lithology1.-       .  : null {S}Lithology 1
Lithology2.-       .  : null {S}Lithology 2
Lithology3.-       .  : null {S}Lithology 3
Lithology1.%       .  : null {F}Lithology 1 percentage
Lithology2.%       .  : null {F}Lithology 2 percentage
Lithology3.%       .  : null {F}Lithology 3 percentage
Grain_size_Top.-   .  : null {S}Grain size at the top 
Grain_size_Base.-  .  : null {S}Grain size at the bottom
Sub_Environment.-  .  : null {S}Sub Environment
Gross_Environment.-.  : null {S}Gross Environment

~Ascii
# ...
1651.6 "6407_9-1"  33.2900 "Sandstone" "Limestone" -999.25  96.0000  4.00000      0.0 "c"     "c/vc"  "Erosion"                                     "Development_of_sandbars_on_a_high_energy_shelf"
1651.7 "6407_9-1"  33.6900 "Sandstone" "Limestone" -999.25  96.0000  4.00000      0.0 "c"     "c/vc"  "Erosion"                                     "Development_of_sandbars_on_a_high_energy_shelf"
1651.8 "6407_9-1"  34.2400 "Sandstone" "Limestone" -999.25  96.0000  4.00000      0.0 "c"     "c/vc"  "Erosion"                                     "Development_of_sandbars_on_a_high_energy_shelf"
1651.9 "6407_9-1"  34.7600 "Sandstone" "Limestone" -999.25  96.0000  4.00000      0.0 "c"     "c/vc"  "Erosion"                                     "Development_of_sandbars_on_a_high_energy_shelf"
1652.0 "6407_9-1"  34.4000 "Sandstone" "Limestone" -999.25  96.0000  4.00000      0.0 "c"     "c/vc"  "Erosion"                                     "Development_of_sandbars_on_a_high_energy_shelf"
1652.1 "6407_9-1"  34.0500 "Sandstone" "Limestone" -999.25  96.0000  4.00000      0.0 "c"     "c/vc"  "Erosion"                                     "Development_of_sandbars_on_a_high_energy_shelf"
1652.2 "6407_9-1"  33.6900 "Sandstone" "Limestone" -999.25  96.0000  4.00000      0.0 "c"     "c/vc"  "Erosion"                                     "Development_of_sandbars_on_a_high_energy_shelf"
1652.3 "6407_9-1"  33.3400 "Sandstone" "Limestone" -999.25  96.0000  4.00000      0.0 "c"     "c/vc"  "Erosion"                                     "Development_of_sandbars_on_a_high_energy_shelf"
1652.4 "6407_9-1"  32.9800 "Sandstone" "Limestone" -999.25  96.0000  4.00000      0.0 "c"     "c/vc"  "Erosion"                                     "Development_of_sandbars_on_a_high_energy_shelf"
1652.5 "6407_9-1"  32.6300 "Sandstone" "Limestone" -999.25  96.0000  4.00000      0.0 "c"     "c/vc"  "Erosion"                                     "Development_of_sandbars_on_a_high_energy_shelf"
1652.6 "6407_9-1"  32.2800 "Sandstone" "Limestone" -999.25  96.0000  4.00000      0.0 "c"     "c/vc"  "Erosion"                                     "Development_of_sandbars_on_a_high_energy_shelf"
1652.7 "6407_9-1"  32.1200 "Sandstone" "Limestone" -999.25  96.0000  4.00000      0.0 "c"     "c/vc"  "Erosion"                                     "Development_of_sandbars_on_a_high_energy_shelf"
1652.8 "6407_9-1"  32.9500 "Sandstone" "Limestone" -999.25  96.0000  4.00000      0.0 "c"     "c/vc"  "Erosion"                                     "Development_of_sandbars_on_a_high_energy_shelf"
1652.9 "6407_9-1"  33.7900 "Sandstone" "Limestone" -999.25  96.0000  4.00000      0.0 "c"     "c/vc"  "Erosion"                                     "Development_of_sandbars_on_a_high_energy_shelf"
1653.0 "6407_9-1"  34.5300 "Sandstone" "Limestone" -999.25  96.0000  4.00000      0.0 "c"     "c/vc"  "Erosion"                                     "Development_of_sandbars_on_a_high_energy_shelf"
1653.1 "6407_9-1"  34.6300 "Sandstone" "Limestone" -999.25  96.0000  4.00000      0.0 "c"     "c/vc"  "Erosion"                                     "Development_of_sandbars_on_a_high_energy_shelf"
1653.2 "6407_9-1"  34.7200 "Sandstone" "Limestone" -999.25  96.0000  4.00000      0.0 "c"     "c/vc"  "Erosion"                                     "Development_of_sandbars_on_a_high_energy_shelf"
1653.3 "6407_9-1"  34.6100 "Sandstone" "Limestone" -999.25  96.0000  4.00000      0.0 "c"     "c/vc"  "Erosion"                                     "Development_of_sandbars_on_a_high_energy_shelf"
1653.4 "6407_9-1"  34.3500 "Sandstone" "Limestone" -999.25  96.0000  4.00000      0.0 "c"     "c/vc"  "Erosion"                                     "Development_of_sandbars_on_a_high_energy_shelf"
1653.5 "6407_9-1"  34.0900 "Sandstone" "Limestone" -999.25  96.0000  4.00000      0.0 "c"     "c/vc"  "Erosion"                                     "Development_of_sandbars_on_a_high_energy_shelf"
1653.6 "6407_9-1"  33.8300 "Sandstone" "Limestone" -999.25  96.0000  4.00000      0.0 "c"     "c/vc"  "Erosion"                                     "Development_of_sandbars_on_a_high_energy_shelf"
1653.7 "6407_9-1"  33.5700 "Sandstone" "Limestone" -999.25  96.0000  4.00000      0.0 "c"     "c/vc"  "Erosion"                                     "Development_of_sandbars_on_a_high_energy_shelf"
1653.8 "6407_9-1"  33.3100 "Sandstone" "Limestone" -999.25  96.0000  4.00000      0.0 "c"     "c/vc"  "Erosion"                                     "Development_of_sandbars_on_a_high_energy_shelf"
1653.9 "6407_9-1"  34.6900 "Sandstone" "Limestone" -999.25  96.0000  4.00000      0.0 "c"     "c/vc"  "Erosion"                                     "Development_of_sandbars_on_a_high_energy_shelf"
1654.0 "6407_9-1"  36.6000 "Sandstone" "Limestone" -999.25  96.0000  4.00000      0.0 "c"     "c/vc"  "Erosion"                                     "Development_of_sandbars_on_a_high_energy_shelf"
1654.1 "6407_9-1"  38.5000 "Sandstone" "Limestone" -999.25  96.0000  4.00000      0.0 "c"     "c/vc"  "Erosion"                                     "Development_of_sandbars_on_a_high_energy_shelf"
1654.2 "6407_9-1"  40.9800 "Sandstone" "Limestone" -999.25  96.0000  4.00000      0.0 "c"     "c/vc"  "Erosion"                                     "Development_of_sandbars_on_a_high_energy_shelf"
1654.3 "6407_9-1"  40.3900 "Sandstone" "Limestone" -999.25  96.0000  4.00000      0.0 "c"     "c/vc"  "Erosion"                                     "Development_of_sandbars_on_a_high_energy_shelf"
1654.4 "6407_9-1"  39.6600 "Sandstone" "Limestone" -999.25  96.0000  4.00000      0.0 "c"     "c/vc"  "Erosion"                                     "Development_of_sandbars_on_a_high_energy_shelf"
1654.5 "6407_9-1"  38.9300 "Sandstone" "Limestone" -999.25  96.0000  4.00000      0.0 "c"     "c/vc"  "Erosion"                                     "Development_of_sandbars_on_a_high_energy_shelf"
1654.6 "6407_9-1"  38.2900 "Sandstone" "Limestone" -999.25  96.0000  4.00000      0.0 "c"     "c/vc"  "Erosion"                                     "Development_of_sandbars_on_a_high_energy_shelf"
1654.7 "6407_9-1"  38.1300 "Sandstone" "Limestone" -999.25  96.0000  4.00000      0.0 "c"     "c/vc"  "Erosion"                                     "Development_of_sandbars_on_a_high_energy_shelf"
1654.8 "6407_9-1"  37.9800 "Sandstone" "Limestone" -999.25  96.0000  4.00000      0.0 "c"     "c/vc"  "Erosion"                                     "Development_of_sandbars_on_a_high_energy_shelf"
1654.9 "6407_9-1"  37.8200 "Sandstone" "Limestone" -999.25  96.0000  4.00000      0.0 "c"     "c/vc"  "Erosion"                                     "Development_of_sandbars_on_a_high_energy_shelf"
1655.0 "6407_9-1"  38.4900 "Sandstone" "Limestone" -999.25  96.0000  4.00000      0.0 "c"     "c/vc"  "Erosion"                                     "Development_of_sandbars_on_a_high_energy_shelf"
1655.1 "6407_9-1"  39.2900 "Sandstone" "Limestone" -999.25  96.0000  4.00000      0.0 "c"     "c/vc"  "Erosion"                                     "Development_of_sandbars_on_a_high_energy_shelf"
1655.2 "6407_9-1"  40.1000 "Sandstone" "Limestone" -999.25  96.0000  4.00000      0.0 "c"     "c/vc"  "Erosion"                                     "Development_of_sandbars_on_a_high_energy_shelf"
1655.3 "6407_9-1"  40.9000 "Sandstone" "Limestone" -999.25  96.0000  4.00000      0.0 "c"     "c/vc"  "Erosion"                                     "Development_of_sandbars_on_a_high_energy_shelf"
1655.4 "6407_9-1"  41.7100 "Sandstone" "Limestone" -999.25  96.0000  4.00000      0.0 "c"     "c/vc"  "Erosion"                                     "Development_of_sandbars_on_a_high_energy_shelf"
1655.5 "6407_9-1"  42.5100 "Sandstone" "Limestone" -999.25  96.0000  4.00000      0.0 "c"     "c/vc"  "Erosion"                                     "Development_of_sandbars_on_a_high_energy_shelf"
1655.6 "6407_9-1"  43.3200 "Sandstone" "Limestone" -999.25  96.0000  4.00000      0.0 "c"     "c/vc"  "Erosion"                                     "Development_of_sandbars_on_a_high_energy_shelf"
