~Version
VERS  .                                 3.0 : CWLS LAS ASCII Standard - Version 3.0
WRAP  . NO                                  : One line per depth step
DLM   . SPACE                               : Column data section delimiter
SOURCE. Converted to LAS by Log Studio 4.76 : GeoProvider

~Well
STRT.         2428.0 : Start depth
STOP.         2769.0 : Stop depth
STEP.              1 : Step
NULL.        -999.25 : No-value
COMP.                : Company
WELL. 6407/2-3       : Well
FLD .                : Field
LOC .                : Location
LATI.                : Latitude
LONG.                : Longitude
GDAT.                : Geodetic datum
CNTY.                : County
STAT.                : State
CTRY.                : Country
SRVC. GeoProvider AS : Service company
DATE.                : Date
API .                : API number
RUN .                : Run number

~Parameters
WellboreName.  : Wellbore name
RigName     .  : Rig name
StartDate   .  : Start date

~Curves
DEPTH.m            .  : null {F}Depth mMD
Hole_ID.-          .  : null {S}Hole ID
GR.API             .  : null {F}Gamma Ray
Lithology1.-       .  : null {S}Lithology 1
Lithology2.-       .  : null {S}Lithology 2
Lithology3.-       .  : null {S}Lithology 3
Lithology1.%       .  : null {F}Lithology 1 percentage
Lithology2.%       .  : null {F}Lithology 2 percentage
Lithology3.%       .  : null {F}Lithology 3 percentage
Grain_size_Top.-   .  : null {S}Grain size at the top 
Grain_size_Base.-  .  : null {S}Grain size at the bottom
Sub_Environment.-  .  : null {S}Sub Environment
Gross_Environment.-.  : null {S}Gross Environment

~Ascii
# ...
2472.8 "6407_2-3"  57.8700 "Sandstone" "Limestone" -999.25    85.0000 15.00000      0.0 "m"            "c/vc"         "LOBESKIFTE__Braid-delta_munningsbanke_Proksimal_utvikling"                                  "Braid-delta_front"                      
2472.9 "6407_2-3"  57.7200 "Sandstone" "Limestone" -999.25    85.0000 15.00000      0.0 "m"            "c/vc"         "LOBESKIFTE__Braid-delta_munningsbanke_Proksimal_utvikling"                                  "Braid-delta_front"                      
2473.0 "6407_2-3"  57.5700 "Sandstone" "Limestone" -999.25    85.0000 15.00000      0.0 "m"            "c/vc"         "LOBESKIFTE__Braid-delta_munningsbanke_Proksimal_utvikling"                                  "Braid-delta_front"                      
2473.1 "6407_2-3"  57.4200 "Sandstone" "Limestone" -999.25    85.0000 15.00000      0.0 "m"            "c/vc"         "LOBESKIFTE__Braid-delta_munningsbanke_Proksimal_utvikling"                                  "Braid-delta_front"                      
2473.2 "6407_2-3"  57.4900 "Sandstone" "Limestone" -999.25    85.0000 15.00000      0.0 "m"            "c/vc"         "LOBESKIFTE__Braid-delta_munningsbanke_Proksimal_utvikling"                                  "Braid-delta_front"                      
2473.3 "6407_2-3"  57.6100 "Sandstone" "Limestone" -999.25    85.0000 15.00000      0.0 "m"            "c/vc"         "LOBESKIFTE__Braid-delta_munningsbanke_Proksimal_utvikling"                                  "Braid-delta_front"                      
2473.4 "6407_2-3"  57.7400 "Sandstone" "Limestone" -999.25    85.0000 15.00000      0.0 "m"            "c/vc"         "LOBESKIFTE__Braid-delta_munningsbanke_Proksimal_utvikling"                                  "Braid-delta_front"                      
2473.5 "6407_2-3"  57.6500 "Sandstone" "Limestone" -999.25    85.0000 15.00000      0.0 "m"            "c/vc"         "LOBESKIFTE__Braid-delta_munningsbanke_Proksimal_utvikling"                                  "Braid-delta_front"                      
2473.6 "6407_2-3"  57.4800 "Sandstone" "Limestone" -999.25    85.0000 15.00000      0.0 "m"            "c/vc"         "LOBESKIFTE__Braid-delta_munningsbanke_Proksimal_utvikling"                                  "Braid-delta_front"                      
2473.7 "6407_2-3"  57.1200 "Sandstone" "Limestone" -999.25    85.0000 15.00000      0.0 "m"            "c/vc"         "LOBESKIFTE__Braid-delta_munningsbanke_Proksimal_utvikling"                                  "Braid-delta_front"                      
2473.8 "6407_2-3"  56.7400 "Sandstone" "Limestone" -999.25    85.0000 15.00000      0.0 "m"            "c/vc"         "LOBESKIFTE__Braid-delta_munningsbanke_Proksimal_utvikling"                                  "Braid-delta_front"                      
2473.9 "6407_2-3"  56.5600 "Sandstone" "Limestone" -999.25    85.0000 15.00000      0.0 "m"            "c/vc"         "LOBESKIFTE__Braid-delta_munningsbanke_Proksimal_utvikling"                                  "Braid-delta_front"                      
2474.0 "6407_2-3"  56.6100 "Sandstone" "Limestone" -999.25    85.0000 15.00000      0.0 "m"            "c/vc"         "LOBESKIFTE__Braid-delta_munningsbanke_Proksimal_utvikling"                                  "Braid-delta_front"                      
2474.1 "6407_2-3"  56.6600 "Sandstone" "Limestone" -999.25    85.0000 15.00000      0.0 "m"            "c/vc"         "LOBESKIFTE__Braid-delta_munningsbanke_Proksimal_utvikling"                                  "Braid-delta_front"                      
2474.2 "6407_2-3"  56.9200 "Sandstone" "Limestone" -999.25    85.0000 15.00000      0.0 "m"            "c/vc"         "LOBESKIFTE__Braid-delta_munningsbanke_Proksimal_utvikling"                                  "Braid-delta_front"                      
2474.3 "6407_2-3"  57.4900 "Sandstone" "Limestone" -999.25    85.0000 15.00000      0.0 "m"            "c/vc"         "LOBESKIFTE__Braid-delta_munningsbanke_Proksimal_utvikling"                                  "Braid-delta_front"                      
2474.4 "6407_2-3"  58.0600 "Sandstone" "Limestone" -999.25    85.0000 15.00000      0.0 "m"            "c/vc"         "LOBESKIFTE__Braid-delta_munningsbanke_Proksimal_utvikling"                                  "Braid-delta_front"                      
2474.5 "6407_2-3"  58.6300 "Sandstone" "Limestone" -999.25    85.0000 15.00000      0.0 "m"            "c/vc"         "LOBESKIFTE__Braid-delta_munningsbanke_Proksimal_utvikling"                                  "Braid-delta_front"                      
2474.6 "6407_2-3"  59.2800 "Sandstone" "Limestone" -999.25    85.0000 15.00000      0.0 "m"            "c/vc"         "LOBESKIFTE__Braid-delta_munningsbanke_Proksimal_utvikling"                                  "Braid-delta_front"                      
2474.7 "6407_2-3"  59.9500 "Sandstone" "Limestone" -999.25    85.0000 15.00000      0.0 "m"            "c/vc"         "LOBESKIFTE__Braid-delta_munningsbanke_Proksimal_utvikling"                                  "Braid-delta_front"                      
2474.8 "6407_2-3"  60.6200 "Sandstone" "Limestone" -999.25    85.0000 15.00000      0.0 "m"            "c/vc"         "LOBESKIFTE__Braid-delta_munningsbanke_Proksimal_utvikling"                                  "Braid-delta_front"                      
2474.9 "6407_2-3"  61.2900 "Sandstone" "Limestone" -999.25    85.0000 15.00000      0.0 "m"            "c/vc"         "LOBESKIFTE__Braid-delta_munningsbanke_Proksimal_utvikling"                                  "Braid-delta_front"                      
2475.0 "6407_2-3"  61.8100 "Sandstone" "Limestone" -999.25    85.0000 15.00000      0.0 "m"            "c/vc"         "LOBESKIFTE__Braid-delta_munningsbanke_Proksimal_utvikling"                                  "Braid-delta_front"                      
2475.1 "6407_2-3"  62.2300 "Sandstone" "Limestone" -999.25    85.0000 15.00000      0.0 "m"            "c/vc"         "LOBESKIFTE__Braid-delta_munningsbanke_Proksimal_utvikling"                                  "Braid-delta_front"                      
2475.2 "6407_2-3"  62.6500 "Sandstone" "Limestone" -999.25    85.0000 15.00000      0.0 "m"            "c/vc"         "LOBESKIFTE__Braid-delta_munningsbanke_Proksimal_utvikling"                                  "Braid-delta_front"                      
2475.3 "6407_2-3"  63.0700 "Sandstone" "Limestone" -999.25    85.0000 15.00000      0.0 "m"            "c/vc"         "LOBESKIFTE__Braid-delta_munningsbanke_Proksimal_utvikling"                                  "Braid-delta_front"                      
2475.4 "6407_2-3"  62.8400 "Sandstone" "Limestone" -999.25    85.0000 15.00000      0.0 "m"            "c/vc"         "LOBESKIFTE__Braid-delta_munningsbanke_Proksimal_utvikling"                                  "Braid-delta_front"                      
2475.5 "6407_2-3"  62.1300 "Sandstone" "Limestone" -999.25    85.0000 15.00000      0.0 "m"            "c/vc"         "LOBESKIFTE__Braid-delta_munningsbanke_Proksimal_utvikling"                                  "Braid-delta_front"                      
2475.6 "6407_2-3"  61.8900 "Sandstone" "Limestone" -999.25    85.0000 15.00000      0.0 "m"            "c/vc"         "LOBESKIFTE__Braid-delta_munningsbanke_Proksimal_utvikling"                                  "Braid-delta_front"                      
2475.7 "6407_2-3"  61.9900 "Sandstone" "Limestone" -999.25    85.0000 15.00000      0.0 "m"            "c/vc"         "LOBESKIFTE__Braid-delta_munningsbanke_Proksimal_utvikling"                                  "Braid-delta_front"                      
2475.8 "6407_2-3"  62.0900 "Sandstone" -999.25   -999.25   100.0000      0.0      0.0 "c/vc"         "c/vc"         "LOBESKIFTE__Braid-delta_munningsbanke_Proksimal_utvikling"                                  "Braid-delta_front"                      
2475.9 "6407_2-3"  61.7800 "Sandstone" -999.25   -999.25   100.0000      0.0      0.0 "c/vc"         "c/vc"         "LOBESKIFTE__Braid-delta_munningsbanke_Proksimal_utvikling"                                  "Braid-delta_front"                      
