~Version
VERS  .                                 3.0 : CWLS LAS ASCII Standard - Version 3.0
WRAP  . NO                                  : One line per depth step
DLM   . SPACE                               : Column data section delimiter
SOURCE. Converted to LAS by Log Studio 4.76 : GeoProvider

~Well
STRT.         2428.0 : Start depth
STOP.         2769.0 : Stop depth
STEP.              1 : Step
NULL.        -999.25 : No-value
COMP.                : Company
WELL. 6407/2-3       : Well
FLD .                : Field
LOC .                : Location
LATI.                : Latitude
LONG.                : Longitude
GDAT.                : Geodetic datum
CNTY.                : County
STAT.                : State
CTRY.                : Country
SRVC. GeoProvider AS : Service company
DATE.                : Date
API .                : API number
RUN .                : Run number

~Parameters
WellboreName.  : Wellbore name
RigName     .  : Rig name
StartDate   .  : Start date

~Curves
DEPTH.m            .  : null {F}Depth mMD
Hole_ID.-          .  : null {S}Hole ID
GR.API             .  : null {F}Gamma Ray
Lithology1.-       .  : null {S}Lithology 1
Lithology2.-       .  : null {S}Lithology 2
Lithology3.-       .  : null {S}Lithology 3
Lithology1.%       .  : null {F}Lithology 1 percentage
Lithology2.%       .  : null {F}Lithology 2 percentage
Lithology3.%       .  : null {F}Lithology 3 percentage
Grain_size_Top.-   .  : null {S}Grain size at the top 
Grain_size_Base.-  .  : null {S}Grain size at the bottom
Sub_Environment.-  .  : null {S}Sub Environment
Gross_Environment.-.  : null {S}Gross Environment

~Ascii
# ...
2495.2 "6407_2-3" 110.4500 "Sandstone" "Shale"   -999.25    15.0000 85.00000      0.0 "silt/vf"      "silt/vf"      "Apen_marin_Distale_facies_lav_energi_(Prodelta)"                                            "Prodelta"                               
2495.3 "6407_2-3" 109.6200 "Sandstone" "Shale"   -999.25    15.0000 85.00000      0.0 "silt/vf"      "silt/vf"      "Apen_marin_Distale_facies_lav_energi_(Prodelta)"                                            "Prodelta"                               
2495.4 "6407_2-3" 108.7700 "Sandstone" "Shale"   -999.25    15.0000 85.00000      0.0 "silt/vf"      "silt/vf"      "Apen_marin_Distale_facies_lav_energi_(Prodelta)"                                            "Prodelta"                               
2495.5 "6407_2-3" 106.2000 "Sandstone" "Shale"   -999.25    15.0000 85.00000      0.0 "silt/vf"      "silt/vf"      "Apen_marin_Distale_facies_lav_energi_(Prodelta)"                                            "Prodelta"                               
2495.6 "6407_2-3" 102.7600 "Sandstone" "Shale"   -999.25    15.0000 85.00000      0.0 "silt/vf"      "silt/vf"      "Apen_marin_Distale_facies_lav_energi_(Prodelta)"                                            "Prodelta"                               
2495.7 "6407_2-3"  99.8100 "Sandstone" "Shale"   -999.25    15.0000 85.00000      0.0 "silt/vf"      "silt/vf"      "Apen_marin_Distale_facies_lav_energi_(Prodelta)"                                            "Prodelta"                               
2495.8 "6407_2-3"  97.2800 "Sandstone" "Shale"   -999.25    15.0000 85.00000      0.0 "silt/vf"      "silt/vf"      "Apen_marin_Distale_facies_lav_energi_(Prodelta)"                                            "Prodelta"                               
2495.9 "6407_2-3"  94.8600 "Sandstone" "Shale"   -999.25    15.0000 85.00000      0.0 "silt/vf"      "silt/vf"      "Apen_marin_Distale_facies_lav_energi_(Prodelta)"                                            "Prodelta"                               
2496.0 "6407_2-3"  92.4400 "Sandstone" "Shale"   -999.25    15.0000 85.00000      0.0 "silt/vf"      "silt/vf"      "Apen_marin_Distale_facies_lav_energi_(Prodelta)"                                            "Prodelta"                               
2496.1 "6407_2-3"  91.4800 "Sandstone" "Shale"   -999.25    15.0000 85.00000      0.0 "silt/vf"      "silt/vf"      "Apen_marin_Distale_facies_lav_energi_(Prodelta)"                                            "Prodelta"                               
2496.2 "6407_2-3"  91.1200 "Sandstone" "Shale"   -999.25    15.0000 85.00000      0.0 "silt/vf"      "silt/vf"      "Apen_marin_Distale_facies_lav_energi_(Prodelta)"                                            "Prodelta"                               
2496.3 "6407_2-3"  91.0800 "Sandstone" "Shale"   -999.25    15.0000 85.00000      0.0 "silt/vf"      "silt/vf"      "Apen_marin_Distale_facies_lav_energi_(Prodelta)"                                            "Prodelta"                               
2496.4 "6407_2-3"  91.1200 "Sandstone" "Shale"   -999.25    15.0000 85.00000      0.0 "silt/vf"      "silt/vf"      "Apen_marin_Distale_facies_lav_energi_(Prodelta)"                                            "Prodelta"                               
2496.5 "6407_2-3"  90.5200 "Sandstone" "Shale"   -999.25    15.0000 85.00000      0.0 "silt/vf"      "silt/vf"      "Apen_marin_Distale_facies_lav_energi_(Prodelta)"                                            "Prodelta"                               
2496.6 "6407_2-3"  89.0500 "Sandstone" "Shale"   -999.25    15.0000 85.00000      0.0 "silt/vf"      "silt/vf"      "Apen_marin_Distale_facies_lav_energi_(Prodelta)"                                            "Prodelta"                               
2496.7 "6407_2-3"  87.7900 "Sandstone" "Shale"   -999.25    15.0000 85.00000      0.0 "silt/vf"      "silt/vf"      "Apen_marin_Distale_facies_lav_energi_(Prodelta)"                                            "Prodelta"                               
2496.8 "6407_2-3"  87.4600 "Sandstone" "Shale"   -999.25    15.0000 85.00000      0.0 "silt/vf"      "silt/vf"      "Apen_marin_Distale_facies_lav_energi_(Prodelta)"                                            "Prodelta"                               
2496.9 "6407_2-3"  88.5800 "Sandstone" "Shale"   -999.25    15.0000 85.00000      0.0 "silt/vf"      "silt/vf"      "Apen_marin_Distale_facies_lav_energi_(Prodelta)"                                            "Prodelta"                               
2497.0 "6407_2-3"  90.9900 "Sandstone" "Shale"   -999.25    15.0000 85.00000      0.0 "silt/vf"      "silt/vf"      "Apen_marin_Distale_facies_lav_energi_(Prodelta)"                                            "Prodelta"                               
2497.1 "6407_2-3"  93.6500 "Sandstone" "Shale"   -999.25    15.0000 85.00000      0.0 "silt/vf"      "silt/vf"      "Apen_marin_Distale_facies_lav_energi_(Prodelta)"                                            "Prodelta"                               
2497.2 "6407_2-3"  96.0900 "Sandstone" "Shale"   -999.25    15.0000 85.00000      0.0 "silt/vf"      "silt/vf"      "Apen_marin_Distale_facies_lav_energi_(Prodelta)"                                            "Prodelta"                               
2497.3 "6407_2-3"  97.7500 "Sandstone" "Shale"   -999.25    15.0000 85.00000      0.0 "silt/vf"      "silt/vf"      "Apen_marin_Distale_facies_lav_energi_(Prodelta)"                                            "Prodelta"                               
2497.4 "6407_2-3"  98.6100 "Sandstone" "Shale"   -999.25    15.0000 85.00000      0.0 "silt/vf"      "silt/vf"      "Apen_marin_Distale_facies_lav_energi_(Prodelta)"                                            "Prodelta"                               
2497.5 "6407_2-3"  99.3500 "Sandstone" "Shale"   -999.25    15.0000 85.00000      0.0 "silt/vf"      "silt/vf"      "Apen_marin_Distale_facies_lav_energi_(Prodelta)"                                            "Prodelta"                               
2497.6 "6407_2-3"  98.4600 "Sandstone" "Shale"   -999.25    15.0000 85.00000      0.0 "silt/vf"      "silt/vf"      "Apen_marin_Distale_facies_lav_energi_(Prodelta)"                                            "Prodelta"                               
2497.7 "6407_2-3"  97.3700 "Sandstone" "Shale"   -999.25    15.0000 85.00000      0.0 "silt/vf"      "silt/vf"      "Apen_marin_Distale_facies_lav_energi_(Prodelta)"                                            "Prodelta"                               
2497.8 "6407_2-3"  96.1200 "Sandstone" "Shale"   -999.25    15.0000 85.00000      0.0 "silt/vf"      "silt/vf"      "Apen_marin_Distale_facies_lav_energi_(Prodelta)"                                            "Prodelta"                               
2497.9 "6407_2-3"  94.8800 "Sandstone" "Shale"   -999.25    15.0000 85.00000      0.0 "silt/vf"      "silt/vf"      "Apen_marin_Distale_facies_lav_energi_(Prodelta)"                                            "Prodelta"                               
2498.0 "6407_2-3"  93.6400 "Sandstone" "Shale"   -999.25    15.0000 85.00000      0.0 "silt/vf"      "silt/vf"      "Apen_marin_Distale_facies_lav_energi_(Prodelta)"                                            "Prodelta"                               
2498.1 "6407_2-3"  92.7100 "Sandstone" "Shale"   -999.25    15.0000 85.00000      0.0 "silt/vf"      "silt/vf"      "Apen_marin_Distale_facies_lav_energi_(Prodelta)"                                            "Prodelta"                               
2498.2 "6407_2-3"  93.0300 "Sandstone" "Shale"   -999.25    15.0000 85.00000      0.0 "silt/vf"      "silt/vf"      "Apen_marin_Distale_facies_lav_energi_(Prodelta)"                                            "Prodelta"                               
2498.3 "6407_2-3"  94.7800 "Sandstone" "Shale"   -999.25    15.0000 85.00000      0.0 "silt/vf"      "silt/vf"      "Apen_marin_Distale_facies_lav_energi_(Prodelta)"                                            "Prodelta"                               
