~Version
VERS  .                                 3.0 : CWLS LAS ASCII Standard - Version 3.0
WRAP  . NO                                  : One line per depth step
DLM   . SPACE                               : Column data section delimiter
SOURCE. Converted to LAS by Log Studio 4.76 : GeoProvider

~Well
STRT.         2428.0 : Start depth
STOP.         2769.0 : Stop depth
STEP.              1 : Step
NULL.        -999.25 : No-value
COMP.                : Company
WELL. 6407/2-3       : Well
FLD .                : Field
LOC .                : Location
LATI.                : Latitude
LONG.                : Longitude
GDAT.                : Geodetic datum
CNTY.                : County
STAT.                : State
CTRY.                : Country
SRVC. GeoProvider AS : Service company
DATE.                : Date
API .                : API number
RUN .                : Run number

~Parameters
WellboreName.  : Wellbore name
RigName     .  : Rig name
StartDate   .  : Start date

~Curves
DEPTH.m            .  : null {F}Depth mMD
Hole_ID.-          .  : null {S}Hole ID
GR.API             .  : null {F}Gamma Ray
Lithology1.-       .  : null {S}Lithology 1
Lithology2.-       .  : null {S}Lithology 2
Lithology3.-       .  : null {S}Lithology 3
Lithology1.%       .  : null {F}Lithology 1 percentage
Lithology2.%       .  : null {F}Lithology 2 percentage
Lithology3.%       .  : null {F}Lithology 3 percentage
Grain_size_Top.-   .  : null {S}Grain size at the top 
Grain_size_Base.-  .  : null {S}Grain size at the bottom
Sub_Environment.-  .  : null {S}Sub Environment
Gross_Environment.-.  : null {S}Gross Environment

~Ascii
# ...
2508.0 "6407_2-3"  96.3800 "Sandstone" "Shale"   -999.25    10.0000 90.00000      0.0 "silt"         "silt"         "Apen_marin_Distale_facies_lav_energi_(Prodelta)"                                            "Prodelta"                               
2508.1 "6407_2-3"  95.5700 "Sandstone" "Shale"   -999.25    10.0000 90.00000      0.0 "silt"         "silt"         "Apen_marin_Distale_facies_lav_energi_(Prodelta)"                                            "Prodelta"                               
2508.2 "6407_2-3"  91.0600 "Sandstone" "Shale"   -999.25    10.0000 90.00000      0.0 "silt"         "silt"         "Apen_marin_Distale_facies_lav_energi_(Prodelta)"                                            "Prodelta"                               
2508.3 "6407_2-3"  88.6000 "Sandstone" "Shale"   -999.25    10.0000 90.00000      0.0 "silt"         "silt"         "Apen_marin_Distale_facies_lav_energi_(Prodelta)"                                            "Prodelta"                               
2508.4 "6407_2-3"  86.2000 "Sandstone" "Shale"   -999.25    10.0000 90.00000      0.0 "silt"         "silt"         "Apen_marin_Distale_facies_lav_energi_(Prodelta)"                                            "Prodelta"                               
2508.5 "6407_2-3"  83.9200 "Sandstone" "Shale"   -999.25    10.0000 90.00000      0.0 "silt"         "silt"         "Apen_marin_Distale_facies_lav_energi_(Prodelta)"                                            "Prodelta"                               
2508.6 "6407_2-3"  81.5300 "Sandstone" "Shale"   -999.25    10.0000 90.00000      0.0 "silt"         "silt"         "Apen_marin_Distale_facies_lav_energi_(Prodelta)"                                            "Prodelta"                               
2508.7 "6407_2-3"  75.6400 "Sandstone" "Shale"   -999.25    10.0000 90.00000      0.0 "silt"         "silt"         "Apen_marin_Distale_facies_lav_energi_(Prodelta)"                                            "Prodelta"                               
2508.8 "6407_2-3"  72.3100 "Sandstone" "Shale"   -999.25    10.0000 90.00000      0.0 "silt"         "silt"         "Apen_marin_Distale_facies_lav_energi_(Prodelta)"                                            "Prodelta"                               
2508.9 "6407_2-3"  71.0700 "Sandstone" "Shale"   -999.25    10.0000 90.00000      0.0 "silt"         "silt"         "Apen_marin_Distale_facies_lav_energi_(Prodelta)"                                            "Prodelta"                               
2509.0 "6407_2-3"  69.8300 "Sandstone" "Shale"   -999.25    10.0000 90.00000      0.0 "silt"         "silt"         "Apen_marin_Distale_facies_lav_energi_(Prodelta)"                                            "Prodelta"                               
2509.1 "6407_2-3"  68.3700 "Sandstone" "Shale"   -999.25    10.0000 90.00000      0.0 "silt"         "silt"         "TRANSGRESSION_Proksimal_buktavsetninger"                                                    "Delta_slette"                           
2509.2 "6407_2-3"  66.9200 "Sandstone" "Shale"   -999.25    10.0000 90.00000      0.0 "silt"         "silt"         "TRANSGRESSION_Proksimal_buktavsetninger"                                                    "Delta_slette"                           
2509.3 "6407_2-3"  66.5100 "Sandstone" "Shale"   -999.25    10.0000 90.00000      0.0 "silt"         "silt"         "TRANSGRESSION_Proksimal_buktavsetninger"                                                    "Delta_slette"                           
2509.4 "6407_2-3"  66.0900 "Sandstone" -999.25   -999.25   100.0000      0.0      0.0 "vc"           "vc"           "TRANSGRESSION_Proksimal_buktavsetninger"                                                    "Delta_slette"                           
2509.5 "6407_2-3"  65.6700 "Sandstone" -999.25   -999.25   100.0000      0.0      0.0 "vc"           "vc"           "TRANSGRESSION_Proksimal_buktavsetninger"                                                    "Delta_slette"                           
2509.6 "6407_2-3"  65.2500 "Sandstone" -999.25   -999.25   100.0000      0.0      0.0 "vc"           "vc"           "TRANSGRESSION_Proksimal_buktavsetninger"                                                    "Delta_slette"                           
2509.7 "6407_2-3"  64.7100 "Sandstone" -999.25   -999.25   100.0000      0.0      0.0 "vc"           "vc"           "TRANSGRESSION_Proksimal_buktavsetninger"                                                    "Delta_slette"                           
2509.8 "6407_2-3"  64.1600 "Sandstone" -999.25   -999.25   100.0000      0.0      0.0 "vc"           "vc"           "TRANSGRESSION_Proksimal_buktavsetninger"                                                    "Delta_slette"                           
2509.9 "6407_2-3"  63.6100 "Sandstone" -999.25   -999.25   100.0000      0.0      0.0 "vc"           "vc"           "TRANSGRESSION_Proksimal_buktavsetninger"                                                    "Delta_slette"                           
2510.0 "6407_2-3"  63.5200 "Sandstone" -999.25   -999.25   100.0000      0.0      0.0 "vc"           "vc"           "TRANSGRESSION_Proksimal_buktavsetninger"                                                    "Delta_slette"                           
2510.1 "6407_2-3"  63.5500 "Sandstone" -999.25   -999.25   100.0000      0.0      0.0 "vc"           "vc"           "TRANSGRESSION_Proksimal_buktavsetninger"                                                    "Delta_slette"                           
2510.2 "6407_2-3"  63.5100 "Sandstone" -999.25   -999.25   100.0000      0.0      0.0 "c/vc"         "vc"           "TRANSGRESSION_Proksimal_buktavsetninger"                                                    "Delta_slette"                           
2510.3 "6407_2-3"  63.2600 "Sandstone" -999.25   -999.25   100.0000      0.0      0.0 "c/vc"         "vc"           "TRANSGRESSION_Proksimal_buktavsetninger"                                                    "Delta_slette"                           
2510.4 "6407_2-3"  63.0100 "Sandstone" -999.25   -999.25   100.0000      0.0      0.0 "c/vc"         "vc"           "TRANSGRESSION_Proksimal_buktavsetninger"                                                    "Delta_slette"                           
2510.5 "6407_2-3"  62.5700 "Sandstone" -999.25   -999.25   100.0000      0.0      0.0 "c/vc"         "vc"           "TRANSGRESSION_Proksimal_buktavsetninger"                                                    "Delta_slette"                           
2510.6 "6407_2-3"  61.9000 "Sandstone" -999.25   -999.25   100.0000      0.0      0.0 "c/vc"         "vc"           "TRANSGRESSION_Proksimal_buktavsetninger"                                                    "Delta_slette"                           
2510.7 "6407_2-3"  61.5000 "Sandstone" -999.25   -999.25   100.0000      0.0      0.0 "c/vc"         "vc"           "TRANSGRESSION_Proksimal_buktavsetninger"                                                    "Delta_slette"                           
2510.8 "6407_2-3"  61.3700 "Sandstone" -999.25   -999.25   100.0000      0.0      0.0 "c/vc"         "vc"           "TRANSGRESSION_Proksimal_buktavsetninger"                                                    "Delta_slette"                           
2510.9 "6407_2-3"  62.4400 "Sandstone" -999.25   -999.25   100.0000      0.0      0.0 "c/vc"         "vc"           "TRANSGRESSION_Proksimal_buktavsetninger"                                                    "Delta_slette"                           
2511.0 "6407_2-3"  64.3900 "Sandstone" -999.25   -999.25   100.0000      0.0      0.0 "c/vc"         "vc"           "TRANSGRESSION_Proksimal_buktavsetninger"                                                    "Delta_slette"                           
2511.1 "6407_2-3"  66.8700 "Sandstone" -999.25   -999.25   100.0000      0.0      0.0 "c/vc"         "vc"           "TRANSGRESSION_Proksimal_buktavsetninger"                                                    "Delta_slette"                           
