~Version
VERS  .                                 3.0 : CWLS LAS ASCII Standard - Version 3.0
WRAP  . NO                                  : One line per depth step
DLM   . SPACE                               : Column data section delimiter
SOURCE. Converted to LAS by Log Studio 4.76 : GeoProvider

~Well
STRT.         2428.0 : Start depth
STOP.         2769.0 : Stop depth
STEP.              1 : Step
NULL.        -999.25 : No-value
COMP.                : Company
WELL. 6407/2-3       : Well
FLD .                : Field
LOC .                : Location
LATI.                : Latitude
LONG.                : Longitude
GDAT.                : Geodetic datum
CNTY.                : County
STAT.                : State
CTRY.                : Country
SRVC. GeoProvider AS : Service company
DATE.                : Date
API .                : API number
RUN .                : Run number

~Parameters
WellboreName.  : Wellbore name
RigName     .  : Rig name
StartDate   .  : Start date

~Curves
DEPTH.m            .  : null {F}Depth mMD
Hole_ID.-          .  : null {S}Hole ID
GR.API             .  : null {F}Gamma Ray
Lithology1.-       .  : null {S}Lithology 1
Lithology2.-       .  : null {S}Lithology 2
Lithology3.-       .  : null {S}Lithology 3
Lithology1.%       .  : null {F}Lithology 1 percentage
Lithology2.%       .  : null {F}Lithology 2 percentage
Lithology3.%       .  : null {F}Lithology 3 percentage
Grain_size_Top.-   .  : null {S}Grain size at the top 
Grain_size_Base.-  .  : null {S}Grain size at the bottom
Sub_Environment.-  .  : null {S}Sub Environment
Gross_Environment.-.  : null {S}Gross Environment

~Ascii
# ...
2450.4 "6407_2-3"  70.2300 "Sandstone" "Shale"   -999.25    97.0000  3.00000      0.0 "m/c"          "m/c"          "Transgression_Vertikal_og_lateral_utbygging_av_proksimal_braid-delta_munnings-banke"        "Braid-delta_front"                      
2450.5 "6407_2-3"  70.1900 "Sandstone" "Shale"   -999.25    97.0000  3.00000      0.0 "m/c"          "m/c"          "Transgression_Vertikal_og_lateral_utbygging_av_proksimal_braid-delta_munnings-banke"        "Braid-delta_front"                      
2450.6 "6407_2-3"  70.1600 "Sandstone" "Shale"   -999.25    97.0000  3.00000      0.0 "m/c"          "m/c"          "Transgression_Vertikal_og_lateral_utbygging_av_proksimal_braid-delta_munnings-banke"        "Braid-delta_front"                      
2450.7 "6407_2-3"  70.1200 "Sandstone" "Shale"   -999.25    97.0000  3.00000      0.0 "m/c"          "m/c"          "Transgression_Vertikal_og_lateral_utbygging_av_proksimal_braid-delta_munnings-banke"        "Braid-delta_front"                      
2450.8 "6407_2-3"  70.0800 "Sandstone" "Shale"   -999.25    97.0000  3.00000      0.0 "m/c"          "m/c"          "Transgression_Vertikal_og_lateral_utbygging_av_proksimal_braid-delta_munnings-banke"        "Braid-delta_front"                      
2450.9 "6407_2-3"  70.0500 "Sandstone" "Shale"   -999.25    97.0000  3.00000      0.0 "m/c"          "m/c"          "Transgression_Vertikal_og_lateral_utbygging_av_proksimal_braid-delta_munnings-banke"        "Braid-delta_front"                      
2451.0 "6407_2-3"  70.0100 "Sandstone" "Shale"   -999.25    97.0000  3.00000      0.0 "m/c"          "m/c"          "Transgression_Vertikal_og_lateral_utbygging_av_proksimal_braid-delta_munnings-banke"        "Braid-delta_front"                      
2451.1 "6407_2-3"  70.0200 "Sandstone" "Shale"   -999.25    97.0000  3.00000      0.0 "m/c"          "m/c"          "Transgression_Vertikal_og_lateral_utbygging_av_proksimal_braid-delta_munnings-banke"        "Braid-delta_front"                      
2451.2 "6407_2-3"  70.2900 "Sandstone" "Shale"   -999.25    97.0000  3.00000      0.0 "m/c"          "m/c"          "Transgression_Vertikal_og_lateral_utbygging_av_proksimal_braid-delta_munnings-banke"        "Braid-delta_front"                      
2451.3 "6407_2-3"  70.5600 "Sandstone" "Shale"   -999.25    97.0000  3.00000      0.0 "m/c"          "m/c"          "Transgression_Vertikal_og_lateral_utbygging_av_proksimal_braid-delta_munnings-banke"        "Braid-delta_front"                      
2451.4 "6407_2-3"  70.9100 "Sandstone" "Shale"   -999.25    97.0000  3.00000      0.0 "m/c"          "m/c"          "Transgression_Vertikal_og_lateral_utbygging_av_proksimal_braid-delta_munnings-banke"        "Braid-delta_front"                      
2451.5 "6407_2-3"  71.4300 "Sandstone" "Shale"   -999.25    97.0000  3.00000      0.0 "m/c"          "m/c"          "Transgression_Vertikal_og_lateral_utbygging_av_proksimal_braid-delta_munnings-banke"        "Braid-delta_front"                      
2451.6 "6407_2-3"  71.9500 "Sandstone" "Shale"   -999.25    97.0000  3.00000      0.0 "m/c"          "m/c"          "Transgression_Vertikal_og_lateral_utbygging_av_proksimal_braid-delta_munnings-banke"        "Braid-delta_front"                      
2451.7 "6407_2-3"  72.4900 "Sandstone" "Shale"   -999.25    97.0000  3.00000      0.0 "m/c"          "m/c"          "Transgression_Vertikal_og_lateral_utbygging_av_proksimal_braid-delta_munnings-banke"        "Braid-delta_front"                      
2451.8 "6407_2-3"  73.0900 "Sandstone" "Shale"   -999.25    97.0000  3.00000      0.0 "m/c"          "m/c"          "Transgression_Vertikal_og_lateral_utbygging_av_proksimal_braid-delta_munnings-banke"        "Braid-delta_front"                      
2451.9 "6407_2-3"  73.2800 "Sandstone" "Shale"   -999.25    97.0000  3.00000      0.0 "m/c"          "m/c"          "Transgression_Vertikal_og_lateral_utbygging_av_proksimal_braid-delta_munnings-banke"        "Braid-delta_front"                      
2452.0 "6407_2-3"  73.2600 "Sandstone" "Shale"   -999.25    97.0000  3.00000      0.0 "m/c"          "m/c"          "Transgression_Vertikal_og_lateral_utbygging_av_proksimal_braid-delta_munnings-banke"        "Braid-delta_front"                      
2452.1 "6407_2-3"  73.2300 "Sandstone" "Shale"   -999.25    97.0000  3.00000      0.0 "m/c"          "m/c"          "Transgression_Vertikal_og_lateral_utbygging_av_proksimal_braid-delta_munnings-banke"        "Braid-delta_front"                      
2452.2 "6407_2-3"  72.9400 "Sandstone" "Shale"   -999.25    97.0000  3.00000      0.0 "m/c"          "m/c"          "Transgression_Vertikal_og_lateral_utbygging_av_proksimal_braid-delta_munnings-banke"        "Braid-delta_front"                      
2452.3 "6407_2-3"  72.0800 "Sandstone" "Shale"   -999.25    97.0000  3.00000      0.0 "m/c"          "m/c"          "Transgression_Vertikal_og_lateral_utbygging_av_proksimal_braid-delta_munnings-banke"        "Braid-delta_front"                      
2452.4 "6407_2-3"  70.9900 "Sandstone" "Shale"   -999.25    97.0000  3.00000      0.0 "m/c"          "m/c"          "Transgression_Vertikal_og_lateral_utbygging_av_proksimal_braid-delta_munnings-banke"        "Braid-delta_front"                      
2452.5 "6407_2-3"  69.9000 "Sandstone" "Shale"   -999.25    97.0000  3.00000      0.0 "m/c"          "m/c"          "Transgression_Vertikal_og_lateral_utbygging_av_proksimal_braid-delta_munnings-banke"        "Braid-delta_front"                      
2452.6 "6407_2-3"  69.0600 "Sandstone" "Shale"   -999.25    97.0000  3.00000      0.0 "m/c"          "m/c"          "LOBESKIFTE/TRANGRESJON_Braid-delta_munningsbanke"                                           "Braid-delta_front"                      
2452.7 "6407_2-3"  68.2500 "Sandstone" "Shale"   -999.25    97.0000  3.00000      0.0 "m/c"          "m/c"          "LOBESKIFTE/TRANGRESJON_Braid-delta_munningsbanke"                                           "Braid-delta_front"                      
2452.8 "6407_2-3"  67.9300 "Sandstone" "Shale"   -999.25    97.0000  3.00000      0.0 "m/c"          "m/c"          "LOBESKIFTE/TRANGRESJON_Braid-delta_munningsbanke"                                           "Braid-delta_front"                      
2452.9 "6407_2-3"  67.7700 "Sandstone" "Shale"   -999.25    97.0000  3.00000      0.0 "m/c"          "m/c"          "LOBESKIFTE/TRANGRESJON_Braid-delta_munningsbanke"                                           "Braid-delta_front"                      
2453.0 "6407_2-3"  67.7300 "Sandstone" "Shale"   -999.25    97.0000  3.00000      0.0 "m/c"          "m/c"          "LOBESKIFTE/TRANGRESJON_Braid-delta_munningsbanke"                                           "Braid-delta_front"                      
2453.1 "6407_2-3"  67.7100 "Sandstone" "Shale"   -999.25    95.0000  5.00000      0.0 "m/c"          "m/c"          "LOBESKIFTE/TRANGRESJON_Braid-delta_munningsbanke"                                           "Braid-delta_front"                      
2453.2 "6407_2-3"  67.6900 "Sandstone" "Shale"   -999.25    95.0000  5.00000      0.0 "m/c"          "m/c"          "LOBESKIFTE/TRANGRESJON_Braid-delta_munningsbanke"                                           "Braid-delta_front"                      
2453.3 "6407_2-3"  67.6800 "Sandstone" "Shale"   -999.25    95.0000  5.00000      0.0 "m/c"          "m/c"          "LOBESKIFTE/TRANGRESJON_Braid-delta_munningsbanke"                                           "Braid-delta_front"                      
2453.4 "6407_2-3"  67.2300 "Sandstone" "Shale"   -999.25    95.0000  5.00000      0.0 "m/c"          "m/c"          "LOBESKIFTE/TRANGRESJON_Braid-delta_munningsbanke"                                           "Braid-delta_front"                      
2453.5 "6407_2-3"  65.4000 "Sandstone" "Shale"   -999.25    95.0000  5.00000      0.0 "m/c"          "m/c"          "LOBESKIFTE/TRANGRESJON_Braid-delta_munningsbanke"                                           "Braid-delta_front"                      
