~Version
VERS  .                                 3.0 : CWLS LAS ASCII Standard - Version 3.0
WRAP  . NO                                  : One line per depth step
DLM   . SPACE                               : Column data section delimiter
SOURCE. Converted to LAS by Log Studio 4.76 : GeoProvider

~Well
STRT.         2428.0 : Start depth
STOP.         2769.0 : Stop depth
STEP.              1 : Step
NULL.        -999.25 : No-value
COMP.                : Company
WELL. 6407/2-3       : Well
FLD .                : Field
LOC .                : Location
LATI.                : Latitude
LONG.                : Longitude
GDAT.                : Geodetic datum
CNTY.                : County
STAT.                : State
CTRY.                : Country
SRVC. GeoProvider AS : Service company
DATE.                : Date
API .                : API number
RUN .                : Run number

~Parameters
WellboreName.  : Wellbore name
RigName     .  : Rig name
StartDate   .  : Start date

~Curves
DEPTH.m            .  : null {F}Depth mMD
Hole_ID.-          .  : null {S}Hole ID
GR.API             .  : null {F}Gamma Ray
Lithology1.-       .  : null {S}Lithology 1
Lithology2.-       .  : null {S}Lithology 2
Lithology3.-       .  : null {S}Lithology 3
Lithology1.%       .  : null {F}Lithology 1 percentage
Lithology2.%       .  : null {F}Lithology 2 percentage
Lithology3.%       .  : null {F}Lithology 3 percentage
Grain_size_Top.-   .  : null {S}Grain size at the top 
Grain_size_Base.-  .  : null {S}Grain size at the bottom
Sub_Environment.-  .  : null {S}Sub Environment
Gross_Environment.-.  : null {S}Gross Environment

~Ascii
# ...
2552.8 "6407_2-3"  57.2700 "Sandstone" "Shale"   -999.25    85.0000 15.00000      0.0 "c"            "c"            "Subtidal_sandbanke-kompleks_Strand/spit"                                                    "Delta_front/delta_slettekompleks_(estuar)"
2552.9 "6407_2-3"  56.7500 "Sandstone" "Shale"   -999.25    85.0000 15.00000      0.0 "c"            "c"            "Subtidal_sandbanke-kompleks_Strand/spit"                                                    "Delta_front/delta_slettekompleks_(estuar)"
2553.0 "6407_2-3"  55.7500 "Sandstone" "Shale"   -999.25    85.0000 15.00000      0.0 "c"            "c"            "Subtidal_sandbanke-kompleks_Strand/spit"                                                    "Delta_front/delta_slettekompleks_(estuar)"
2553.1 "6407_2-3"  55.1300 "Sandstone" "Shale"   -999.25    85.0000 15.00000      0.0 "c"            "c"            "Subtidal_sandbanke-kompleks_Strand/spit"                                                    "Delta_front/delta_slettekompleks_(estuar)"
2553.2 "6407_2-3"  55.0900 "Sandstone" "Shale"   -999.25    85.0000 15.00000      0.0 "c"            "c"            "Subtidal_sandbanke-kompleks_Strand/spit"                                                    "Delta_front/delta_slettekompleks_(estuar)"
2553.3 "6407_2-3"  55.4500 "Sandstone" "Shale"   -999.25    85.0000 15.00000      0.0 "c"            "c"            "Subtidal_sandbanke-kompleks_Strand/spit"                                                    "Delta_front/delta_slettekompleks_(estuar)"
2553.4 "6407_2-3"  56.3000 "Sandstone" -999.25   -999.25   100.0000      0.0      0.0 -999.25        -999.25        "Subtidal_sandbanke-kompleks_Strand/spit"                                                    "Delta_front/delta_slettekompleks_(estuar)"
2553.5 "6407_2-3"  57.8600 "Sandstone" -999.25   -999.25   100.0000      0.0      0.0 -999.25        -999.25        "Subtidal_sandbanke-kompleks_Strand/spit"                                                    "Delta_front/delta_slettekompleks_(estuar)"
2553.6 "6407_2-3"  58.9500 "Sandstone" -999.25   -999.25   100.0000      0.0      0.0 -999.25        -999.25        "Subtidal_sandbanke-kompleks_Strand/spit"                                                    "Delta_front/delta_slettekompleks_(estuar)"
2553.7 "6407_2-3"  59.4900 -999.25   -999.25   -999.25   100.0000      0.0      0.0 -999.25        -999.25        "Subtidal_sandbanke-kompleks_Strand/spit"                                                    "Delta_front/delta_slettekompleks_(estuar)"
2553.8 "6407_2-3"  59.5500 -999.25   -999.25   -999.25   100.0000      0.0      0.0 -999.25        -999.25        "Subtidal_sandbanke-kompleks_Strand/spit"                                                    "Delta_front/delta_slettekompleks_(estuar)"
2553.9 "6407_2-3"  59.5500 -999.25   -999.25   -999.25   100.0000      0.0      0.0 -999.25        -999.25        "Subtidal_sandbanke-kompleks_Strand/spit"                                                    "Delta_front/delta_slettekompleks_(estuar)"
2554.0 "6407_2-3"  58.9200 "Sandstone" "Shale"   -999.25    85.0000 15.00000      0.0 "vc"           "vc"           "Subtidal_sandbanke-kompleks_Strand/spit"                                                    "Delta_front/delta_slettekompleks_(estuar)"
2554.1 "6407_2-3"  58.6600 "Sandstone" "Shale"   -999.25    85.0000 15.00000      0.0 "vc"           "vc"           "Subtidal_sandbanke-kompleks_Strand/spit"                                                    "Delta_front/delta_slettekompleks_(estuar)"
2554.2 "6407_2-3"  59.1100 "Sandstone" "Shale"   -999.25    85.0000 15.00000      0.0 "vc"           "vc"           "Subtidal_sandbanke-kompleks_Strand/spit"                                                    "Delta_front/delta_slettekompleks_(estuar)"
2554.3 "6407_2-3"  59.7800 "Sandstone" "Shale"   -999.25    85.0000 15.00000      0.0 "vc"           "vc"           "Subtidal_sandbanke-kompleks_Strand/spit"                                                    "Delta_front/delta_slettekompleks_(estuar)"
2554.4 "6407_2-3"  61.1000 "Sandstone" "Shale"   -999.25    85.0000 15.00000      0.0 "vc"           "vc"           "Subtidal_sandbanke-kompleks_Strand/spit"                                                    "Delta_front/delta_slettekompleks_(estuar)"
2554.5 "6407_2-3"  62.6300 "Sandstone" "Shale"   -999.25    85.0000 15.00000      0.0 "vc"           "vc"           "Subtidal_sandbanke-kompleks_Strand/spit"                                                    "Delta_front/delta_slettekompleks_(estuar)"
2554.6 "6407_2-3"  64.9800 "Sandstone" "Shale"   -999.25    85.0000 15.00000      0.0 "vc"           "vc"           "Subtidal_sandbanke-kompleks_Strand/spit"                                                    "Delta_front/delta_slettekompleks_(estuar)"
2554.7 "6407_2-3"  67.1800 "Sandstone" "Shale"   -999.25    85.0000 15.00000      0.0 "vc"           "vc"           "Subtidal_sandbanke-kompleks_Strand/spit"                                                    "Delta_front/delta_slettekompleks_(estuar)"
2554.8 "6407_2-3"  68.6800 "Sandstone" "Shale"   -999.25    85.0000 15.00000      0.0 "vc"           "vc"           "Subtidal_sandbanke-kompleks_Strand/spit"                                                    "Delta_front/delta_slettekompleks_(estuar)"
2554.9 "6407_2-3"  69.2600 -999.25   -999.25   -999.25   100.0000      0.0      0.0 -999.25        -999.25        "Subtidal_sandbanke-kompleks_Strand/spit"                                                    "Delta_front/delta_slettekompleks_(estuar)"
2555.0 "6407_2-3"  69.4000 "Sandstone" -999.25   -999.25   100.0000      0.0      0.0 "c"            "c"            "Subtidal_sandbanke-kompleks_Strand/spit"                                                    "Delta_front/delta_slettekompleks_(estuar)"
2555.1 "6407_2-3"  68.9100 "Sandstone" -999.25   -999.25   100.0000      0.0      0.0 "c"            "c"            "Subtidal_sandbanke-kompleks_Strand/spit"                                                    "Delta_front/delta_slettekompleks_(estuar)"
2555.2 "6407_2-3"  67.6200 "Sandstone" -999.25   -999.25   100.0000      0.0      0.0 "c"            "c"            "Subtidal_sandbanke-kompleks_Strand/spit"                                                    "Delta_front/delta_slettekompleks_(estuar)"
2555.3 "6407_2-3"  65.7900 "Sandstone" -999.25   -999.25   100.0000      0.0      0.0 "c"            "c"            "Subtidal_sandbanke-kompleks_Strand/spit"                                                    "Delta_front/delta_slettekompleks_(estuar)"
2555.4 "6407_2-3"  63.1900 "Sandstone" -999.25   -999.25   100.0000      0.0      0.0 "c"            "c"            "Subtidal_sandbanke-kompleks_Strand/spit"                                                    "Delta_front/delta_slettekompleks_(estuar)"
2555.5 "6407_2-3"  59.6400 "Sandstone" -999.25   -999.25   100.0000      0.0      0.0 "c"            "c"            "Subtidal_sandbanke-kompleks_Strand/spit"                                                    "Delta_front/delta_slettekompleks_(estuar)"
2555.6 "6407_2-3"  55.2500 "Sandstone" -999.25   -999.25   100.0000      0.0      0.0 "c"            "c"            "Subtidal_sandbanke-kompleks_Strand/spit"                                                    "Delta_front/delta_slettekompleks_(estuar)"
2555.7 "6407_2-3"  51.2200 "Sandstone" -999.25   -999.25   100.0000      0.0      0.0 "c"            "c"            "Subtidal_sandbanke-kompleks_Strand/spit"                                                    "Delta_front/delta_slettekompleks_(estuar)"
2555.8 "6407_2-3"  49.8300 "Sandstone" -999.25   -999.25   100.0000      0.0      0.0 "c"            "c"            "Subtidal_sandbanke-kompleks_Strand/spit"                                                    "Delta_front/delta_slettekompleks_(estuar)"
2555.9 "6407_2-3"  49.4300 "Sandstone" -999.25   -999.25   100.0000      0.0      0.0 "c"            "c"            "Subtidal_sandbanke-kompleks_Strand/spit"                                                    "Delta_front/delta_slettekompleks_(estuar)"
