~Version
VERS  .                                 3.0 : CWLS LAS ASCII Standard - Version 3.0
WRAP  . NO                                  : One line per depth step
DLM   . SPACE                               : Column data section delimiter
SOURCE. Converted to LAS by Log Studio 4.76 : GeoProvider

~Well
STRT.         2428.0 : Start depth
STOP.         2769.0 : Stop depth
STEP.              1 : Step
NULL.        -999.25 : No-value
COMP.                : Company
WELL. 6407/2-3       : Well
FLD .                : Field
LOC .                : Location
LATI.                : Latitude
LONG.                : Longitude
GDAT.                : Geodetic datum
CNTY.                : County
STAT.                : State
CTRY.                : Country
SRVC. GeoProvider AS : Service company
DATE.                : Date
API .                : API number
RUN .                : Run number

~Parameters
WellboreName.  : Wellbore name
RigName     .  : Rig name
StartDate   .  : Start date

~Curves
DEPTH.m            .  : null {F}Depth mMD
Hole_ID.-          .  : null {S}Hole ID
GR.API             .  : null {F}Gamma Ray
Lithology1.-       .  : null {S}Lithology 1
Lithology2.-       .  : null {S}Lithology 2
Lithology3.-       .  : null {S}Lithology 3
Lithology1.%       .  : null {F}Lithology 1 percentage
Lithology2.%       .  : null {F}Lithology 2 percentage
Lithology3.%       .  : null {F}Lithology 3 percentage
Grain_size_Top.-   .  : null {S}Grain size at the top 
Grain_size_Base.-  .  : null {S}Grain size at the bottom
Sub_Environment.-  .  : null {S}Sub Environment
Gross_Environment.-.  : null {S}Gross Environment

~Ascii
# ...
2765.9 "6407_2-3"  55.0900 "Sandstone" "Shale"   -999.25    93.0000  7.00000      0.0 "m"            "m"            "Prograderende_munningsbanke"                                                                "Delta_front"                            
2766.0 "6407_2-3"  54.7000 "Sandstone" "Shale"   -999.25    93.0000  7.00000      0.0 "m"            "m"            "Prograderende_munningsbanke"                                                                "Delta_front"                            
2766.1 "6407_2-3"  54.4100 "Sandstone" "Shale"   -999.25    93.0000  7.00000      0.0 "m"            "m"            "Prograderende_munningsbanke"                                                                "Delta_front"                            
2766.2 "6407_2-3"  54.3500 "Sandstone" "Shale"   -999.25    93.0000  7.00000      0.0 "m"            "m"            "Prograderende_munningsbanke"                                                                "Delta_front"                            
2766.3 "6407_2-3"  54.3100 "Sandstone" "Shale"   -999.25    93.0000  7.00000      0.0 "m"            "m"            "Prograderende_munningsbanke"                                                                "Delta_front"                            
2766.4 "6407_2-3"  54.2700 "Sandstone" "Shale"   -999.25    93.0000  7.00000      0.0 "m"            "m"            "Prograderende_munningsbanke"                                                                "Delta_front"                            
2766.5 "6407_2-3"  54.5300 "Sandstone" "Shale"   -999.25    93.0000  7.00000      0.0 "m"            "m"            "Prograderende_munningsbanke"                                                                "Delta_front"                            
2766.6 "6407_2-3"  54.8000 "Sandstone" "Shale"   -999.25    93.0000  7.00000      0.0 "m"            "m"            "Prograderende_munningsbanke"                                                                "Delta_front"                            
2766.7 "6407_2-3"  55.0800 "Sandstone" "Shale"   -999.25    93.0000  7.00000      0.0 "m"            "m"            "Prograderende_munningsbanke"                                                                "Delta_front"                            
2766.8 "6407_2-3"  55.5300 "Sandstone" "Shale"   -999.25    93.0000  7.00000      0.0 "m"            "m"            "Prograderende_munningsbanke"                                                                "Delta_front"                            
2766.9 "6407_2-3"  55.9900 "Sandstone" "Shale"   -999.25    93.0000  7.00000      0.0 "m"            "m"            "Prograderende_munningsbanke"                                                                "Delta_front"                            
2767.0 "6407_2-3"  56.4600 "Sandstone" "Shale"   -999.25    93.0000  7.00000      0.0 "m"            "m"            "Prograderende_munningsbanke"                                                                "Delta_front"                            
2767.1 "6407_2-3"  56.8400 "Sandstone" "Shale"   -999.25    93.0000  7.00000      0.0 "m"            "m"            "Prograderende_munningsbanke"                                                                "Delta_front"                            
2767.2 "6407_2-3"  57.2000 "Sandstone" -999.25   -999.25   100.0000      0.0      0.0 "m"            "m"            "Prograderende_munningsbanke"                                                                "Delta_front"                            
2767.3 "6407_2-3"  57.3500 "Sandstone" -999.25   -999.25   100.0000      0.0      0.0 "m"            "m"            "Prograderende_munningsbanke"                                                                "Delta_front"                            
2767.4 "6407_2-3"  57.3500 "Sandstone" -999.25   -999.25   100.0000      0.0      0.0 "m"            "m"            "Prograderende_munningsbanke"                                                                "Delta_front"                            
2767.5 "6407_2-3"  57.3500 "Sandstone" -999.25   -999.25   100.0000      0.0      0.0 "m"            "m"            "Prograderende_munningsbanke"                                                                "Delta_front"                            
2767.6 "6407_2-3"  57.2800 "Sandstone" -999.25   -999.25   100.0000      0.0      0.0 "m"            "m"            "Prograderende_munningsbanke"                                                                "Delta_front"                            
2767.7 "6407_2-3"  57.0400 "Sandstone" -999.25   -999.25   100.0000      0.0      0.0 "f/m"          "m"            "Prograderende_munningsbanke"                                                                "Delta_front"                            
2767.8 "6407_2-3"  56.8100 "Sandstone" -999.25   -999.25   100.0000      0.0      0.0 "f/m"          "m"            "Prograderende_munningsbanke"                                                                "Delta_front"                            
2767.9 "6407_2-3"  56.5900 "Sandstone" -999.25   -999.25   100.0000      0.0      0.0 "f/m"          "m"            "Prograderende_munningsbanke"                                                                "Delta_front"                            
2768.0 "6407_2-3"  56.4100 "Sandstone" -999.25   -999.25   100.0000      0.0      0.0 "f/m"          "m"            "Prograderende_munningsbanke"                                                                "Delta_front"                            
2768.1 "6407_2-3"  56.2400 "Sandstone" -999.25   -999.25   100.0000      0.0      0.0 "f/m"          "m"            "Prograderende_munningsbanke"                                                                "Delta_front"                            
2768.2 "6407_2-3"  56.1600 "Sandstone" -999.25   -999.25   100.0000      0.0      0.0 "f/m"          "m"            "Prograderende_munningsbanke"                                                                "Delta_front"                            
2768.3 "6407_2-3"  56.4000 "Sandstone" -999.25   -999.25   100.0000      0.0      0.0 "f/m"          "m"            "Prograderende_munningsbanke"                                                                "Delta_front"                            
2768.4 "6407_2-3"  56.8300 "Sandstone" -999.25   -999.25   100.0000      0.0      0.0 "f/m"          "m"            "Prograderende_munningsbanke"                                                                "Delta_front"                            
2768.5 "6407_2-3"  57.6600 "Sandstone" -999.25   -999.25   100.0000      0.0      0.0 "f/m"          "m"            "Prograderende_munningsbanke"                                                                "Delta_front"                            
2768.6 "6407_2-3"  58.8100 "Sandstone" -999.25   -999.25   100.0000      0.0      0.0 "f/m"          "m"            "Prograderende_munningsbanke"                                                                "Delta_front"                            
2768.7 "6407_2-3"  59.8400 "Sandstone" -999.25   -999.25   100.0000      0.0      0.0 "f/m"          "m"            "Prograderende_munningsbanke"                                                                "Delta_front"                            
2768.8 "6407_2-3"  60.7600 "Sandstone" -999.25   -999.25   100.0000      0.0      0.0 "f/m"          "m"            "Prograderende_munningsbanke"                                                                "Delta_front"                            
2768.9 "6407_2-3"  61.0400 "Sandstone" -999.25   -999.25   100.0000      0.0      0.0 "f/m"          "m"            "Prograderende_munningsbanke"                                                                "Delta_front"                            
2769.0 "6407_2-3"  61.0900 "Sandstone" -999.25   -999.25   100.0000      0.0      0.0 "f/m"          "m"            "Prograderende_munningsbanke"                                                                "Delta_front"                            
