~Version
VERS  .                                 3.0 : CWLS LAS ASCII Standard - Version 3.0
WRAP  . NO                                  : One line per depth step
DLM   . SPACE                               : Column data section delimiter
SOURCE. Converted to LAS by Log Studio 4.76 : GeoProvider

~Well
STRT.         2428.0 : Start depth
STOP.         2769.0 : Stop depth
STEP.              1 : Step
NULL.        -999.25 : No-value
COMP.                : Company
WELL. 6407/2-3       : Well
FLD .                : Field
LOC .                : Location
LATI.                : Latitude
LONG.                : Longitude
GDAT.                : Geodetic datum
CNTY.                : County
STAT.                : State
CTRY.                : Country
SRVC. GeoProvider AS : Service company
DATE.                : Date
API .                : API number
RUN .                : Run number

~Parameters
WellboreName.  : Wellbore name
RigName     .  : Rig name
StartDate   .  : Start date

~Curves
DEPTH.m            .  : null {F}Depth mMD
Hole_ID.-          .  : null {S}Hole ID
GR.API             .  : null {F}Gamma Ray
Lithology1.-       .  : null {S}Lithology 1
Lithology2.-       .  : null {S}Lithology 2
Lithology3.-       .  : null {S}Lithology 3
Lithology1.%       .  : null {F}Lithology 1 percentage
Lithology2.%       .  : null {F}Lithology 2 percentage
Lithology3.%       .  : null {F}Lithology 3 percentage
Grain_size_Top.-   .  : null {S}Grain size at the top 
Grain_size_Base.-  .  : null {S}Grain size at the bottom
Sub_Environment.-  .  : null {S}Sub Environment
Gross_Environment.-.  : null {S}Gross Environment

~Ascii
2428.0 "6407_2-3"  56.9600 "Sandstone" -999.25   -999.25   100.0000      0.0      0.0 "vc"           "vc"           "Transgression_Vertikal_og_lateral_utbygging_av_proksimal_braid-delta_munnings-banke"        "Braid-delta_front"                      
2428.1 "6407_2-3"  56.8100 "Sandstone" -999.25   -999.25   100.0000      0.0      0.0 "vc"           "vc"           "Transgression_Vertikal_og_lateral_utbygging_av_proksimal_braid-delta_munnings-banke"        "Braid-delta_front"                      
2428.2 "6407_2-3"  56.6600 "Sandstone" -999.25   -999.25   100.0000      0.0      0.0 "vc"           "vc"           "Transgression_Vertikal_og_lateral_utbygging_av_proksimal_braid-delta_munnings-banke"        "Braid-delta_front"                      
2428.3 "6407_2-3"  56.6900 "Sandstone" -999.25   -999.25   100.0000      0.0      0.0 "vc"           "vc"           "Transgression_Vertikal_og_lateral_utbygging_av_proksimal_braid-delta_munnings-banke"        "Braid-delta_front"                      
2428.4 "6407_2-3"  56.7900 "Sandstone" -999.25   -999.25   100.0000      0.0      0.0 "vc"           "vc"           "Transgression_Vertikal_og_lateral_utbygging_av_proksimal_braid-delta_munnings-banke"        "Braid-delta_front"                      
2428.5 "6407_2-3"  56.8900 "Sandstone" -999.25   -999.25   100.0000      0.0      0.0 "vc"           "vc"           "Transgression_Vertikal_og_lateral_utbygging_av_proksimal_braid-delta_munnings-banke"        "Braid-delta_front"                      
2428.6 "6407_2-3"  56.9900 "Sandstone" -999.25   -999.25   100.0000      0.0      0.0 "vc"           "vc"           "Transgression_Vertikal_og_lateral_utbygging_av_proksimal_braid-delta_munnings-banke"        "Braid-delta_front"                      
2428.7 "6407_2-3"  57.0300 "Sandstone" -999.25   -999.25   100.0000      0.0      0.0 "vc"           "vc"           "Transgression_Vertikal_og_lateral_utbygging_av_proksimal_braid-delta_munnings-banke"        "Braid-delta_front"                      
2428.8 "6407_2-3"  57.0700 "Sandstone" -999.25   -999.25   100.0000      0.0      0.0 "m/c"          "m/c"          "Transgression_Vertikal_og_lateral_utbygging_av_proksimal_braid-delta_munnings-banke"        "Braid-delta_front"                      
2428.9 "6407_2-3"  56.8000 "Sandstone" -999.25   -999.25   100.0000      0.0      0.0 "m/c"          "m/c"          "Transgression_Vertikal_og_lateral_utbygging_av_proksimal_braid-delta_munnings-banke"        "Braid-delta_front"                      
2429.0 "6407_2-3"  56.4100 "Sandstone" -999.25   -999.25   100.0000      0.0      0.0 "m/c"          "m/c"          "Transgression_Vertikal_og_lateral_utbygging_av_proksimal_braid-delta_munnings-banke"        "Braid-delta_front"                      
2429.1 "6407_2-3"  55.6500 "Sandstone" -999.25   -999.25   100.0000      0.0      0.0 "m/c"          "m/c"          "Transgression_Vertikal_og_lateral_utbygging_av_proksimal_braid-delta_munnings-banke"        "Braid-delta_front"                      
2429.2 "6407_2-3"  55.0300 "Sandstone" -999.25   -999.25   100.0000      0.0      0.0 "m/c"          "m/c"          "Transgression_Vertikal_og_lateral_utbygging_av_proksimal_braid-delta_munnings-banke"        "Braid-delta_front"                      
2429.3 "6407_2-3"  54.6800 "Sandstone" -999.25   -999.25   100.0000      0.0      0.0 "m/c"          "m/c"          "Transgression_Vertikal_og_lateral_utbygging_av_proksimal_braid-delta_munnings-banke"        "Braid-delta_front"                      
2429.4 "6407_2-3"  54.6700 "Sandstone" -999.25   -999.25   100.0000      0.0      0.0 "m/c"          "m/c"          "Transgression_Vertikal_og_lateral_utbygging_av_proksimal_braid-delta_munnings-banke"        "Braid-delta_front"                      
2429.5 "6407_2-3"  54.7400 "Sandstone" -999.25   -999.25   100.0000      0.0      0.0 "m/c"          "m/c"          "Transgression_Vertikal_og_lateral_utbygging_av_proksimal_braid-delta_munnings-banke"        "Braid-delta_front"                      
2429.6 "6407_2-3"  55.0200 "Sandstone" -999.25   -999.25   100.0000      0.0      0.0 "m/c"          "m/c"          "Transgression_Vertikal_og_lateral_utbygging_av_proksimal_braid-delta_munnings-banke"        "Braid-delta_front"                      
2429.7 "6407_2-3"  55.4000 "Sandstone" -999.25   -999.25   100.0000      0.0      0.0 "m/c"          "m/c"          "Transgression_Vertikal_og_lateral_utbygging_av_proksimal_braid-delta_munnings-banke"        "Braid-delta_front"                      
2429.8 "6407_2-3"  55.7600 "Sandstone" -999.25   -999.25   100.0000      0.0      0.0 "m/c"          "m/c"          "Transgression_Vertikal_og_lateral_utbygging_av_proksimal_braid-delta_munnings-banke"        "Braid-delta_front"                      
2429.9 "6407_2-3"  56.1100 "Sandstone" -999.25   -999.25   100.0000      0.0      0.0 "m/c"          "m/c"          "Transgression_Vertikal_og_lateral_utbygging_av_proksimal_braid-delta_munnings-banke"        "Braid-delta_front"                      
2430.0 "6407_2-3"  56.2800 "Sandstone" -999.25   -999.25   100.0000      0.0      0.0 "m/c"          "m/c"          "Transgression_Vertikal_og_lateral_utbygging_av_proksimal_braid-delta_munnings-banke"        "Braid-delta_front"                      
2430.1 "6407_2-3"  56.1600 "Sandstone" -999.25   -999.25   100.0000      0.0      0.0 "m/c"          "m/c"          "Transgression_Vertikal_og_lateral_utbygging_av_proksimal_braid-delta_munnings-banke"        "Braid-delta_front"                      
2430.2 "6407_2-3"  55.7700 "Sandstone" -999.25   -999.25   100.0000      0.0      0.0 "m/c"          "m/c"          "Transgression_Vertikal_og_lateral_utbygging_av_proksimal_braid-delta_munnings-banke"        "Braid-delta_front"                      
2430.3 "6407_2-3"  55.3800 "Sandstone" -999.25   -999.25   100.0000      0.0      0.0 "m/c"          "m/c"          "Transgression_Vertikal_og_lateral_utbygging_av_proksimal_braid-delta_munnings-banke"        "Braid-delta_front"                      
2430.4 "6407_2-3"  54.9900 "Sandstone" -999.25   -999.25   100.0000      0.0      0.0 "m/c"          "m/c"          "Transgression_Vertikal_og_lateral_utbygging_av_proksimal_braid-delta_munnings-banke"        "Braid-delta_front"                      
2430.5 "6407_2-3"  54.6000 "Sandstone" -999.25   -999.25   100.0000      0.0      0.0 "m/c"          "m/c"          "Transgression_Vertikal_og_lateral_utbygging_av_proksimal_braid-delta_munnings-banke"        "Braid-delta_front"                      
2430.6 "6407_2-3"  54.2600 "Sandstone" -999.25   -999.25   100.0000      0.0      0.0 "m/c"          "m/c"          "Transgression_Vertikal_og_lateral_utbygging_av_proksimal_braid-delta_munnings-banke"        "Braid-delta_front"                      
2430.7 "6407_2-3"  53.9800 "Sandstone" -999.25   -999.25   100.0000      0.0      0.0 "m/c"          "m/c"          "Transgression_Vertikal_og_lateral_utbygging_av_proksimal_braid-delta_munnings-banke"        "Braid-delta_front"                      
2430.8 "6407_2-3"  53.7000 "Sandstone" -999.25   -999.25   100.0000      0.0      0.0 "m/c"          "m/c"          "Transgression_Vertikal_og_lateral_utbygging_av_proksimal_braid-delta_munnings-banke"        "Braid-delta_front"                      
2430.9 "6407_2-3"  53.6300 "Sandstone" -999.25   -999.25   100.0000      0.0      0.0 "m/c"          "m/c"          "Transgression_Vertikal_og_lateral_utbygging_av_proksimal_braid-delta_munnings-banke"        "Braid-delta_front"                      
2431.0 "6407_2-3"  53.6700 "Sandstone" -999.25   -999.25   100.0000      0.0      0.0 "m/c"          "m/c"          "Transgression_Vertikal_og_lateral_utbygging_av_proksimal_braid-delta_munnings-banke"        "Braid-delta_front"                      
2431.1 "6407_2-3"  53.7200 "Sandstone" -999.25   -999.25   100.0000      0.0      0.0 "m/c"          "m/c"          "Transgression_Vertikal_og_lateral_utbygging_av_proksimal_braid-delta_munnings-banke"        "Braid-delta_front"                      
