~Version
VERS  .                                 3.0 : CWLS LAS ASCII Standard - Version 3.0
WRAP  . NO                                  : One line per depth step
DLM   . SPACE                               : Column data section delimiter
SOURCE. Converted to LAS by Log Studio 4.76 : GeoProvider

~Well
STRT.         2428.0 : Start depth
STOP.         2769.0 : Stop depth
STEP.              1 : Step
NULL.        -999.25 : No-value
COMP.                : Company
WELL. 6407/2-3       : Well
FLD .                : Field
LOC .                : Location
LATI.                : Latitude
LONG.                : Longitude
GDAT.                : Geodetic datum
CNTY.                : County
STAT.                : State
CTRY.                : Country
SRVC. GeoProvider AS : Service company
DATE.                : Date
API .                : API number
RUN .                : Run number

~Parameters
WellboreName.  : Wellbore name
RigName     .  : Rig name
StartDate   .  : Start date

~Curves
DEPTH.m            .  : null {F}Depth mMD
Hole_ID.-          .  : null {S}Hole ID
GR.API             .  : null {F}Gamma Ray
Lithology1.-       .  : null {S}Lithology 1
Lithology2.-       .  : null {S}Lithology 2
Lithology3.-       .  : null {S}Lithology 3
Lithology1.%       .  : null {F}Lithology 1 percentage
Lithology2.%       .  : null {F}Lithology 2 percentage
Lithology3.%       .  : null {F}Lithology 3 percentage
Grain_size_Top.-   .  : null {S}Grain size at the top 
Grain_size_Base.-  .  : null {S}Grain size at the bottom
Sub_Environment.-  .  : null {S}Sub Environment
Gross_Environment.-.  : null {S}Gross Environment

~Ascii
# ...
2440.8 "6407_2-3"  60.7000 "Sandstone" "Shale"   -999.25    97.0000  3.00000      0.0 "m/c"          "m/c"          "Transgression_Vertikal_og_lateral_utbygging_av_proksimal_braid-delta_munnings-banke"        "Braid-delta_front"                      
2440.9 "6407_2-3"  60.2600 "Sandstone" "Shale"   -999.25    97.0000  3.00000      0.0 "m/c"          "m/c"          "Transgression_Vertikal_og_lateral_utbygging_av_proksimal_braid-delta_munnings-banke"        "Braid-delta_front"                      
2441.0 "6407_2-3"  59.8700 "Sandstone" "Shale"   -999.25    97.0000  3.00000      0.0 "m/c"          "m/c"          "Transgression_Vertikal_og_lateral_utbygging_av_proksimal_braid-delta_munnings-banke"        "Braid-delta_front"                      
2441.1 "6407_2-3"  59.9100 "Sandstone" "Shale"   -999.25    97.0000  3.00000      0.0 "m/c"          "m/c"          "Transgression_Vertikal_og_lateral_utbygging_av_proksimal_braid-delta_munnings-banke"        "Braid-delta_front"                      
2441.2 "6407_2-3"  59.9500 "Sandstone" "Shale"   -999.25    97.0000  3.00000      0.0 "m/c"          "m/c"          "Transgression_Vertikal_og_lateral_utbygging_av_proksimal_braid-delta_munnings-banke"        "Braid-delta_front"                      
2441.3 "6407_2-3"  59.9900 "Sandstone" "Shale"   -999.25    97.0000  3.00000      0.0 "m/c"          "m/c"          "Transgression_Vertikal_og_lateral_utbygging_av_proksimal_braid-delta_munnings-banke"        "Braid-delta_front"                      
2441.4 "6407_2-3"  60.0300 "Sandstone" "Shale"   -999.25    97.0000  3.00000      0.0 "m/c"          "m/c"          "Transgression_Vertikal_og_lateral_utbygging_av_proksimal_braid-delta_munnings-banke"        "Braid-delta_front"                      
2441.5 "6407_2-3"  60.0700 "Sandstone" "Shale"   -999.25    97.0000  3.00000      0.0 "m/c"          "m/c"          "Transgression_Vertikal_og_lateral_utbygging_av_proksimal_braid-delta_munnings-banke"        "Braid-delta_front"                      
2441.6 "6407_2-3"  60.1100 "Sandstone" "Shale"   -999.25    97.0000  3.00000      0.0 "m/c"          "m/c"          "Transgression_Vertikal_og_lateral_utbygging_av_proksimal_braid-delta_munnings-banke"        "Braid-delta_front"                      
2441.7 "6407_2-3"  60.1500 "Sandstone" "Shale"   -999.25    97.0000  3.00000      0.0 "m/c"          "m/c"          "Transgression_Vertikal_og_lateral_utbygging_av_proksimal_braid-delta_munnings-banke"        "Braid-delta_front"                      
2441.8 "6407_2-3"  60.1900 "Sandstone" "Shale"   -999.25    97.0000  3.00000      0.0 "m/c"          "m/c"          "Transgression_Vertikal_og_lateral_utbygging_av_proksimal_braid-delta_munnings-banke"        "Braid-delta_front"                      
2441.9 "6407_2-3"  60.2300 "Sandstone" "Shale"   -999.25    97.0000  3.00000      0.0 "m/c"          "m/c"          "Transgression_Vertikal_og_lateral_utbygging_av_proksimal_braid-delta_munnings-banke"        "Braid-delta_front"                      
2442.0 "6407_2-3"  60.4100 "Sandstone" "Shale"   -999.25    97.0000  3.00000      0.0 "m/c"          "m/c"          "Transgression_Vertikal_og_lateral_utbygging_av_proksimal_braid-delta_munnings-banke"        "Braid-delta_front"                      
2442.1 "6407_2-3"  61.4000 "Sandstone" "Shale"   -999.25    97.0000  3.00000      0.0 "m/c"          "m/c"          "Transgression_Vertikal_og_lateral_utbygging_av_proksimal_braid-delta_munnings-banke"        "Braid-delta_front"                      
2442.2 "6407_2-3"  62.3800 "Sandstone" "Shale"   -999.25    97.0000  3.00000      0.0 "m/c"          "m/c"          "Transgression_Vertikal_og_lateral_utbygging_av_proksimal_braid-delta_munnings-banke"        "Braid-delta_front"                      
2442.3 "6407_2-3"  62.7500 "Sandstone" "Shale"   -999.25    97.0000  3.00000      0.0 "m/c"          "m/c"          "Transgression_Vertikal_og_lateral_utbygging_av_proksimal_braid-delta_munnings-banke"        "Braid-delta_front"                      
2442.4 "6407_2-3"  62.9100 "Sandstone" "Shale"   -999.25    97.0000  3.00000      0.0 "m/c"          "m/c"          "Transgression_Vertikal_og_lateral_utbygging_av_proksimal_braid-delta_munnings-banke"        "Braid-delta_front"                      
2442.5 "6407_2-3"  62.9700 "Sandstone" "Shale"   -999.25    97.0000  3.00000      0.0 "m/c"          "m/c"          "Transgression_Vertikal_og_lateral_utbygging_av_proksimal_braid-delta_munnings-banke"        "Braid-delta_front"                      
2442.6 "6407_2-3"  63.0300 "Sandstone" "Shale"   -999.25    97.0000  3.00000      0.0 "m/c"          "m/c"          "Transgression_Vertikal_og_lateral_utbygging_av_proksimal_braid-delta_munnings-banke"        "Braid-delta_front"                      
2442.7 "6407_2-3"  62.7600 "Sandstone" "Shale"   -999.25    97.0000  3.00000      0.0 "m/c"          "m/c"          "Transgression_Vertikal_og_lateral_utbygging_av_proksimal_braid-delta_munnings-banke"        "Braid-delta_front"                      
2442.8 "6407_2-3"  62.3100 "Sandstone" "Shale"   -999.25    97.0000  3.00000      0.0 "m/c"          "m/c"          "Transgression_Vertikal_og_lateral_utbygging_av_proksimal_braid-delta_munnings-banke"        "Braid-delta_front"                      
2442.9 "6407_2-3"  62.1600 "Sandstone" "Shale"   -999.25    97.0000  3.00000      0.0 "m/c"          "m/c"          "Transgression_Vertikal_og_lateral_utbygging_av_proksimal_braid-delta_munnings-banke"        "Braid-delta_front"                      
2443.0 "6407_2-3"  62.2700 "Sandstone" "Shale"   -999.25    97.0000  3.00000      0.0 "m/c"          "m/c"          "Transgression_Vertikal_og_lateral_utbygging_av_proksimal_braid-delta_munnings-banke"        "Braid-delta_front"                      
2443.1 "6407_2-3"  62.3900 "Sandstone" "Shale"   -999.25    97.0000  3.00000      0.0 "m/c"          "m/c"          "Transgression_Vertikal_og_lateral_utbygging_av_proksimal_braid-delta_munnings-banke"        "Braid-delta_front"                      
2443.2 "6407_2-3"  62.5900 "Sandstone" "Shale"   -999.25    97.0000  3.00000      0.0 "m/c"          "m/c"          "Transgression_Vertikal_og_lateral_utbygging_av_proksimal_braid-delta_munnings-banke"        "Braid-delta_front"                      
2443.3 "6407_2-3"  62.8300 "Sandstone" "Shale"   -999.25    97.0000  3.00000      0.0 "m/c"          "m/c"          "Transgression_Vertikal_og_lateral_utbygging_av_proksimal_braid-delta_munnings-banke"        "Braid-delta_front"                      
2443.4 "6407_2-3"  63.0600 "Sandstone" "Shale"   -999.25    97.0000  3.00000      0.0 "m/c"          "m/c"          "Transgression_Vertikal_og_lateral_utbygging_av_proksimal_braid-delta_munnings-banke"        "Braid-delta_front"                      
2443.5 "6407_2-3"  63.3000 "Sandstone" "Shale"   -999.25    97.0000  3.00000      0.0 "m/c"          "m/c"          "Transgression_Vertikal_og_lateral_utbygging_av_proksimal_braid-delta_munnings-banke"        "Braid-delta_front"                      
2443.6 "6407_2-3"  63.1600 "Sandstone" "Shale"   -999.25    97.0000  3.00000      0.0 "m/c"          "m/c"          "Transgression_Vertikal_og_lateral_utbygging_av_proksimal_braid-delta_munnings-banke"        "Braid-delta_front"                      
2443.7 "6407_2-3"  62.9500 "Sandstone" "Shale"   -999.25    97.0000  3.00000      0.0 "m/c"          "m/c"          "Transgression_Vertikal_og_lateral_utbygging_av_proksimal_braid-delta_munnings-banke"        "Braid-delta_front"                      
2443.8 "6407_2-3"  62.9500 "Sandstone" "Shale"   -999.25    97.0000  3.00000      0.0 "m/c"          "m/c"          "Transgression_Vertikal_og_lateral_utbygging_av_proksimal_braid-delta_munnings-banke"        "Braid-delta_front"                      
2443.9 "6407_2-3"  63.1000 "Sandstone" "Shale"   -999.25    97.0000  3.00000      0.0 "m/c"          "m/c"          "Transgression_Vertikal_og_lateral_utbygging_av_proksimal_braid-delta_munnings-banke"        "Braid-delta_front"                      
