~Version
VERS  .                                 3.0 : CWLS LAS ASCII Standard - Version 3.0
WRAP  . NO                                  : One line per depth step
DLM   . SPACE                               : Column data section delimiter
SOURCE. Converted to LAS by Log Studio 4.76 : GeoProvider

~Well
STRT.         2428.0 : Start depth
STOP.         2769.0 : Stop depth
STEP.              1 : Step
NULL.        -999.25 : No-value
COMP.                : Company
WELL. 6407/2-3       : Well
FLD .                : Field
LOC .                : Location
LATI.                : Latitude
LONG.                : Longitude
GDAT.                : Geodetic datum
CNTY.                : County
STAT.                : State
CTRY.                : Country
SRVC. GeoProvider AS : Service company
DATE.                : Date
API .                : API number
RUN .                : Run number

~Parameters
WellboreName.  : Wellbore name
RigName     .  : Rig name
StartDate   .  : Start date

~Curves
DEPTH.m            .  : null {F}Depth mMD
Hole_ID.-          .  : null {S}Hole ID
GR.API             .  : null {F}Gamma Ray
Lithology1.-       .  : null {S}Lithology 1
Lithology2.-       .  : null {S}Lithology 2
Lithology3.-       .  : null {S}Lithology 3
Lithology1.%       .  : null {F}Lithology 1 percentage
Lithology2.%       .  : null {F}Lithology 2 percentage
Lithology3.%       .  : null {F}Lithology 3 percentage
Grain_size_Top.-   .  : null {S}Grain size at the top 
Grain_size_Base.-  .  : null {S}Grain size at the bottom
Sub_Environment.-  .  : null {S}Sub Environment
Gross_Environment.-.  : null {S}Gross Environment

~Ascii
# ...
2517.6 "6407_2-3"  59.5000 "Sandstone" "Shale"   -999.25    92.0000  8.00000      0.0 "c"            "c/vc"         "TRANSGRESSION_Proksimal_bukt_Distal_bukt."                                                  "Delta_slette"                           
2517.7 "6407_2-3"  63.5900 "Sandstone" "Shale"   -999.25    92.0000  8.00000      0.0 "c"            "c/vc"         "TRANSGRESSION_Proksimal_bukt_Distal_bukt."                                                  "Delta_slette"                           
2517.8 "6407_2-3"  67.9700 "Sandstone" "Shale"   -999.25    92.0000  8.00000      0.0 "c"            "c/vc"         "TRANSGRESSION_Proksimal_bukt_Distal_bukt."                                                  "Delta_slette"                           
2517.9 "6407_2-3"  72.5200 "Sandstone" "Shale"   -999.25     8.0000 92.00000      0.0 "vf"           "silt"         "TRANSGRESSION_Proksimal_bukt_Distal_bukt."                                                  "Delta_slette"                           
2518.0 "6407_2-3"  77.2600 "Sandstone" "Shale"   -999.25     8.0000 92.00000      0.0 "vf"           "silt"         "TRANSGRESSION_Proksimal_bukt_Distal_bukt."                                                  "Delta_slette"                           
2518.1 "6407_2-3"  82.5300 "Sandstone" "Shale"   -999.25     8.0000 92.00000      0.0 "vf"           "silt"         "TRANSGRESSION_Proksimal_bukt_Distal_bukt."                                                  "Delta_slette"                           
2518.2 "6407_2-3"  86.7900 "Sandstone" "Shale"   -999.25     8.0000 92.00000      0.0 "vf"           "silt"         "TRANSGRESSION_Proksimal_bukt_Distal_bukt."                                                  "Delta_slette"                           
2518.3 "6407_2-3"  90.7100 "Sandstone" "Shale"   -999.25     8.0000 92.00000      0.0 "vf"           "silt"         "TRANSGRESSION_Proksimal_bukt_Distal_bukt."                                                  "Delta_slette"                           
2518.4 "6407_2-3"  91.9500 "Sandstone" "Shale"   -999.25     8.0000 92.00000      0.0 "vf"           "silt"         "TRANSGRESSION_Proksimal_bukt_Distal_bukt."                                                  "Delta_slette"                           
2518.5 "6407_2-3"  93.0200 "Sandstone" "Shale"   -999.25     8.0000 92.00000      0.0 "vf"           "silt"         "TRANSGRESSION_Proksimal_bukt_Distal_bukt."                                                  "Delta_slette"                           
2518.6 "6407_2-3"  93.2000 "Sandstone" "Shale"   -999.25     8.0000 92.00000      0.0 "vf"           "silt"         "TRANSGRESSION_Proksimal_bukt_Distal_bukt."                                                  "Delta_slette"                           
2518.7 "6407_2-3"  93.3700 "Sandstone" "Shale"   -999.25     8.0000 92.00000      0.0 "vf"           "silt"         "TRANSGRESSION_Proksimal_bukt_Distal_bukt."                                                  "Delta_slette"                           
2518.8 "6407_2-3"  93.7300 "Sandstone" "Shale"   -999.25     8.0000 92.00000      0.0 "vf"           "silt"         "TRANSGRESSION_Proksimal_bukt_Distal_bukt."                                                  "Delta_slette"                           
2518.9 "6407_2-3"  94.9000 "Sandstone" "Shale"   -999.25     8.0000 92.00000      0.0 "vf"           "silt"         "TRANSGRESSION_Proksimal_bukt_Distal_bukt."                                                  "Delta_slette"                           
2519.0 "6407_2-3"  96.7100 "Sandstone" "Shale"   -999.25     8.0000 92.00000      0.0 "vf"           "silt"         "TRANSGRESSION_Proksimal_bukt_Distal_bukt."                                                  "Delta_slette"                           
2519.1 "6407_2-3"  98.3100 "Sandstone" "Shale"   -999.25     8.0000 92.00000      0.0 "vf"           "silt"         "TRANSGRESSION_Proksimal_bukt_Distal_bukt."                                                  "Delta_slette"                           
2519.2 "6407_2-3"  99.4600 "Sandstone" "Shale"   -999.25     8.0000 92.00000      0.0 "vf"           "silt"         "TRANSGRESSION_Proksimal_bukt_Distal_bukt."                                                  "Delta_slette"                           
2519.3 "6407_2-3" 100.1700 "Sandstone" "Shale"   -999.25     8.0000 92.00000      0.0 "vf"           "silt"         "TRANSGRESSION_Proksimal_bukt_Distal_bukt."                                                  "Delta_slette"                           
2519.4 "6407_2-3" 100.3300 "Sandstone" "Shale"   -999.25     8.0000 92.00000      0.0 "vf"           "silt"         "TRANSGRESSION_Proksimal_bukt_Distal_bukt."                                                  "Delta_slette"                           
2519.5 "6407_2-3" 100.2100 "Sandstone" "Shale"   -999.25     8.0000 92.00000      0.0 "vf"           "silt"         "TRANSGRESSION_Proksimal_bukt_Distal_bukt."                                                  "Delta_slette"                           
2519.6 "6407_2-3"  99.7900 "Sandstone" "Shale"   -999.25     8.0000 92.00000      0.0 "vf"           "silt"         "TRANSGRESSION_Proksimal_bukt_Distal_bukt."                                                  "Delta_slette"                           
2519.7 "6407_2-3"  98.9800 "Sandstone" "Shale"   -999.25     8.0000 92.00000      0.0 "vf"           "silt"         "TRANSGRESSION_Proksimal_bukt_Distal_bukt."                                                  "Delta_slette"                           
2519.8 "6407_2-3"  97.2700 "Sandstone" "Shale"   -999.25     8.0000 92.00000      0.0 "vf"           "silt"         "TRANSGRESSION_Proksimal_bukt_Distal_bukt."                                                  "Delta_slette"                           
2519.9 "6407_2-3"  95.1600 "Sandstone" "Shale"   -999.25     8.0000 92.00000      0.0 "vf"           "silt"         "TRANSGRESSION_Proksimal_bukt_Distal_bukt."                                                  "Delta_slette"                           
2520.0 "6407_2-3"  93.0000 "Sandstone" "Shale"   -999.25     8.0000 92.00000      0.0 "vf"           "silt"         "TRANSGRESSION_Proksimal_bukt_Distal_bukt."                                                  "Delta_slette"                           
2520.1 "6407_2-3"  90.9000 "Sandstone" "Shale"   -999.25     8.0000 92.00000      0.0 "vf"           "silt"         "TRANSGRESSION_Proksimal_bukt_Distal_bukt."                                                  "Delta_slette"                           
2520.2 "6407_2-3"  88.3700 "Sandstone" "Shale"   -999.25     8.0000 92.00000      0.0 "vf"           "silt"         "TRANSGRESSION_Proksimal_bukt_Distal_bukt."                                                  "Delta_slette"                           
2520.3 "6407_2-3"  86.2500 "Sandstone" "Shale"   -999.25     8.0000 92.00000      0.0 "vf"           "silt"         "TRANSGRESSION_Proksimal_bukt_Distal_bukt."                                                  "Delta_slette"                           
2520.4 "6407_2-3"  85.0300 "Shale"   -999.25   -999.25   100.0000      0.0      0.0 "f"            "f"            "TRANSGRESSION_Proksimal_bukt_Distal_bukt."                                                  "Delta_slette"                           
2520.5 "6407_2-3"  84.5200 "Sandstone" -999.25   -999.25   100.0000      0.0      0.0 "c"            "c/vc"         "TRANSGRESSION_Proksimal_bukt_Distal_bukt."                                                  "Delta_slette"                           
2520.6 "6407_2-3"  84.6100 "Sandstone" -999.25   -999.25   100.0000      0.0      0.0 "c"            "c/vc"         "TRANSGRESSION_Proksimal_bukt_Distal_bukt."                                                  "Delta_slette"                           
2520.7 "6407_2-3"  84.8500 "Sandstone" -999.25   -999.25   100.0000      0.0      0.0 "c"            "c/vc"         "TRANSGRESSION_Proksimal_bukt_Distal_bukt."                                                  "Delta_slette"                           
