~Version
VERS  .                                 3.0 : CWLS LAS ASCII Standard - Version 3.0
WRAP  . NO                                  : One line per depth step
DLM   . SPACE                               : Column data section delimiter
SOURCE. Converted to LAS by Log Studio 4.76 : GeoProvider

~Well
STRT.         2428.0 : Start depth
STOP.         2769.0 : Stop depth
STEP.              1 : Step
NULL.        -999.25 : No-value
COMP.                : Company
WELL. 6407/2-3       : Well
FLD .                : Field
LOC .                : Location
LATI.                : Latitude
LONG.                : Longitude
GDAT.                : Geodetic datum
CNTY.                : County
STAT.                : State
CTRY.                : Country
SRVC. GeoProvider AS : Service company
DATE.                : Date
API .                : API number
RUN .                : Run number

~Parameters
WellboreName.  : Wellbore name
RigName     .  : Rig name
StartDate   .  : Start date

~Curves
DEPTH.m            .  : null {F}Depth mMD
Hole_ID.-          .  : null {S}Hole ID
GR.API             .  : null {F}Gamma Ray
Lithology1.-       .  : null {S}Lithology 1
Lithology2.-       .  : null {S}Lithology 2
Lithology3.-       .  : null {S}Lithology 3
Lithology1.%       .  : null {F}Lithology 1 percentage
Lithology2.%       .  : null {F}Lithology 2 percentage
Lithology3.%       .  : null {F}Lithology 3 percentage
Grain_size_Top.-   .  : null {S}Grain size at the top 
Grain_size_Base.-  .  : null {S}Grain size at the bottom
Sub_Environment.-  .  : null {S}Sub Environment
Gross_Environment.-.  : null {S}Gross Environment

~Ascii
# ...
2753.1 "6407_2-3"  76.7700 "Sandstone" "Shale"   -999.25    83.0000 17.00000      0.0 "vc"           "m"            "Bolge/fluvial-dominert_bukt._Storm/flompulser"                                              "Nedre_delta_slette"                     
2753.2 "6407_2-3"  77.9600 "Sandstone" "Shale"   -999.25    83.0000 17.00000      0.0 "vc"           "m"            "Bolge/fluvial-dominert_bukt._Storm/flompulser"                                              "Nedre_delta_slette"                     
2753.3 "6407_2-3"  78.5000 "Sandstone" "Shale"   -999.25    83.0000 17.00000      0.0 "vc"           "m"            "Bolge/fluvial-dominert_bukt._Storm/flompulser"                                              "Nedre_delta_slette"                     
2753.4 "6407_2-3"  78.8800 "Sandstone" "Shale"   -999.25    83.0000 17.00000      0.0 "vc"           "m"            "Bolge/fluvial-dominert_bukt._Storm/flompulser"                                              "Nedre_delta_slette"                     
2753.5 "6407_2-3"  78.8400 "Sandstone" "Shale"   -999.25    83.0000 17.00000      0.0 "vc"           "m"            "Bolge/fluvial-dominert_bukt._Storm/flompulser"                                              "Nedre_delta_slette"                     
2753.6 "6407_2-3"  78.5500 "Sandstone" "Shale"   -999.25    83.0000 17.00000      0.0 "vc"           "m"            "Bolge/fluvial-dominert_bukt._Storm/flompulser"                                              "Nedre_delta_slette"                     
2753.7 "6407_2-3"  77.9400 "Sandstone" "Shale"   -999.25    83.0000 17.00000      0.0 "vc"           "m"            "Bolge/fluvial-dominert_bukt._Storm/flompulser"                                              "Nedre_delta_slette"                     
2753.8 "6407_2-3"  76.7600 "Sandstone" "Shale"   -999.25    83.0000 17.00000      0.0 "vc"           "m"            "Bolge/fluvial-dominert_bukt._Storm/flompulser"                                              "Nedre_delta_slette"                     
2753.9 "6407_2-3"  74.5900 "Sandstone" "Shale"   -999.25    83.0000 17.00000      0.0 "vc"           "m"            "Bolge/fluvial-dominert_bukt._Storm/flompulser"                                              "Nedre_delta_slette"                     
2754.0 "6407_2-3"  72.0600 "Sandstone" "Shale"   -999.25    83.0000 17.00000      0.0 "vc"           "m"            "Bolge/fluvial-dominert_bukt._Storm/flompulser"                                              "Nedre_delta_slette"                     
2754.1 "6407_2-3"  70.5200 "Sandstone" "Shale"   -999.25    83.0000 17.00000      0.0 "vc"           "m"            "Bolge/fluvial-dominert_bukt._Storm/flompulser"                                              "Nedre_delta_slette"                     
2754.2 "6407_2-3"  69.5900 "Sandstone" "Shale"   -999.25    83.0000 17.00000      0.0 "vc"           "m"            "Bolge/fluvial-dominert_bukt._Storm/flompulser"                                              "Nedre_delta_slette"                     
2754.3 "6407_2-3"  69.2600 "Sandstone" "Shale"   -999.25    83.0000 17.00000      0.0 "vc"           "m"            "Bolge/fluvial-dominert_bukt._Storm/flompulser"                                              "Nedre_delta_slette"                     
2754.4 "6407_2-3"  69.0200 "Sandstone" "Shale"   -999.25    83.0000 17.00000      0.0 "vc"           "m"            "Bolge/fluvial-dominert_bukt._Storm/flompulser"                                              "Nedre_delta_slette"                     
2754.5 "6407_2-3"  69.0500 "Sandstone" "Shale"   -999.25    92.0000  8.00000      0.0 "vc"           "c/vc"         "Bolge/fluvial-dominert_bukt._Storm/flompulser"                                              "Nedre_delta_slette"                     
2754.6 "6407_2-3"  69.1800 "Sandstone" "Shale"   -999.25    92.0000  8.00000      0.0 "vc"           "c/vc"         "Bolge/fluvial-dominert_bukt._Storm/flompulser"                                              "Nedre_delta_slette"                     
2754.7 "6407_2-3"  69.7100 "Sandstone" "Shale"   -999.25    92.0000  8.00000      0.0 "vc"           "c/vc"         "Bolge/fluvial-dominert_bukt._Storm/flompulser"                                              "Nedre_delta_slette"                     
2754.8 "6407_2-3"  70.5700 "Sandstone" "Shale"   -999.25    92.0000  8.00000      0.0 "vc"           "c/vc"         "Bolge/fluvial-dominert_bukt._Storm/flompulser"                                              "Nedre_delta_slette"                     
2754.9 "6407_2-3"  72.0000 "Sandstone" "Shale"   -999.25    92.0000  8.00000      0.0 "vc"           "c/vc"         "Bolge/fluvial-dominert_bukt._Storm/flompulser"                                              "Nedre_delta_slette"                     
2755.0 "6407_2-3"  73.7000 "Sandstone" "Shale"   -999.25    92.0000  8.00000      0.0 "vc"           "c/vc"         "Bolge/fluvial-dominert_bukt._Storm/flompulser"                                              "Nedre_delta_slette"                     
2755.1 "6407_2-3"  75.2400 "Sandstone" "Shale"   -999.25    92.0000  8.00000      0.0 "vc"           "c/vc"         "Bolge/fluvial-dominert_bukt._Storm/flompulser"                                              "Nedre_delta_slette"                     
2755.2 "6407_2-3"  76.0300 "Sandstone" "Shale"   -999.25    92.0000  8.00000      0.0 "vc"           "c/vc"         "Bolge/fluvial-dominert_bukt._Storm/flompulser"                                              "Nedre_delta_slette"                     
2755.3 "6407_2-3"  76.2200 "Sandstone" "Shale"   -999.25    92.0000  8.00000      0.0 "vc"           "c/vc"         "Bolge/fluvial-dominert_bukt._Storm/flompulser"                                              "Nedre_delta_slette"                     
2755.4 "6407_2-3"  75.7300 "Sandstone" "Shale"   -999.25    92.0000  8.00000      0.0 "vc"           "c/vc"         "Bolge/fluvial-dominert_bukt._Storm/flompulser"                                              "Nedre_delta_slette"                     
2755.5 "6407_2-3"  75.2700 "Sandstone" "Shale"   -999.25    92.0000  8.00000      0.0 "vc"           "c/vc"         "Bolge/fluvial-dominert_bukt._Storm/flompulser"                                              "Nedre_delta_slette"                     
2755.6 "6407_2-3"  75.1700 "Sandstone" "Shale"   -999.25    92.0000  8.00000      0.0 "vc"           "c/vc"         "Bolge/fluvial-dominert_bukt._Storm/flompulser"                                              "Nedre_delta_slette"                     
2755.7 "6407_2-3"  75.1700 "Sandstone" "Shale"   -999.25    92.0000  8.00000      0.0 "vc"           "c/vc"         "Bolge/fluvial-dominert_bukt._Storm/flompulser"                                              "Nedre_delta_slette"                     
2755.8 "6407_2-3"  75.2800 "Sandstone" "Shale"   -999.25    92.0000  8.00000      0.0 "vc"           "c/vc"         "Bolge/fluvial-dominert_bukt._Storm/flompulser"                                              "Nedre_delta_slette"                     
2755.9 "6407_2-3"  75.7000 "Sandstone" "Shale"   -999.25    92.0000  8.00000      0.0 "vc"           "c/vc"         "Bolge/fluvial-dominert_bukt._Storm/flompulser"                                              "Nedre_delta_slette"                     
2756.0 "6407_2-3"  76.7400 "Sandstone" "Shale"   -999.25    92.0000  8.00000      0.0 "vc"           "c/vc"         "Bolge/fluvial-dominert_bukt._Storm/flompulser"                                              "Nedre_delta_slette"                     
2756.1 "6407_2-3"  77.7800 "Sandstone" "Shale"   -999.25    92.0000  8.00000      0.0 "vc"           "c/vc"         "Bolge/fluvial-dominert_bukt._Storm/flompulser"                                              "Nedre_delta_slette"                     
2756.2 "6407_2-3"  78.7700 "Sandstone" "Shale"   -999.25    92.0000  8.00000      0.0 "vc"           "c/vc"         "Bolge/fluvial-dominert_bukt._Storm/flompulser"                                              "Nedre_delta_slette"                     
