~Version
VERS  .                                 3.0 : CWLS LAS ASCII Standard - Version 3.0
WRAP  . NO                                  : One line per depth step
DLM   . SPACE                               : Column data section delimiter
SOURCE. Converted to LAS by Log Studio 4.76 : GeoProvider

~Well
STRT.         2428.0 : Start depth
STOP.         2769.0 : Stop depth
STEP.              1 : Step
NULL.        -999.25 : No-value
COMP.                : Company
WELL. 6407/2-3       : Well
FLD .                : Field
LOC .                : Location
LATI.                : Latitude
LONG.                : Longitude
GDAT.                : Geodetic datum
CNTY.                : County
STAT.                : State
CTRY.                : Country
SRVC. GeoProvider AS : Service company
DATE.                : Date
API .                : API number
RUN .                : Run number

~Parameters
WellboreName.  : Wellbore name
RigName     .  : Rig name
StartDate   .  : Start date

~Curves
DEPTH.m            .  : null {F}Depth mMD
Hole_ID.-          .  : null {S}Hole ID
GR.API             .  : null {F}Gamma Ray
Lithology1.-       .  : null {S}Lithology 1
Lithology2.-       .  : null {S}Lithology 2
Lithology3.-       .  : null {S}Lithology 3
Lithology1.%       .  : null {F}Lithology 1 percentage
Lithology2.%       .  : null {F}Lithology 2 percentage
Lithology3.%       .  : null {F}Lithology 3 percentage
Grain_size_Top.-   .  : null {S}Grain size at the top 
Grain_size_Base.-  .  : null {S}Grain size at the bottom
Sub_Environment.-  .  : null {S}Sub Environment
Gross_Environment.-.  : null {S}Gross Environment

~Ascii
# ...
2743.5 "6407_2-3"  78.2700 "Sandstone" "Shale"   -999.25    50.0000 50.00000      0.0 "vf/f"         "vf/f"         "Apen_marin_Distale_facies;lav_energiforhold_(Prodelta)"                                     "Prodelta"                               
2743.6 "6407_2-3"  77.8200 "Sandstone" "Shale"   -999.25    50.0000 50.00000      0.0 "vf/f"         "vf/f"         "Apen_marin_Distale_facies;lav_energiforhold_(Prodelta)"                                     "Prodelta"                               
2743.7 "6407_2-3"  77.3700 "Sandstone" "Shale"   -999.25    50.0000 50.00000      0.0 "vf/f"         "vf/f"         "Apen_marin_Distale_facies;lav_energiforhold_(Prodelta)"                                     "Prodelta"                               
2743.8 "6407_2-3"  77.0900 "Sandstone" "Shale"   -999.25    50.0000 50.00000      0.0 "vf/f"         "vf/f"         "Apen_marin_Distale_facies;lav_energiforhold_(Prodelta)"                                     "Prodelta"                               
2743.9 "6407_2-3"  77.0600 "Sandstone" "Shale"   -999.25    50.0000 50.00000      0.0 "vf/f"         "vf/f"         "Apen_marin_Distale_facies;lav_energiforhold_(Prodelta)"                                     "Prodelta"                               
2744.0 "6407_2-3"  77.0300 "Sandstone" "Shale"   -999.25    50.0000 50.00000      0.0 "vf/f"         "vf/f"         "Apen_marin_Distale_facies;lav_energiforhold_(Prodelta)"                                     "Prodelta"                               
2744.1 "6407_2-3"  77.0000 "Sandstone" "Shale"   -999.25    50.0000 50.00000      0.0 "vf/f"         "vf/f"         "Apen_marin_Distale_facies;lav_energiforhold_(Prodelta)"                                     "Prodelta"                               
2744.2 "6407_2-3"  76.9700 "Sandstone" "Shale"   -999.25    50.0000 50.00000      0.0 "vf/f"         "vf/f"         "Apen_marin_Distale_facies;lav_energiforhold_(Prodelta)"                                     "Prodelta"                               
2744.3 "6407_2-3"  76.8900 "Sandstone" "Shale"   -999.25    50.0000 50.00000      0.0 "vf/f"         "vf/f"         "Apen_marin_Distale_facies;lav_energiforhold_(Prodelta)"                                     "Prodelta"                               
2744.4 "6407_2-3"  76.5700 "Sandstone" "Shale"   -999.25    50.0000 50.00000      0.0 "vf/f"         "vf/f"         "Apen_marin_Distale_facies;lav_energiforhold_(Prodelta)"                                     "Prodelta"                               
2744.5 "6407_2-3"  76.2400 "Sandstone" "Shale"   -999.25    50.0000 50.00000      0.0 "vf/f"         "vf/f"         "Apen_marin_Distale_facies;lav_energiforhold_(Prodelta)"                                     "Prodelta"                               
2744.6 "6407_2-3"  75.9100 "Sandstone" "Shale"   -999.25    50.0000 50.00000      0.0 "vf/f"         "vf/f"         "Apen_marin_Distale_facies;lav_energiforhold_(Prodelta)"                                     "Prodelta"                               
2744.7 "6407_2-3"  75.5900 "Sandstone" "Shale"   -999.25    50.0000 50.00000      0.0 "vf/f"         "vf/f"         "Apen_marin_Distale_facies;lav_energiforhold_(Prodelta)"                                     "Prodelta"                               
2744.8 "6407_2-3"  75.2600 "Sandstone" "Shale"   -999.25    50.0000 50.00000      0.0 "vf/f"         "vf/f"         "Apen_marin_Distale_facies;lav_energiforhold_(Prodelta)"                                     "Prodelta"                               
2744.9 "6407_2-3"  74.9400 "Sandstone" "Shale"   -999.25    50.0000 50.00000      0.0 "vf/f"         "vf/f"         "Apen_marin_Distale_facies;lav_energiforhold_(Prodelta)"                                     "Prodelta"                               
2745.0 "6407_2-3"  74.6100 "Sandstone" "Shale"   -999.25    50.0000 50.00000      0.0 "vf/f"         "vf/f"         "Apen_marin_Distale_facies;lav_energiforhold_(Prodelta)"                                     "Prodelta"                               
2745.1 "6407_2-3"  74.2800 "Sandstone" "Shale"   -999.25    50.0000 50.00000      0.0 "vf/f"         "vf/f"         "Apen_marin_Distale_facies;lav_energiforhold_(Prodelta)"                                     "Prodelta"                               
2745.2 "6407_2-3"  73.9600 "Sandstone" "Shale"   -999.25    50.0000 50.00000      0.0 "vf/f"         "vf/f"         "Apen_marin_Distale_facies;lav_energiforhold_(Prodelta)"                                     "Prodelta"                               
2745.3 "6407_2-3"  73.7100 "Sandstone" "Shale"   -999.25    50.0000 50.00000      0.0 "vf/f"         "vf/f"         "Apen_marin_Distale_facies;lav_energiforhold_(Prodelta)"                                     "Prodelta"                               
2745.4 "6407_2-3"  74.1000 "Sandstone" "Shale"   -999.25    50.0000 50.00000      0.0 "vf/f"         "vf/f"         "Apen_marin_Distale_facies;lav_energiforhold_(Prodelta)"                                     "Prodelta"                               
2745.5 "6407_2-3"  75.2600 "Sandstone" "Shale"   -999.25    50.0000 50.00000      0.0 "vf/f"         "vf/f"         "Apen_marin_Distale_facies;lav_energiforhold_(Prodelta)"                                     "Prodelta"                               
2745.6 "6407_2-3"  76.5200 "Sandstone" "Shale"   -999.25    50.0000 50.00000      0.0 "vf/f"         "vf/f"         "Apen_marin_Distale_facies;lav_energiforhold_(Prodelta)"                                     "Prodelta"                               
2745.7 "6407_2-3"  77.7800 "Sandstone" "Shale"   -999.25    50.0000 50.00000      0.0 "vf/f"         "vf/f"         "Apen_marin_Distale_facies;lav_energiforhold_(Prodelta)"                                     "Prodelta"                               
2745.8 "6407_2-3"  79.0400 "Sandstone" "Shale"   -999.25    50.0000 50.00000      0.0 "vf/f"         "vf/f"         "Apen_marin_Distale_facies;lav_energiforhold_(Prodelta)"                                     "Prodelta"                               
2745.9 "6407_2-3"  80.3000 "Sandstone" "Shale"   -999.25    50.0000 50.00000      0.0 "vf/f"         "vf/f"         "Apen_marin_Distale_facies;lav_energiforhold_(Prodelta)"                                     "Prodelta"                               
2746.0 "6407_2-3"  81.5600 "Sandstone" "Shale"   -999.25    50.0000 50.00000      0.0 "vf/f"         "vf/f"         "Apen_marin_Distale_facies;lav_energiforhold_(Prodelta)"                                     "Prodelta"                               
2746.1 "6407_2-3"  83.0700 "Sandstone" "Shale"   -999.25    50.0000 50.00000      0.0 "vf/f"         "vf/f"         "Apen_marin_Distale_facies;lav_energiforhold_(Prodelta)"                                     "Prodelta"                               
2746.2 "6407_2-3"  84.2800 "Sandstone" "Shale"   -999.25    50.0000 50.00000      0.0 "vf/f"         "vf/f"         "Apen_marin_Distale_facies;lav_energiforhold_(Prodelta)"                                     "Prodelta"                               
2746.3 "6407_2-3"  84.4400 "Sandstone" "Shale"   -999.25    50.0000 50.00000      0.0 "vf/f"         "vf/f"         "Apen_marin_Distale_facies;lav_energiforhold_(Prodelta)"                                     "Prodelta"                               
2746.4 "6407_2-3"  84.4300 "Sandstone" "Shale"   -999.25    50.0000 50.00000      0.0 "vf/f"         "vf/f"         "Apen_marin_Distale_facies;lav_energiforhold_(Prodelta)"                                     "Prodelta"                               
2746.5 "6407_2-3"  83.4400 "Sandstone" "Shale"   -999.25    50.0000 50.00000      0.0 "vf/f"         "vf/f"         "Apen_marin_Distale_facies;lav_energiforhold_(Prodelta)"                                     "Prodelta"                               
2746.6 "6407_2-3"  81.9100 "Sandstone" "Shale"   -999.25    50.0000 50.00000      0.0 "vf/f"         "vf/f"         "Apen_marin_Distale_facies;lav_energiforhold_(Prodelta)"                                     "Prodelta"                               
