~Version
VERS  .                                 3.0 : CWLS LAS ASCII Standard - Version 3.0
WRAP  . NO                                  : One line per depth step
DLM   . SPACE                               : Column data section delimiter
SOURCE. Converted to LAS by Log Studio 4.76 : GeoProvider

~Well
STRT.         2428.0 : Start depth
STOP.         2769.0 : Stop depth
STEP.              1 : Step
NULL.        -999.25 : No-value
COMP.                : Company
WELL. 6407/2-3       : Well
FLD .                : Field
LOC .                : Location
LATI.                : Latitude
LONG.                : Longitude
GDAT.                : Geodetic datum
CNTY.                : County
STAT.                : State
CTRY.                : Country
SRVC. GeoProvider AS : Service company
DATE.                : Date
API .                : API number
RUN .                : Run number

~Parameters
WellboreName.  : Wellbore name
RigName     .  : Rig name
StartDate   .  : Start date

~Curves
DEPTH.m            .  : null {F}Depth mMD
Hole_ID.-          .  : null {S}Hole ID
GR.API             .  : null {F}Gamma Ray
Lithology1.-       .  : null {S}Lithology 1
Lithology2.-       .  : null {S}Lithology 2
Lithology3.-       .  : null {S}Lithology 3
Lithology1.%       .  : null {F}Lithology 1 percentage
Lithology2.%       .  : null {F}Lithology 2 percentage
Lithology3.%       .  : null {F}Lithology 3 percentage
Grain_size_Top.-   .  : null {S}Grain size at the top 
Grain_size_Base.-  .  : null {S}Grain size at the bottom
Sub_Environment.-  .  : null {S}Sub Environment
Gross_Environment.-.  : null {S}Gross Environment

~Ascii
# ...
2562.4 "6407_2-3"  49.5800 "Sandstone" -999.25   -999.25   100.0000      0.0      0.0 "c"            "c"            "Subtidal_sandbanke-kompleks_(Delvis_bolge-pavirkning)"                                      "Delta_front/delta_slettekompleks_(estuar)"
2562.5 "6407_2-3"  50.9100 "Sandstone" -999.25   -999.25   100.0000      0.0      0.0 "c"            "c"            "Subtidal_sandbanke-kompleks_(Delvis_bolge-pavirkning)"                                      "Delta_front/delta_slettekompleks_(estuar)"
2562.6 "6407_2-3"  52.9100 "Sandstone" -999.25   -999.25   100.0000      0.0      0.0 "c"            "c"            "Subtidal_sandbanke-kompleks_(Delvis_bolge-pavirkning)"                                      "Delta_front/delta_slettekompleks_(estuar)"
2562.7 "6407_2-3"  54.6700 "Sandstone" -999.25   -999.25   100.0000      0.0      0.0 "c"            "c"            "Subtidal_sandbanke-kompleks_(Delvis_bolge-pavirkning)"                                      "Delta_front/delta_slettekompleks_(estuar)"
2562.8 "6407_2-3"  55.4900 "Sandstone" -999.25   -999.25   100.0000      0.0      0.0 "c"            "c"            "Subtidal_sandbanke-kompleks_(Delvis_bolge-pavirkning)"                                      "Delta_front/delta_slettekompleks_(estuar)"
2562.9 "6407_2-3"  56.3100 "Sandstone" -999.25   -999.25   100.0000      0.0      0.0 "c"            "c"            "Subtidal_sandbanke-kompleks_(Delvis_bolge-pavirkning)"                                      "Delta_front/delta_slettekompleks_(estuar)"
2563.0 "6407_2-3"  56.4300 "Sandstone" -999.25   -999.25   100.0000      0.0      0.0 "c"            "c"            "Subtidal_sandbanke-kompleks_(Delvis_bolge-pavirkning)"                                      "Delta_front/delta_slettekompleks_(estuar)"
2563.1 "6407_2-3"  56.1600 "Sandstone" -999.25   -999.25   100.0000      0.0      0.0 "c"            "c"            "Subtidal_sandbanke-kompleks_(Delvis_bolge-pavirkning)"                                      "Delta_front/delta_slettekompleks_(estuar)"
2563.2 "6407_2-3"  55.5200 "Sandstone" -999.25   -999.25   100.0000      0.0      0.0 "c"            "c"            "Subtidal_sandbanke-kompleks_(Delvis_bolge-pavirkning)"                                      "Delta_front/delta_slettekompleks_(estuar)"
2563.3 "6407_2-3"  54.7900 "Sandstone" -999.25   -999.25   100.0000      0.0      0.0 "c"            "c"            "Subtidal_sandbanke-kompleks_(Delvis_bolge-pavirkning)"                                      "Delta_front/delta_slettekompleks_(estuar)"
2563.4 "6407_2-3"  54.0100 "Sandstone" -999.25   -999.25   100.0000      0.0      0.0 "c"            "c"            "Subtidal_sandbanke-kompleks_(Delvis_bolge-pavirkning)"                                      "Delta_front/delta_slettekompleks_(estuar)"
2563.5 "6407_2-3"  53.4700 "Sandstone" -999.25   -999.25   100.0000      0.0      0.0 "c"            "c"            "Subtidal_sandbanke-kompleks_(Delvis_bolge-pavirkning)"                                      "Delta_front/delta_slettekompleks_(estuar)"
2563.6 "6407_2-3"  53.4300 "Sandstone" -999.25   -999.25   100.0000      0.0      0.0 "c"            "c"            "Subtidal_sandbanke-kompleks_(Delvis_bolge-pavirkning)"                                      "Delta_front/delta_slettekompleks_(estuar)"
2563.7 "6407_2-3"  53.5600 "Sandstone" -999.25   -999.25   100.0000      0.0      0.0 "c"            "c"            "Subtidal_sandbanke-kompleks_(Delvis_bolge-pavirkning)"                                      "Delta_front/delta_slettekompleks_(estuar)"
2563.8 "6407_2-3"  53.7600 "Sandstone" -999.25   -999.25   100.0000      0.0      0.0 "c"            "c"            "Subtidal_sandbanke-kompleks_(Delvis_bolge-pavirkning)"                                      "Delta_front/delta_slettekompleks_(estuar)"
2563.9 "6407_2-3"  54.4300 "Sandstone" -999.25   -999.25   100.0000      0.0      0.0 "c"            "c"            "Subtidal_sandbanke-kompleks_(Delvis_bolge-pavirkning)"                                      "Delta_front/delta_slettekompleks_(estuar)"
2564.0 "6407_2-3"  55.0700 "Sandstone" -999.25   -999.25   100.0000      0.0      0.0 "c"            "c"            "Subtidal_sandbanke-kompleks_(Delvis_bolge-pavirkning)"                                      "Delta_front/delta_slettekompleks_(estuar)"
2564.1 "6407_2-3"  55.0500 "Sandstone" -999.25   -999.25   100.0000      0.0      0.0 "c"            "c"            "Subtidal_sandbanke-kompleks_(Delvis_bolge-pavirkning)"                                      "Delta_front/delta_slettekompleks_(estuar)"
2564.2 "6407_2-3"  55.0300 "Sandstone" -999.25   -999.25   100.0000      0.0      0.0 "c"            "c"            "Subtidal_sandbanke-kompleks_(Delvis_bolge-pavirkning)"                                      "Delta_front/delta_slettekompleks_(estuar)"
2564.3 "6407_2-3"  55.0100 "Sandstone" -999.25   -999.25   100.0000      0.0      0.0 "c"            "c"            "Subtidal_sandbanke-kompleks_(Delvis_bolge-pavirkning)"                                      "Delta_front/delta_slettekompleks_(estuar)"
2564.4 "6407_2-3"  55.3500 "Sandstone" -999.25   -999.25   100.0000      0.0      0.0 "c"            "c"            "Subtidal_sandbanke-kompleks_(Delvis_bolge-pavirkning)"                                      "Delta_front/delta_slettekompleks_(estuar)"
2564.5 "6407_2-3"  56.5400 "Sandstone" -999.25   -999.25   100.0000      0.0      0.0 "c"            "c"            "Subtidal_sandbanke-kompleks_(Delvis_bolge-pavirkning)"                                      "Delta_front/delta_slettekompleks_(estuar)"
2564.6 "6407_2-3"  57.6800 "Sandstone" -999.25   -999.25   100.0000      0.0      0.0 "c"            "c"            "Subtidal_sandbanke-kompleks_(Delvis_bolge-pavirkning)"                                      "Delta_front/delta_slettekompleks_(estuar)"
2564.7 "6407_2-3"  58.6400 "Sandstone" -999.25   -999.25   100.0000      0.0      0.0 "c"            "c"            "Subtidal_sandbanke-kompleks_(Delvis_bolge-pavirkning)"                                      "Delta_front/delta_slettekompleks_(estuar)"
2564.8 "6407_2-3"  59.6100 "Sandstone" -999.25   -999.25   100.0000      0.0      0.0 "c"            "c"            "Subtidal_sandbanke-kompleks_(Delvis_bolge-pavirkning)"                                      "Delta_front/delta_slettekompleks_(estuar)"
2564.9 "6407_2-3"  60.5800 "Sandstone" -999.25   -999.25   100.0000      0.0      0.0 "c"            "c"            "Subtidal_sandbanke-kompleks_(Delvis_bolge-pavirkning)"                                      "Delta_front/delta_slettekompleks_(estuar)"
2565.0 "6407_2-3"  63.3100 "Sandstone" -999.25   -999.25   100.0000      0.0      0.0 "c"            "c"            "Subtidal_sandbanke-kompleks_(Delvis_bolge-pavirkning)"                                      "Delta_front/delta_slettekompleks_(estuar)"
2565.1 "6407_2-3"  64.0500 "Sandstone" -999.25   -999.25   100.0000      0.0      0.0 "c"            "c"            "Subtidal_sandbanke-kompleks_(Delvis_bolge-pavirkning)"                                      "Delta_front/delta_slettekompleks_(estuar)"
2565.2 "6407_2-3"  64.8000 "Sandstone" -999.25   -999.25   100.0000      0.0      0.0 "c"            "c"            "Subtidal_sandbanke-kompleks_(Delvis_bolge-pavirkning)"                                      "Delta_front/delta_slettekompleks_(estuar)"
2565.3 "6407_2-3"  65.4800 "Sandstone" -999.25   -999.25   100.0000      0.0      0.0 "c"            "c"            "Subtidal_sandbanke-kompleks_(Delvis_bolge-pavirkning)"                                      "Delta_front/delta_slettekompleks_(estuar)"
2565.4 "6407_2-3"  65.7400 "Sandstone" -999.25   -999.25   100.0000      0.0      0.0 "c"            "c"            "Subtidal_sandbanke-kompleks_(Delvis_bolge-pavirkning)"                                      "Delta_front/delta_slettekompleks_(estuar)"
2565.5 "6407_2-3"  66.3800 "Sandstone" -999.25   -999.25   100.0000      0.0      0.0 "c"            "c"            "Subtidal_sandbanke-kompleks_(Delvis_bolge-pavirkning)"                                      "Delta_front/delta_slettekompleks_(estuar)"
