~Version
VERS  .                                 3.0 : CWLS LAS ASCII Standard - Version 3.0
WRAP  . NO                                  : One line per depth step
DLM   . SPACE                               : Column data section delimiter
SOURCE. Converted to LAS by Log Studio 4.76 : GeoProvider

~Well
STRT.         2428.0 : Start depth
STOP.         2769.0 : Stop depth
STEP.              1 : Step
NULL.        -999.25 : No-value
COMP.                : Company
WELL. 6407/2-3       : Well
FLD .                : Field
LOC .                : Location
LATI.                : Latitude
LONG.                : Longitude
GDAT.                : Geodetic datum
CNTY.                : County
STAT.                : State
CTRY.                : Country
SRVC. GeoProvider AS : Service company
DATE.                : Date
API .                : API number
RUN .                : Run number

~Parameters
WellboreName.  : Wellbore name
RigName     .  : Rig name
StartDate   .  : Start date

~Curves
DEPTH.m            .  : null {F}Depth mMD
Hole_ID.-          .  : null {S}Hole ID
GR.API             .  : null {F}Gamma Ray
Lithology1.-       .  : null {S}Lithology 1
Lithology2.-       .  : null {S}Lithology 2
Lithology3.-       .  : null {S}Lithology 3
Lithology1.%       .  : null {F}Lithology 1 percentage
Lithology2.%       .  : null {F}Lithology 2 percentage
Lithology3.%       .  : null {F}Lithology 3 percentage
Grain_size_Top.-   .  : null {S}Grain size at the top 
Grain_size_Base.-  .  : null {S}Grain size at the bottom
Sub_Environment.-  .  : null {S}Sub Environment
Gross_Environment.-.  : null {S}Gross Environment

~Ascii
# ...
2530.4 "6407_2-3" 115.3800 "Sandstone" "Shale"   -999.25    90.0000 10.00000      0.0 "f"            "m/c"          "Subtidal_sandbanke"                                                                         "Delta_front/delta_slettekompleks_(estuar)"
2530.5 "6407_2-3" 118.2100 "Sandstone" "Shale"   -999.25    90.0000 10.00000      0.0 "f"            "m/c"          "Subtidal_sandbanke"                                                                         "Delta_front/delta_slettekompleks_(estuar)"
2530.6 "6407_2-3" 118.0200 "Sandstone" "Shale"   -999.25    90.0000 10.00000      0.0 "f"            "m/c"          "Subtidal_sandbanke"                                                                         "Delta_front/delta_slettekompleks_(estuar)"
2530.7 "6407_2-3" 114.5200 "Sandstone" "Shale"   -999.25    90.0000 10.00000      0.0 "f"            "m/c"          "Subtidal_sandbanke"                                                                         "Delta_front/delta_slettekompleks_(estuar)"
2530.8 "6407_2-3" 109.5100 "Sandstone" "Shale"   -999.25    90.0000 10.00000      0.0 "f"            "m/c"          "Subtidal_sandbanke"                                                                         "Delta_front/delta_slettekompleks_(estuar)"
2530.9 "6407_2-3" 100.6400 "Sandstone" "Shale"   -999.25    90.0000 10.00000      0.0 "f"            "m/c"          "Subtidal_sandbanke"                                                                         "Delta_front/delta_slettekompleks_(estuar)"
2531.0 "6407_2-3"  94.4000 "Sandstone" "Shale"   -999.25    90.0000 10.00000      0.0 "f"            "m/c"          "Subtidal_sandbanke"                                                                         "Delta_front/delta_slettekompleks_(estuar)"
2531.1 "6407_2-3"  89.3700 "Sandstone" "Shale"   -999.25    90.0000 10.00000      0.0 "f"            "m/c"          "Subtidal_sandbanke"                                                                         "Delta_front/delta_slettekompleks_(estuar)"
2531.2 "6407_2-3"  83.0800 "Sandstone" "Shale"   -999.25    90.0000 10.00000      0.0 "f"            "m/c"          "Subtidal_sandbanke"                                                                         "Delta_front/delta_slettekompleks_(estuar)"
2531.3 "6407_2-3"  79.6500 "Sandstone" "Shale"   -999.25    90.0000 10.00000      0.0 "f"            "m/c"          "Subtidal_sandbanke"                                                                         "Delta_front/delta_slettekompleks_(estuar)"
2531.4 "6407_2-3"  78.3100 "Sandstone" "Shale"   -999.25    90.0000 10.00000      0.0 "f"            "m/c"          "Subtidal_sandbanke"                                                                         "Delta_front/delta_slettekompleks_(estuar)"
2531.5 "6407_2-3"  77.3200 "Sandstone" "Shale"   -999.25    90.0000 10.00000      0.0 "f"            "m/c"          "Subtidal_sandbanke"                                                                         "Delta_front/delta_slettekompleks_(estuar)"
2531.6 "6407_2-3"  76.3200 "Sandstone" "Shale"   -999.25    90.0000 10.00000      0.0 "f"            "m/c"          "Subtidal_sandbanke"                                                                         "Delta_front/delta_slettekompleks_(estuar)"
2531.7 "6407_2-3"  75.6600 "Sandstone" "Shale"   -999.25    90.0000 10.00000      0.0 "f"            "m/c"          "Subtidal_sandbanke"                                                                         "Delta_front/delta_slettekompleks_(estuar)"
2531.8 "6407_2-3"  76.4100 "Sandstone" "Shale"   -999.25    90.0000 10.00000      0.0 "f"            "m/c"          "Subtidal_sandbanke"                                                                         "Delta_front/delta_slettekompleks_(estuar)"
2531.9 "6407_2-3"  78.1100 "Sandstone" "Shale"   -999.25    90.0000 10.00000      0.0 "f"            "m/c"          "Subtidal_sandbanke"                                                                         "Delta_front/delta_slettekompleks_(estuar)"
2532.0 "6407_2-3"  79.9000 "Sandstone" "Shale"   -999.25    90.0000 10.00000      0.0 "f"            "m/c"          "Subtidal_sandbanke"                                                                         "Delta_front/delta_slettekompleks_(estuar)"
2532.1 "6407_2-3"  80.3700 "Sandstone" "Shale"   -999.25    90.0000 10.00000      0.0 "f"            "m/c"          "Subtidal_sandbanke"                                                                         "Delta_front/delta_slettekompleks_(estuar)"
2532.2 "6407_2-3"  80.2600 "Sandstone" "Shale"   -999.25    90.0000 10.00000      0.0 "f"            "m/c"          "Subtidal_sandbanke"                                                                         "Delta_front/delta_slettekompleks_(estuar)"
2532.3 "6407_2-3"  79.9400 "Sandstone" "Shale"   -999.25    90.0000 10.00000      0.0 "f"            "m/c"          "Subtidal_sandbanke"                                                                         "Delta_front/delta_slettekompleks_(estuar)"
2532.4 "6407_2-3"  79.7000 "Sandstone" "Shale"   -999.25    90.0000 10.00000      0.0 "f"            "m/c"          "Subtidal_sandbanke"                                                                         "Delta_front/delta_slettekompleks_(estuar)"
2532.5 "6407_2-3"  79.6700 "Sandstone" "Shale"   -999.25    90.0000 10.00000      0.0 "f"            "m/c"          "Subtidal_sandbanke"                                                                         "Delta_front/delta_slettekompleks_(estuar)"
2532.6 "6407_2-3"  79.6900 "Sandstone" "Shale"   -999.25    90.0000 10.00000      0.0 "f"            "m/c"          "Subtidal_sandbanke"                                                                         "Delta_front/delta_slettekompleks_(estuar)"
2532.7 "6407_2-3"  80.0000 "Sandstone" "Shale"   -999.25    95.0000  5.00000      0.0 "m/c"          "c/vc"         "Subtidal_sandbanke"                                                                         "Delta_front/delta_slettekompleks_(estuar)"
2532.8 "6407_2-3"  80.3000 "Sandstone" "Shale"   -999.25    95.0000  5.00000      0.0 "m/c"          "c/vc"         "Subtidal_sandbanke"                                                                         "Delta_front/delta_slettekompleks_(estuar)"
2532.9 "6407_2-3"  80.5200 "Sandstone" "Shale"   -999.25    95.0000  5.00000      0.0 "m/c"          "c/vc"         "Subtidal_sandbanke"                                                                         "Delta_front/delta_slettekompleks_(estuar)"
2533.0 "6407_2-3"  80.7000 "Sandstone" "Shale"   -999.25    95.0000  5.00000      0.0 "m/c"          "c/vc"         "Subtidal_sandbanke"                                                                         "Delta_front/delta_slettekompleks_(estuar)"
2533.1 "6407_2-3"  80.2700 "Sandstone" "Shale"   -999.25    95.0000  5.00000      0.0 "m/c"          "c/vc"         "Subtidal_sandbanke"                                                                         "Delta_front/delta_slettekompleks_(estuar)"
2533.2 "6407_2-3"  79.8000 "Sandstone" "Shale"   -999.25    95.0000  5.00000      0.0 "m/c"          "c/vc"         "Subtidal_sandbanke"                                                                         "Delta_front/delta_slettekompleks_(estuar)"
2533.3 "6407_2-3"  78.7300 "Sandstone" "Shale"   -999.25    95.0000  5.00000      0.0 "m/c"          "c/vc"         "Subtidal_sandbanke"                                                                         "Delta_front/delta_slettekompleks_(estuar)"
2533.4 "6407_2-3"  77.4300 "Sandstone" "Shale"   -999.25    95.0000  5.00000      0.0 "m/c"          "c/vc"         "Subtidal_sandbanke"                                                                         "Delta_front/delta_slettekompleks_(estuar)"
2533.5 "6407_2-3"  74.9300 "Sandstone" "Shale"   -999.25    95.0000  5.00000      0.0 "m/c"          "c/vc"         "Subtidal_sandbanke"                                                                         "Delta_front/delta_slettekompleks_(estuar)"
