~Version
VERS  .                                 3.0 : CWLS LAS ASCII Standard - Version 3.0
WRAP  . NO                                  : One line per depth step
DLM   . SPACE                               : Column data section delimiter
SOURCE. Converted to LAS by Log Studio 4.76 : GeoProvider

~Well
STRT.         2428.0 : Start depth
STOP.         2769.0 : Stop depth
STEP.              1 : Step
NULL.        -999.25 : No-value
COMP.                : Company
WELL. 6407/2-3       : Well
FLD .                : Field
LOC .                : Location
LATI.                : Latitude
LONG.                : Longitude
GDAT.                : Geodetic datum
CNTY.                : County
STAT.                : State
CTRY.                : Country
SRVC. GeoProvider AS : Service company
DATE.                : Date
API .                : API number
RUN .                : Run number

~Parameters
WellboreName.  : Wellbore name
RigName     .  : Rig name
StartDate   .  : Start date

~Curves
DEPTH.m            .  : null {F}Depth mMD
Hole_ID.-          .  : null {S}Hole ID
GR.API             .  : null {F}Gamma Ray
Lithology1.-       .  : null {S}Lithology 1
Lithology2.-       .  : null {S}Lithology 2
Lithology3.-       .  : null {S}Lithology 3
Lithology1.%       .  : null {F}Lithology 1 percentage
Lithology2.%       .  : null {F}Lithology 2 percentage
Lithology3.%       .  : null {F}Lithology 3 percentage
Grain_size_Top.-   .  : null {S}Grain size at the top 
Grain_size_Base.-  .  : null {S}Grain size at the bottom
Sub_Environment.-  .  : null {S}Sub Environment
Gross_Environment.-.  : null {S}Gross Environment

~Ascii
# ...
2540.0 "6407_2-3"  83.0400 "Sandstone" "Shale"   -999.25    85.0000 15.00000      0.0 "m/c"          "m"            "Tidevannskanal/subtidal_sandbanke-kompleks"                                                 "Delta_front/delta_slettekompleks_(estuar)"
2540.1 "6407_2-3"  83.5200 "Sandstone" "Shale"   -999.25    85.0000 15.00000      0.0 "m/c"          "m"            "Tidevannskanal/subtidal_sandbanke-kompleks"                                                 "Delta_front/delta_slettekompleks_(estuar)"
2540.2 "6407_2-3"  85.1500 "Sandstone" "Shale"   -999.25    85.0000 15.00000      0.0 "m/c"          "m"            "Tidevannskanal/subtidal_sandbanke-kompleks"                                                 "Delta_front/delta_slettekompleks_(estuar)"
2540.3 "6407_2-3"  86.3400 "Sandstone" "Shale"   -999.25    85.0000 15.00000      0.0 "m/c"          "m"            "Tidevannskanal/subtidal_sandbanke-kompleks"                                                 "Delta_front/delta_slettekompleks_(estuar)"
2540.4 "6407_2-3"  86.6600 "Sandstone" "Shale"   -999.25    85.0000 15.00000      0.0 "m/c"          "m"            "Tidevannskanal/subtidal_sandbanke-kompleks"                                                 "Delta_front/delta_slettekompleks_(estuar)"
2540.5 "6407_2-3"  86.4100 "Sandstone" "Shale"   -999.25    85.0000 15.00000      0.0 "m/c"          "m"            "Tidevannskanal/subtidal_sandbanke-kompleks"                                                 "Delta_front/delta_slettekompleks_(estuar)"
2540.6 "6407_2-3"  85.8500 "Sandstone" "Shale"   -999.25    85.0000 15.00000      0.0 "m/c"          "m"            "Tidevannskanal/subtidal_sandbanke-kompleks"                                                 "Delta_front/delta_slettekompleks_(estuar)"
2540.7 "6407_2-3"  85.2900 "Sandstone" "Shale"   -999.25    85.0000 15.00000      0.0 "m/c"          "m"            "Tidevannskanal/subtidal_sandbanke-kompleks"                                                 "Delta_front/delta_slettekompleks_(estuar)"
2540.8 "6407_2-3"  84.3900 "Sandstone" "Shale"   -999.25    85.0000 15.00000      0.0 "m/c"          "m"            "Tidevannskanal/subtidal_sandbanke-kompleks"                                                 "Delta_front/delta_slettekompleks_(estuar)"
2540.9 "6407_2-3"  83.3400 "Sandstone" "Shale"   -999.25    85.0000 15.00000      0.0 "m/c"          "m"            "Tidevannskanal/subtidal_sandbanke-kompleks"                                                 "Delta_front/delta_slettekompleks_(estuar)"
2541.0 "6407_2-3"  82.6900 "Sandstone" "Shale"   -999.25    85.0000 15.00000      0.0 "m/c"          "m"            "Tidevannskanal/subtidal_sandbanke-kompleks"                                                 "Delta_front/delta_slettekompleks_(estuar)"
2541.1 "6407_2-3"  82.2600 "Sandstone" "Shale"   -999.25    85.0000 15.00000      0.0 "m/c"          "m"            "Tidevannskanal/subtidal_sandbanke-kompleks"                                                 "Delta_front/delta_slettekompleks_(estuar)"
2541.2 "6407_2-3"  82.3600 "Sandstone" "Shale"   -999.25    85.0000 15.00000      0.0 "m/c"          "m"            "Tidevannskanal/subtidal_sandbanke-kompleks"                                                 "Delta_front/delta_slettekompleks_(estuar)"
2541.3 "6407_2-3"  82.7800 "Sandstone" "Shale"   -999.25    85.0000 15.00000      0.0 "m/c"          "m"            "Tidevannskanal/subtidal_sandbanke-kompleks"                                                 "Delta_front/delta_slettekompleks_(estuar)"
2541.4 "6407_2-3"  83.1900 "Sandstone" "Shale"   -999.25    85.0000 15.00000      0.0 "m/c"          "m"            "Tidevannskanal/subtidal_sandbanke-kompleks"                                                 "Delta_front/delta_slettekompleks_(estuar)"
2541.5 "6407_2-3"  83.6100 "Sandstone" "Shale"   -999.25    85.0000 15.00000      0.0 "m/c"          "m"            "Tidevannskanal/subtidal_sandbanke-kompleks"                                                 "Delta_front/delta_slettekompleks_(estuar)"
2541.6 "6407_2-3"  83.9300 "Sandstone" -999.25   -999.25   100.0000      0.0      0.0 "m/c"          "m/c"          "Tidevannskanal/subtidal_sandbanke-kompleks"                                                 "Delta_front/delta_slettekompleks_(estuar)"
2541.7 "6407_2-3"  83.6100 "Sandstone" -999.25   -999.25   100.0000      0.0      0.0 "m/c"          "m/c"          "Tidevannskanal/subtidal_sandbanke-kompleks"                                                 "Delta_front/delta_slettekompleks_(estuar)"
2541.8 "6407_2-3"  83.0000 "Sandstone" -999.25   -999.25   100.0000      0.0      0.0 "m/c"          "m/c"          "Tidevannskanal/subtidal_sandbanke-kompleks"                                                 "Delta_front/delta_slettekompleks_(estuar)"
2541.9 "6407_2-3"  81.9900 "Sandstone" -999.25   -999.25   100.0000      0.0      0.0 "m/c"          "m/c"          "Tidevannskanal/subtidal_sandbanke-kompleks"                                                 "Delta_front/delta_slettekompleks_(estuar)"
2542.0 "6407_2-3"  80.9800 "Sandstone" -999.25   -999.25   100.0000      0.0      0.0 "m/c"          "m/c"          "Tidevannskanal/subtidal_sandbanke-kompleks"                                                 "Delta_front/delta_slettekompleks_(estuar)"
2542.1 "6407_2-3"  79.7800 "Sandstone" -999.25   -999.25   100.0000      0.0      0.0 "m/c"          "m/c"          "Tidevannskanal/subtidal_sandbanke-kompleks"                                                 "Delta_front/delta_slettekompleks_(estuar)"
2542.2 "6407_2-3"  75.7100 "Sandstone" -999.25   -999.25   100.0000      0.0      0.0 "m/c"          "m/c"          "Tidevannskanal/subtidal_sandbanke-kompleks"                                                 "Delta_front/delta_slettekompleks_(estuar)"
2542.3 "6407_2-3"  74.0400 "Sandstone" -999.25   -999.25   100.0000      0.0      0.0 "m/c"          "m/c"          "Tidevannskanal/subtidal_sandbanke-kompleks"                                                 "Delta_front/delta_slettekompleks_(estuar)"
2542.4 "6407_2-3"  73.7100 "Sandstone" -999.25   -999.25   100.0000      0.0      0.0 "m/c"          "m/c"          "Tidevannskanal/subtidal_sandbanke-kompleks"                                                 "Delta_front/delta_slettekompleks_(estuar)"
2542.5 "6407_2-3"  73.8700 "Sandstone" -999.25   -999.25   100.0000      0.0      0.0 "m/c"          "m/c"          "Tidevannskanal/subtidal_sandbanke-kompleks"                                                 "Delta_front/delta_slettekompleks_(estuar)"
2542.6 "6407_2-3"  74.1500 "Sandstone" -999.25   -999.25   100.0000      0.0      0.0 "m/c"          "m/c"          "Tidevannskanal/subtidal_sandbanke-kompleks"                                                 "Delta_front/delta_slettekompleks_(estuar)"
2542.7 "6407_2-3"  74.8500 "Sandstone" -999.25   -999.25   100.0000      0.0      0.0 "m/c"          "m/c"          "Tidevannskanal/subtidal_sandbanke-kompleks"                                                 "Delta_front/delta_slettekompleks_(estuar)"
2542.8 "6407_2-3"  75.3900 "Sandstone" -999.25   -999.25   100.0000      0.0      0.0 "m/c"          "m/c"          "Tidevannskanal/subtidal_sandbanke-kompleks"                                                 "Delta_front/delta_slettekompleks_(estuar)"
2542.9 "6407_2-3"  75.4100 "Sandstone" -999.25   -999.25   100.0000      0.0      0.0 "m/c"          "m/c"          "Tidevannskanal/subtidal_sandbanke-kompleks"                                                 "Delta_front/delta_slettekompleks_(estuar)"
2543.0 "6407_2-3"  75.4300 "Sandstone" -999.25   -999.25   100.0000      0.0      0.0 "m/c"          "m/c"          "Tidevannskanal/subtidal_sandbanke-kompleks"                                                 "Delta_front/delta_slettekompleks_(estuar)"
2543.1 "6407_2-3"  75.4400 "Sandstone" -999.25   -999.25   100.0000      0.0      0.0 "m/c"          "m/c"          "Tidevannskanal/subtidal_sandbanke-kompleks"                                                 "Delta_front/delta_slettekompleks_(estuar)"
