~Version
VERS  .                                 3.0 : CWLS LAS ASCII Standard - Version 3.0
WRAP  . NO                                  : One line per depth step
DLM   . SPACE                               : Column data section delimiter
SOURCE. Converted to LAS by Log Studio 4.76 : GeoProvider

~Well
STRT.         2428.0 : Start depth
STOP.         2769.0 : Stop depth
STEP.              1 : Step
NULL.        -999.25 : No-value
COMP.                : Company
WELL. 6407/2-3       : Well
FLD .                : Field
LOC .                : Location
LATI.                : Latitude
LONG.                : Longitude
GDAT.                : Geodetic datum
CNTY.                : County
STAT.                : State
CTRY.                : Country
SRVC. GeoProvider AS : Service company
DATE.                : Date
API .                : API number
RUN .                : Run number

~Parameters
WellboreName.  : Wellbore name
RigName     .  : Rig name
StartDate   .  : Start date

~Curves
DEPTH.m            .  : null {F}Depth mMD
Hole_ID.-          .  : null {S}Hole ID
GR.API             .  : null {F}Gamma Ray
Lithology1.-       .  : null {S}Lithology 1
Lithology2.-       .  : null {S}Lithology 2
Lithology3.-       .  : null {S}Lithology 3
Lithology1.%       .  : null {F}Lithology 1 percentage
Lithology2.%       .  : null {F}Lithology 2 percentage
Lithology3.%       .  : null {F}Lithology 3 percentage
Grain_size_Top.-   .  : null {S}Grain size at the top 
Grain_size_Base.-  .  : null {S}Grain size at the bottom
Sub_Environment.-  .  : null {S}Sub Environment
Gross_Environment.-.  : null {S}Gross Environment

~Ascii
# ...
2485.6 "6407_2-3"  97.3800 "Sandstone" "Limestone" -999.25    80.0000 20.00000      0.0 "f"            "f/m"          "Erosjon_Proksimal_bolge_dominent_delta_front/munnings_banke_Distal_delta_front/munningsbanke" "Delta_front"                            
2485.7 "6407_2-3"  96.8000 "Sandstone" "Limestone" -999.25    80.0000 20.00000      0.0 "f"            "f/m"          "Erosjon_Proksimal_bolge_dominent_delta_front/munnings_banke_Distal_delta_front/munningsbanke" "Delta_front"                            
2485.8 "6407_2-3"  96.2200 "Sandstone" "Limestone" -999.25    80.0000 20.00000      0.0 "f"            "f/m"          "Erosjon_Proksimal_bolge_dominent_delta_front/munnings_banke_Distal_delta_front/munningsbanke" "Delta_front"                            
2485.9 "6407_2-3"  95.9000 "Sandstone" "Limestone" -999.25    80.0000 20.00000      0.0 "f"            "f/m"          "Erosjon_Proksimal_bolge_dominent_delta_front/munnings_banke_Distal_delta_front/munningsbanke" "Delta_front"                            
2486.0 "6407_2-3"  96.4100 "Sandstone" "Limestone" -999.25    80.0000 20.00000      0.0 "f"            "f/m"          "Erosjon_Proksimal_bolge_dominent_delta_front/munnings_banke_Distal_delta_front/munningsbanke" "Delta_front"                            
2486.1 "6407_2-3"  97.1600 "Sandstone" -999.25   -999.25   100.0000      0.0      0.0 "f/m"          "f/m"          "Erosjon_Proksimal_bolge_dominent_delta_front/munnings_banke_Distal_delta_front/munningsbanke" "Delta_front"                            
2486.2 "6407_2-3"  98.6000 "Sandstone" -999.25   -999.25   100.0000      0.0      0.0 "f/m"          "f/m"          "Erosjon_Proksimal_bolge_dominent_delta_front/munnings_banke_Distal_delta_front/munningsbanke" "Delta_front"                            
2486.3 "6407_2-3" 100.3700 "Sandstone" -999.25   -999.25   100.0000      0.0      0.0 "f/m"          "f/m"          "Erosjon_Proksimal_bolge_dominent_delta_front/munnings_banke_Distal_delta_front/munningsbanke" "Delta_front"                            
2486.4 "6407_2-3" 102.1300 "Sandstone" -999.25   -999.25   100.0000      0.0      0.0 "f/m"          "f/m"          "Erosjon_Proksimal_bolge_dominent_delta_front/munnings_banke_Distal_delta_front/munningsbanke" "Delta_front"                            
2486.5 "6407_2-3" 104.2400 "Sandstone" -999.25   -999.25   100.0000      0.0      0.0 "f/m"          "f/m"          "Erosjon_Proksimal_bolge_dominent_delta_front/munnings_banke_Distal_delta_front/munningsbanke" "Delta_front"                            
2486.6 "6407_2-3" 106.3400 "Sandstone" -999.25   -999.25   100.0000      0.0      0.0 "f/m"          "f/m"          "Erosjon_Proksimal_bolge_dominent_delta_front/munnings_banke_Distal_delta_front/munningsbanke" "Delta_front"                            
2486.7 "6407_2-3" 107.3800 "Sandstone" -999.25   -999.25   100.0000      0.0      0.0 "f/m"          "f/m"          "Erosjon_Proksimal_bolge_dominent_delta_front/munnings_banke_Distal_delta_front/munningsbanke" "Delta_front"                            
2486.8 "6407_2-3" 108.1000 "Sandstone" -999.25   -999.25   100.0000      0.0      0.0 "f/m"          "f/m"          "Erosjon_Proksimal_bolge_dominent_delta_front/munnings_banke_Distal_delta_front/munningsbanke" "Delta_front"                            
2486.9 "6407_2-3" 108.2000 "Sandstone" -999.25   -999.25   100.0000      0.0      0.0 "f/m"          "f/m"          "Erosjon_Proksimal_bolge_dominent_delta_front/munnings_banke_Distal_delta_front/munningsbanke" "Delta_front"                            
2487.0 "6407_2-3" 108.1500 "Sandstone" -999.25   -999.25   100.0000      0.0      0.0 "f/m"          "f/m"          "Erosjon_Proksimal_bolge_dominent_delta_front/munnings_banke_Distal_delta_front/munningsbanke" "Delta_front"                            
2487.1 "6407_2-3" 107.3200 "Sandstone" -999.25   -999.25   100.0000      0.0      0.0 "f/m"          "f/m"          "Erosjon_Proksimal_bolge_dominent_delta_front/munnings_banke_Distal_delta_front/munningsbanke" "Delta_front"                            
2487.2 "6407_2-3" 106.3800 "Sandstone" -999.25   -999.25   100.0000      0.0      0.0 "f/m"          "f/m"          "Erosjon_Proksimal_bolge_dominent_delta_front/munnings_banke_Distal_delta_front/munningsbanke" "Delta_front"                            
2487.3 "6407_2-3" 105.3300 "Sandstone" -999.25   -999.25   100.0000      0.0      0.0 "f/m"          "f/m"          "Erosjon_Proksimal_bolge_dominent_delta_front/munnings_banke_Distal_delta_front/munningsbanke" "Delta_front"                            
2487.4 "6407_2-3" 104.5400 "Sandstone" -999.25   -999.25   100.0000      0.0      0.0 "f/m"          "f/m"          "Erosjon_Proksimal_bolge_dominent_delta_front/munnings_banke_Distal_delta_front/munningsbanke" "Delta_front"                            
2487.5 "6407_2-3" 105.0500 "Sandstone" -999.25   -999.25   100.0000      0.0      0.0 "f/m"          "f/m"          "Erosjon_Proksimal_bolge_dominent_delta_front/munnings_banke_Distal_delta_front/munningsbanke" "Delta_front"                            
2487.6 "6407_2-3" 106.7100 "Sandstone" -999.25   -999.25   100.0000      0.0      0.0 "f/m"          "f/m"          "Erosjon_Proksimal_bolge_dominent_delta_front/munnings_banke_Distal_delta_front/munningsbanke" "Delta_front"                            
2487.7 "6407_2-3" 108.0000 "Sandstone" -999.25   -999.25   100.0000      0.0      0.0 "f/m"          "f/m"          "Erosjon_Proksimal_bolge_dominent_delta_front/munnings_banke_Distal_delta_front/munningsbanke" "Delta_front"                            
2487.8 "6407_2-3" 109.0800 "Sandstone" -999.25   -999.25   100.0000      0.0      0.0 "f/m"          "f/m"          "Erosjon_Proksimal_bolge_dominent_delta_front/munnings_banke_Distal_delta_front/munningsbanke" "Delta_front"                            
2487.9 "6407_2-3" 110.2400 "Sandstone" -999.25   -999.25   100.0000      0.0      0.0 "f/m"          "f/m"          "Erosjon_Proksimal_bolge_dominent_delta_front/munnings_banke_Distal_delta_front/munningsbanke" "Delta_front"                            
2488.0 "6407_2-3" 112.2200 "Sandstone" -999.25   -999.25   100.0000      0.0      0.0 "f/m"          "f/m"          "Erosjon_Proksimal_bolge_dominent_delta_front/munnings_banke_Distal_delta_front/munningsbanke" "Delta_front"                            
2488.1 "6407_2-3" 116.8600 "Sandstone" -999.25   -999.25   100.0000      0.0      0.0 "f/m"          "f/m"          "Erosjon_Proksimal_bolge_dominent_delta_front/munnings_banke_Distal_delta_front/munningsbanke" "Delta_front"                            
2488.2 "6407_2-3" 119.3000 "Sandstone" -999.25   -999.25   100.0000      0.0      0.0 "f/m"          "f/m"          "Erosjon_Proksimal_bolge_dominent_delta_front/munnings_banke_Distal_delta_front/munningsbanke" "Delta_front"                            
2488.3 "6407_2-3" 121.3000 "Sandstone" -999.25   -999.25   100.0000      0.0      0.0 "f/m"          "f/m"          "Erosjon_Proksimal_bolge_dominent_delta_front/munnings_banke_Distal_delta_front/munningsbanke" "Delta_front"                            
2488.4 "6407_2-3" 123.2200 "Sandstone" -999.25   -999.25   100.0000      0.0      0.0 "f/m"          "f/m"          "Erosjon_Proksimal_bolge_dominent_delta_front/munnings_banke_Distal_delta_front/munningsbanke" "Delta_front"                            
2488.5 "6407_2-3" 125.1300 "Sandstone" -999.25   -999.25   100.0000      0.0      0.0 "f/m"          "f/m"          "Erosjon_Proksimal_bolge_dominent_delta_front/munnings_banke_Distal_delta_front/munningsbanke" "Delta_front"                            
2488.6 "6407_2-3" 126.9200 "Sandstone" -999.25   -999.25   100.0000      0.0      0.0 "f/m"          "f/m"          "Erosjon_Proksimal_bolge_dominent_delta_front/munnings_banke_Distal_delta_front/munningsbanke" "Delta_front"                            
2488.7 "6407_2-3" 127.1400 "Sandstone" -999.25   -999.25   100.0000      0.0      0.0 "f/m"          "f/m"          "Erosjon_Proksimal_bolge_dominent_delta_front/munnings_banke_Distal_delta_front/munningsbanke" "Delta_front"                            
