~Version
VERS  .                                 3.0 : CWLS LAS ASCII Standard - Version 3.0
WRAP  . NO                                  : One line per depth step
DLM   . SPACE                               : Column data section delimiter
SOURCE. Converted to LAS by Log Studio 4.76 : GeoProvider

~Well
STRT.         2428.0 : Start depth
STOP.         2769.0 : Stop depth
STEP.              1 : Step
NULL.        -999.25 : No-value
COMP.                : Company
WELL. 6407/2-3       : Well
FLD .                : Field
LOC .                : Location
LATI.                : Latitude
LONG.                : Longitude
GDAT.                : Geodetic datum
CNTY.                : County
STAT.                : State
CTRY.                : Country
SRVC. GeoProvider AS : Service company
DATE.                : Date
API .                : API number
RUN .                : Run number

~Parameters
WellboreName.  : Wellbore name
RigName     .  : Rig name
StartDate   .  : Start date

~Curves
DEPTH.m            .  : null {F}Depth mMD
Hole_ID.-          .  : null {S}Hole ID
GR.API             .  : null {F}Gamma Ray
Lithology1.-       .  : null {S}Lithology 1
Lithology2.-       .  : null {S}Lithology 2
Lithology3.-       .  : null {S}Lithology 3
Lithology1.%       .  : null {F}Lithology 1 percentage
Lithology2.%       .  : null {F}Lithology 2 percentage
Lithology3.%       .  : null {F}Lithology 3 percentage
Grain_size_Top.-   .  : null {S}Grain size at the top 
Grain_size_Base.-  .  : null {S}Grain size at the bottom
Sub_Environment.-  .  : null {S}Sub Environment
Gross_Environment.-.  : null {S}Gross Environment

~Ascii
# ...
2463.2 "6407_2-3"  61.3900 "Sandstone" -999.25   -999.25   100.0000      0.0      0.0 "m/c"          "m/c"          "LOBESKIFTE/TRANGRESJON_Braid-delta_munningsbanke"                                           "Braid-delta_front"                      
2463.3 "6407_2-3"  60.8800 "Sandstone" -999.25   -999.25   100.0000      0.0      0.0 "m/c"          "m/c"          "LOBESKIFTE/TRANGRESJON_Braid-delta_munningsbanke"                                           "Braid-delta_front"                      
2463.4 "6407_2-3"  60.7000 "Sandstone" -999.25   -999.25   100.0000      0.0      0.0 "m/c"          "m/c"          "LOBESKIFTE/TRANGRESJON_Braid-delta_munningsbanke"                                           "Braid-delta_front"                      
2463.5 "6407_2-3"  60.6700 "Sandstone" -999.25   -999.25   100.0000      0.0      0.0 "m/c"          "m/c"          "LOBESKIFTE/TRANGRESJON_Braid-delta_munningsbanke"                                           "Braid-delta_front"                      
2463.6 "6407_2-3"  60.6500 "Sandstone" -999.25   -999.25   100.0000      0.0      0.0 "m/c"          "m/c"          "LOBESKIFTE/TRANGRESJON_Braid-delta_munningsbanke"                                           "Braid-delta_front"                      
2463.7 "6407_2-3"  60.5800 "Sandstone" -999.25   -999.25   100.0000      0.0      0.0 "m/c"          "m/c"          "LOBESKIFTE/TRANGRESJON_Braid-delta_munningsbanke"                                           "Braid-delta_front"                      
2463.8 "6407_2-3"  60.0800 "Sandstone" -999.25   -999.25   100.0000      0.0      0.0 "m/c"          "m/c"          "LOBESKIFTE/TRANGRESJON_Braid-delta_munningsbanke"                                           "Braid-delta_front"                      
2463.9 "6407_2-3"  59.9400 "Sandstone" -999.25   -999.25   100.0000      0.0      0.0 "m/c"          "m/c"          "LOBESKIFTE/TRANGRESJON_Braid-delta_munningsbanke"                                           "Braid-delta_front"                      
2464.0 "6407_2-3"  60.1600 "Sandstone" -999.25   -999.25   100.0000      0.0      0.0 "m/c"          "m/c"          "LOBESKIFTE/TRANGRESJON_Braid-delta_munningsbanke"                                           "Braid-delta_front"                      
2464.1 "6407_2-3"  60.6700 "Sandstone" -999.25   -999.25   100.0000      0.0      0.0 "m/c"          "m/c"          "LOBESKIFTE/TRANGRESJON_Braid-delta_munningsbanke"                                           "Braid-delta_front"                      
2464.2 "6407_2-3"  61.1800 "Sandstone" -999.25   -999.25   100.0000      0.0      0.0 "m/c"          "m/c"          "LOBESKIFTE/TRANGRESJON_Braid-delta_munningsbanke"                                           "Braid-delta_front"                      
2464.3 "6407_2-3"  61.7000 "Sandstone" -999.25   -999.25   100.0000      0.0      0.0 "m/c"          "m/c"          "LOBESKIFTE/TRANGRESJON_Braid-delta_munningsbanke"                                           "Braid-delta_front"                      
2464.4 "6407_2-3"  62.2100 "Sandstone" -999.25   -999.25   100.0000      0.0      0.0 "m/c"          "m/c"          "LOBESKIFTE/TRANGRESJON_Braid-delta_munningsbanke"                                           "Braid-delta_front"                      
2464.5 "6407_2-3"  62.4500 "Sandstone" -999.25   -999.25   100.0000      0.0      0.0 "m/c"          "m/c"          "LOBESKIFTE/TRANGRESJON_Braid-delta_munningsbanke"                                           "Braid-delta_front"                      
2464.6 "6407_2-3"  62.5200 "Sandstone" -999.25   -999.25   100.0000      0.0      0.0 "m/c"          "m/c"          "LOBESKIFTE/TRANGRESJON_Braid-delta_munningsbanke"                                           "Braid-delta_front"                      
2464.7 "6407_2-3"  62.4800 "Sandstone" -999.25   -999.25   100.0000      0.0      0.0 "m/c"          "m/c"          "LOBESKIFTE/TRANGRESJON_Braid-delta_munningsbanke"                                           "Braid-delta_front"                      
2464.8 "6407_2-3"  62.2700 "Sandstone" -999.25   -999.25   100.0000      0.0      0.0 "m/c"          "m/c"          "LOBESKIFTE/TRANGRESJON_Braid-delta_munningsbanke"                                           "Braid-delta_front"                      
2464.9 "6407_2-3"  62.0200 "Sandstone" -999.25   -999.25   100.0000      0.0      0.0 "m/c"          "m/c"          "LOBESKIFTE/TRANGRESJON_Braid-delta_munningsbanke"                                           "Braid-delta_front"                      
2465.0 "6407_2-3"  61.5100 "Sandstone" -999.25   -999.25   100.0000      0.0      0.0 "m/c"          "m/c"          "LOBESKIFTE/TRANGRESJON_Braid-delta_munningsbanke"                                           "Braid-delta_front"                      
2465.1 "6407_2-3"  61.0000 "Sandstone" -999.25   -999.25   100.0000      0.0      0.0 "m/c"          "m/c"          "LOBESKIFTE/TRANGRESJON_Braid-delta_munningsbanke"                                           "Braid-delta_front"                      
2465.2 "6407_2-3"  60.5200 "Sandstone" -999.25   -999.25   100.0000      0.0      0.0 "m/c"          "m/c"          "LOBESKIFTE/TRANGRESJON_Braid-delta_munningsbanke"                                           "Braid-delta_front"                      
2465.3 "6407_2-3"  60.1300 "Sandstone" -999.25   -999.25   100.0000      0.0      0.0 "m/c"          "m/c"          "LOBESKIFTE/TRANGRESJON_Braid-delta_munningsbanke"                                           "Braid-delta_front"                      
2465.4 "6407_2-3"  59.8100 "Sandstone" -999.25   -999.25   100.0000      0.0      0.0 "m/c"          "m/c"          "LOBESKIFTE/TRANGRESJON_Braid-delta_munningsbanke"                                           "Braid-delta_front"                      
2465.5 "6407_2-3"  60.0000 "Sandstone" -999.25   -999.25   100.0000      0.0      0.0 "m/c"          "m/c"          "LOBESKIFTE/TRANGRESJON_Braid-delta_munningsbanke"                                           "Braid-delta_front"                      
2465.6 "6407_2-3"  60.4200 "Sandstone" -999.25   -999.25   100.0000      0.0      0.0 "m/c"          "m/c"          "LOBESKIFTE/TRANGRESJON_Braid-delta_munningsbanke"                                           "Braid-delta_front"                      
2465.7 "6407_2-3"  61.0300 "Sandstone" -999.25   -999.25   100.0000      0.0      0.0 "m/c"          "m/c"          "LOBESKIFTE/TRANGRESJON_Braid-delta_munningsbanke"                                           "Braid-delta_front"                      
2465.8 "6407_2-3"  61.2200 "Sandstone" -999.25   -999.25   100.0000      0.0      0.0 "m/c"          "m/c"          "LOBESKIFTE/TRANGRESJON_Braid-delta_munningsbanke"                                           "Braid-delta_front"                      
2465.9 "6407_2-3"  61.2700 "Sandstone" -999.25   -999.25   100.0000      0.0      0.0 "m/c"          "m/c"          "LOBESKIFTE/TRANGRESJON_Braid-delta_munningsbanke"                                           "Braid-delta_front"                      
2466.0 "6407_2-3"  61.3200 "Sandstone" -999.25   -999.25   100.0000      0.0      0.0 "m/c"          "m/c"          "LOBESKIFTE/TRANGRESJON_Braid-delta_munningsbanke"                                           "Braid-delta_front"                      
2466.1 "6407_2-3"  61.1100 "Sandstone" -999.25   -999.25   100.0000      0.0      0.0 "m/c"          "m/c"          "LOBESKIFTE/TRANGRESJON_Braid-delta_munningsbanke"                                           "Braid-delta_front"                      
2466.2 "6407_2-3"  61.1500 "Sandstone" -999.25   -999.25   100.0000      0.0      0.0 "m/c"          "m/c"          "LOBESKIFTE/TRANGRESJON_Braid-delta_munningsbanke"                                           "Braid-delta_front"                      
2466.3 "6407_2-3"  61.3600 "Sandstone" -999.25   -999.25   100.0000      0.0      0.0 "m/c"          "m/c"          "LOBESKIFTE/TRANGRESJON_Braid-delta_munningsbanke"                                           "Braid-delta_front"                      
