~Version
VERS  .                                 3.0 : CWLS LAS ASCII Standard - Version 3.0
WRAP  . NO                                  : One line per depth step
DLM   . SPACE                               : Column data section delimiter
SOURCE. Converted to LAS by Log Studio 4.76 : GeoProvider

~Well
STRT.         3504.0 : Start depth
STOP.         4600.3 : Stop depth
STEP.              1 : Step
NULL.        -999.25 : No-value
COMP.                : Company
WELL. 6507/7-1       : Well
FLD .                : Field
LOC .                : Location
LATI.                : Latitude
LONG.                : Longitude
GDAT.                : Geodetic datum
CNTY.                : County
STAT.                : State
CTRY.                : Country
SRVC. GeoProvider AS : Service company
DATE.                : Date
API .                : API number
RUN .                : Run number

~Parameters
WellboreName.  : Wellbore name
RigName     .  : Rig name
StartDate   .  : Start date

~Curves
DEPTH.m            .  : null {F}Depth mMD
Hole_ID.-          .  : null {S}Hole ID
GR.API             .  : null {F}Gamma Ray
Lithology1.-       .  : null {S}Lithology 1
Lithology2.-       .  : null {S}Lithology 2
Lithology3.-       .  : null {S}Lithology 3
Lithology1.%       .  : null {F}Lithology 1 percentage
Lithology2.%       .  : null {F}Lithology 2 percentage
Lithology3.%       .  : null {F}Lithology 3 percentage
Grain_size_Top.-   .  : null {S}Grain size at the top 
Grain_size_Base.-  .  : null {S}Grain size at the bottom
Sub_Environment.-  .  : null {S}Sub Environment
Gross_Environment.-.  : null {S}Gross Environment

~Ascii
# ...
4347.9 "6507_7-1"  36.8700 "Sandstone" -999.25 -999.25 100.0000      0.0     0.0 "c/vc"     "c/vc"     "Ovre_strand_skraning/strand"                        "Proksimal_delta_front_(Proksimal_munningsbar)"
4348.0 "6507_7-1"  37.1400 "Sandstone" -999.25 -999.25 100.0000      0.0     0.0 "c/vc"     "c/vc"     "Ovre_strand_skraning/strand"                        "Proksimal_delta_front_(Proksimal_munningsbar)"
4348.1 "6507_7-1"  37.4200 "Sandstone" -999.25 -999.25 100.0000      0.0     0.0 "c/vc"     "c/vc"     "Ovre_strand_skraning/strand"                        "Proksimal_delta_front_(Proksimal_munningsbar)"
4348.2 "6507_7-1"  38.0200 "Sandstone" -999.25 -999.25 100.0000      0.0     0.0 "c/vc"     "c/vc"     "Ovre_strand_skraning/strand"                        "Proksimal_delta_front_(Proksimal_munningsbar)"
4348.3 "6507_7-1"  38.9600 "Sandstone" -999.25 -999.25 100.0000      0.0     0.0 "c/vc"     "c/vc"     "Ovre_strand_skraning/strand"                        "Proksimal_delta_front_(Proksimal_munningsbar)"
4348.4 "6507_7-1"  39.9100 "Sandstone" -999.25 -999.25 100.0000      0.0     0.0 "c/vc"     "c/vc"     "Ovre_strand_skraning/strand"                        "Proksimal_delta_front_(Proksimal_munningsbar)"
4348.5 "6507_7-1"  40.6800 "Sandstone" -999.25 -999.25 100.0000      0.0     0.0 "vc"       "c/vc"     "Ovre_strand_skraning/strand"                        "Proksimal_delta_front_(Proksimal_munningsbar)"
4348.6 "6507_7-1"  41.1500 "Sandstone" -999.25 -999.25 100.0000      0.0     0.0 "vc"       "c/vc"     "Ovre_strand_skraning/strand"                        "Proksimal_delta_front_(Proksimal_munningsbar)"
4348.7 "6507_7-1"  41.5500 "Sandstone" -999.25 -999.25 100.0000      0.0     0.0 "vc"       "c/vc"     "Ovre_strand_skraning/strand"                        "Proksimal_delta_front_(Proksimal_munningsbar)"
4348.8 "6507_7-1"  41.5500 "Sandstone" -999.25 -999.25 100.0000      0.0     0.0 "vc"       "c/vc"     "Ovre_strand_skraning/strand"                        "Proksimal_delta_front_(Proksimal_munningsbar)"
4348.9 "6507_7-1"  41.5500 "Sandstone" -999.25 -999.25 100.0000      0.0     0.0 "vc"       "c/vc"     "Ovre_strand_skraning/strand"                        "Proksimal_delta_front_(Proksimal_munningsbar)"
4349.0 "6507_7-1"  42.3000 "Sandstone" -999.25 -999.25 100.0000      0.0     0.0 "vc"       "c/vc"     "Ovre_strand_skraning/strand"                        "Proksimal_delta_front_(Proksimal_munningsbar)"
4349.1 "6507_7-1"  43.5200 "Sandstone" -999.25 -999.25 100.0000      0.0     0.0 "vc"       "c/vc"     "Ovre_strand_skraning/strand"                        "Proksimal_delta_front_(Proksimal_munningsbar)"
4349.2 "6507_7-1"  44.7500 "Sandstone" -999.25 -999.25 100.0000      0.0     0.0 "vc"       "c/vc"     "Ovre_strand_skraning/strand"                        "Proksimal_delta_front_(Proksimal_munningsbar)"
4349.3 "6507_7-1"  45.6600 "Sandstone" -999.25 -999.25 100.0000      0.0     0.0 "vc"       "c/vc"     "Ovre_strand_skraning/strand"                        "Proksimal_delta_front_(Proksimal_munningsbar)"
4349.4 "6507_7-1"  46.0100 "Sandstone" -999.25 -999.25 100.0000      0.0     0.0 "vc"       "c/vc"     "Ovre_strand_skraning/strand"                        "Proksimal_delta_front_(Proksimal_munningsbar)"
4349.5 "6507_7-1"  45.1900 "Sandstone" -999.25 -999.25 100.0000      0.0     0.0 "vc"       "c/vc"     "Ovre_strand_skraning/strand"                        "Proksimal_delta_front_(Proksimal_munningsbar)"
4349.6 "6507_7-1"  44.1900 "Sandstone" -999.25 -999.25 100.0000      0.0     0.0 "vc"       "c/vc"     "Ovre_strand_skraning/strand"                        "Proksimal_delta_front_(Proksimal_munningsbar)"
4349.7 "6507_7-1"  43.2000 "Sandstone" -999.25 -999.25 100.0000      0.0     0.0 "vc"       "c/vc"     "Ovre_strand_skraning/strand"                        "Proksimal_delta_front_(Proksimal_munningsbar)"
4349.8 "6507_7-1"  42.6100 "Sandstone" -999.25 -999.25 100.0000      0.0     0.0 "vc"       "c/vc"     "Ovre_strand_skraning/strand"                        "Proksimal_delta_front_(Proksimal_munningsbar)"
4349.9 "6507_7-1"  42.0600 "Sandstone" -999.25 -999.25 100.0000      0.0     0.0 "vc"       "c/vc"     "Ovre_strand_skraning/strand"                        "Proksimal_delta_front_(Proksimal_munningsbar)"
4350.0 "6507_7-1"  42.0500 "Sandstone" -999.25 -999.25 100.0000      0.0     0.0 "vc"       "c/vc"     "Ovre_strand_skraning/strand"                        "Proksimal_delta_front_(Proksimal_munningsbar)"
4350.1 "6507_7-1"  42.9300 "Sandstone" -999.25 -999.25 100.0000      0.0     0.0 "vc"       "c/vc"     "Ovre_strand_skraning/strand"                        "Proksimal_delta_front_(Proksimal_munningsbar)"
4350.2 "6507_7-1"  43.8000 "Sandstone" -999.25 -999.25 100.0000      0.0     0.0 "vc"       "c/vc"     "Ovre_strand_skraning/strand"                        "Proksimal_delta_front_(Proksimal_munningsbar)"
4350.3 "6507_7-1"  43.9100 "Sandstone" -999.25 -999.25 100.0000      0.0     0.0 "vc"       "c/vc"     "Ovre_strand_skraning/strand"                        "Proksimal_delta_front_(Proksimal_munningsbar)"
4350.4 "6507_7-1"  43.8100 "Sandstone" -999.25 -999.25 100.0000      0.0     0.0 "vc"       "c/vc"     "Ovre_strand_skraning/strand"                        "Proksimal_delta_front_(Proksimal_munningsbar)"
4350.5 "6507_7-1"  43.3700 "Sandstone" -999.25 -999.25 100.0000      0.0     0.0 "vc"       "c/vc"     "Ovre_strand_skraning/strand"                        "Proksimal_delta_front_(Proksimal_munningsbar)"
4350.6 "6507_7-1"  42.9300 "Sandstone" -999.25 -999.25 100.0000      0.0     0.0 "vc"       "c/vc"     "Ovre_strand_skraning/strand"                        "Proksimal_delta_front_(Proksimal_munningsbar)"
4350.7 "6507_7-1"  42.4900 "Sandstone" -999.25 -999.25 100.0000      0.0     0.0 "vc"       "c/vc"     "Ovre_strand_skraning/strand"                        "Proksimal_delta_front_(Proksimal_munningsbar)"
4350.8 "6507_7-1"  42.4100 "Sandstone" -999.25 -999.25 100.0000      0.0     0.0 "vc"       "c/vc"     "Ovre_strand_skraning/strand"                        "Proksimal_delta_front_(Proksimal_munningsbar)"
4350.9 "6507_7-1"  43.3100 "Sandstone" -999.25 -999.25 100.0000      0.0     0.0 "vc"       "c/vc"     "Ovre_strand_skraning/strand"                        "Proksimal_delta_front_(Proksimal_munningsbar)"
4351.0 "6507_7-1"  45.1800 "Sandstone" -999.25 -999.25 100.0000      0.0     0.0 "vc"       "c/vc"     "Ovre_strand_skraning/strand"                        "Proksimal_delta_front_(Proksimal_munningsbar)"
4351.1 "6507_7-1"  47.1600 "Sandstone" -999.25 -999.25 100.0000      0.0     0.0 "vc"       "c/vc"     "Ovre_strand_skraning/strand"                        "Proksimal_delta_front_(Proksimal_munningsbar)"
4351.2 "6507_7-1"  49.5000 "Sandstone" -999.25 -999.25 100.0000      0.0     0.0 "vc"       "c/vc"     "Ovre_strand_skraning/strand"                        "Proksimal_delta_front_(Proksimal_munningsbar)"
4351.3 "6507_7-1"  51.8400 "Sandstone" -999.25 -999.25 100.0000      0.0     0.0 "vc"       "c/vc"     "Ovre_strand_skraning/strand"                        "Proksimal_delta_front_(Proksimal_munningsbar)"
4351.4 "6507_7-1"  54.1700 "Sandstone" -999.25 -999.25 100.0000      0.0     0.0 "vc"       "c/vc"     "Ovre_strand_skraning/strand"                        "Proksimal_delta_front_(Proksimal_munningsbar)"
4351.5 "6507_7-1"  54.4100 "Sandstone" -999.25 -999.25 100.0000      0.0     0.0 "vc"       "c/vc"     "Ovre_strand_skraning/strand"                        "Proksimal_delta_front_(Proksimal_munningsbar)"
4351.6 "6507_7-1"  54.5500 "Sandstone" -999.25 -999.25 100.0000      0.0     0.0 "vc"       "c/vc"     "Ovre_strand_skraning/strand"                        "Proksimal_delta_front_(Proksimal_munningsbar)"
4351.7 "6507_7-1"  53.6000 "Sandstone" -999.25 -999.25 100.0000      0.0     0.0 "vc"       "c/vc"     "Ovre_strand_skraning/strand"                        "Proksimal_delta_front_(Proksimal_munningsbar)"
4351.8 "6507_7-1"  51.5600 "Sandstone" -999.25 -999.25 100.0000      0.0     0.0 "vc"       "c/vc"     "Ovre_strand_skraning/strand"                        "Proksimal_delta_front_(Proksimal_munningsbar)"
