~Version
VERS  .                                 3.0 : CWLS LAS ASCII Standard - Version 3.0
WRAP  . NO                                  : One line per depth step
DLM   . SPACE                               : Column data section delimiter
SOURCE. Converted to LAS by Log Studio 4.76 : GeoProvider

~Well
STRT.         3504.0 : Start depth
STOP.         4600.3 : Stop depth
STEP.              1 : Step
NULL.        -999.25 : No-value
COMP.                : Company
WELL. 6507/7-1       : Well
FLD .                : Field
LOC .                : Location
LATI.                : Latitude
LONG.                : Longitude
GDAT.                : Geodetic datum
CNTY.                : County
STAT.                : State
CTRY.                : Country
SRVC. GeoProvider AS : Service company
DATE.                : Date
API .                : API number
RUN .                : Run number

~Parameters
WellboreName.  : Wellbore name
RigName     .  : Rig name
StartDate   .  : Start date

~Curves
DEPTH.m            .  : null {F}Depth mMD
Hole_ID.-          .  : null {S}Hole ID
GR.API             .  : null {F}Gamma Ray
Lithology1.-       .  : null {S}Lithology 1
Lithology2.-       .  : null {S}Lithology 2
Lithology3.-       .  : null {S}Lithology 3
Lithology1.%       .  : null {F}Lithology 1 percentage
Lithology2.%       .  : null {F}Lithology 2 percentage
Lithology3.%       .  : null {F}Lithology 3 percentage
Grain_size_Top.-   .  : null {S}Grain size at the top 
Grain_size_Base.-  .  : null {S}Grain size at the bottom
Sub_Environment.-  .  : null {S}Sub Environment
Gross_Environment.-.  : null {S}Gross Environment

~Ascii
# ...
4355.9 "6507_7-1"  40.5200 "Sandstone" -999.25 -999.25 100.0000      0.0     0.0 "vc"       "vc"       "Ovre_strand_skraning/strand_"                       "Proksimal_delta_front_(Proksimal_munningsbar)"
4356.0 "6507_7-1"  41.0300 "Sandstone" -999.25 -999.25 100.0000      0.0     0.0 "vc"       "vc"       "Ovre_strand_skraning/strand_"                       "Proksimal_delta_front_(Proksimal_munningsbar)"
4356.1 "6507_7-1"  41.5400 -999.25   -999.25 -999.25 100.0000      0.0     0.0 -999.25    -999.25    "Ovre_strand_skraning/strand_"                       "Proksimal_delta_front_(Proksimal_munningsbar)"
4356.2 "6507_7-1"  41.9600 -999.25   -999.25 -999.25 100.0000      0.0     0.0 -999.25    -999.25    "Ovre_strand_skraning/strand_"                       "Proksimal_delta_front_(Proksimal_munningsbar)"
4356.3 "6507_7-1"  42.3200 -999.25   -999.25 -999.25 100.0000      0.0     0.0 -999.25    -999.25    "Ovre_strand_skraning/strand_"                       "Proksimal_delta_front_(Proksimal_munningsbar)"
4356.4 "6507_7-1"  42.4500 -999.25   -999.25 -999.25 100.0000      0.0     0.0 -999.25    -999.25    "Ovre_strand_skraning/strand_"                       "Proksimal_delta_front_(Proksimal_munningsbar)"
4356.5 "6507_7-1"  41.9400 -999.25   -999.25 -999.25 100.0000      0.0     0.0 -999.25    -999.25    "Ovre_strand_skraning/strand_"                       "Proksimal_delta_front_(Proksimal_munningsbar)"
4356.6 "6507_7-1"  41.4400 -999.25   -999.25 -999.25 100.0000      0.0     0.0 -999.25    -999.25    "Ovre_strand_skraning/strand_"                       "Proksimal_delta_front_(Proksimal_munningsbar)"
4356.7 "6507_7-1"  40.9300 -999.25   -999.25 -999.25 100.0000      0.0     0.0 -999.25    -999.25    "Ovre_strand_skraning/strand_"                       "Proksimal_delta_front_(Proksimal_munningsbar)"
4356.8 "6507_7-1"  40.4200 -999.25   -999.25 -999.25 100.0000      0.0     0.0 -999.25    -999.25    "Ovre_strand_skraning/strand_"                       "Proksimal_delta_front_(Proksimal_munningsbar)"
4356.9 "6507_7-1"  39.9200 -999.25   -999.25 -999.25 100.0000      0.0     0.0 -999.25    -999.25    "Ovre_strand_skraning/strand_"                       "Proksimal_delta_front_(Proksimal_munningsbar)"
4357.0 "6507_7-1"  39.8100 "Sandstone" -999.25 -999.25 100.0000      0.0     0.0 "vc"       "vc"       "Ovre_strand_skraning/strand_"                       "Proksimal_delta_front_(Proksimal_munningsbar)"
4357.1 "6507_7-1"  39.8100 "Sandstone" -999.25 -999.25 100.0000      0.0     0.0 "vc"       "vc"       "Ovre_strand_skraning/strand_"                       "Proksimal_delta_front_(Proksimal_munningsbar)"
4357.2 "6507_7-1"  40.0200 "Sandstone" -999.25 -999.25 100.0000      0.0     0.0 "vc"       "vc"       "Ovre_strand_skraning/strand_"                       "Proksimal_delta_front_(Proksimal_munningsbar)"
4357.3 "6507_7-1"  40.2600 "Sandstone" -999.25 -999.25 100.0000      0.0     0.0 "vc"       "vc"       "Ovre_strand_skraning/strand_"                       "Proksimal_delta_front_(Proksimal_munningsbar)"
4357.4 "6507_7-1"  40.5000 "Sandstone" -999.25 -999.25 100.0000      0.0     0.0 "vc"       "vc"       "Ovre_strand_skraning/strand_"                       "Proksimal_delta_front_(Proksimal_munningsbar)"
4357.5 "6507_7-1"  40.7400 "Sandstone" -999.25 -999.25 100.0000      0.0     0.0 "vc"       "vc"       "Ovre_strand_skraning/strand_"                       "Proksimal_delta_front_(Proksimal_munningsbar)"
4357.6 "6507_7-1"  40.9800 "Sandstone" -999.25 -999.25 100.0000      0.0     0.0 "vc"       "vc"       "Ovre_strand_skraning/strand_"                       "Proksimal_delta_front_(Proksimal_munningsbar)"
4357.7 "6507_7-1"  40.5800 "Sandstone" -999.25 -999.25 100.0000      0.0     0.0 "vc"       "vc"       "Ovre_strand_skraning/strand_"                       "Proksimal_delta_front_(Proksimal_munningsbar)"
4357.8 "6507_7-1"  40.0400 "Sandstone" -999.25 -999.25 100.0000      0.0     0.0 "vc"       "vc"       "Ovre_strand_skraning/strand_"                       "Proksimal_delta_front_(Proksimal_munningsbar)"
4357.9 "6507_7-1"  39.4200 "Sandstone" -999.25 -999.25 100.0000      0.0     0.0 "vc"       "vc"       "Ovre_strand_skraning/strand_"                       "Proksimal_delta_front_(Proksimal_munningsbar)"
4358.0 "6507_7-1"  38.7500 "Sandstone" -999.25 -999.25 100.0000      0.0     0.0 "vc"       "vc"       "Ovre_strand_skraning/strand_"                       "Proksimal_delta_front_(Proksimal_munningsbar)"
4358.1 "6507_7-1"  38.0800 "Sandstone" -999.25 -999.25 100.0000      0.0     0.0 "vc"       "vc"       "Ovre_strand_skraning/strand_"                       "Proksimal_delta_front_(Proksimal_munningsbar)"
4358.2 "6507_7-1"  37.4100 "Sandstone" -999.25 -999.25 100.0000      0.0     0.0 "vc"       "vc"       "Ovre_strand_skraning/strand_"                       "Proksimal_delta_front_(Proksimal_munningsbar)"
4358.3 "6507_7-1"  36.7400 "Sandstone" -999.25 -999.25 100.0000      0.0     0.0 "vc"       "vc"       "Ovre_strand_skraning/strand_"                       "Proksimal_delta_front_(Proksimal_munningsbar)"
4358.4 "6507_7-1"  36.0600 "Sandstone" -999.25 -999.25 100.0000      0.0     0.0 "vc"       "vc"       "Ovre_strand_skraning/strand_"                       "Proksimal_delta_front_(Proksimal_munningsbar)"
4358.5 "6507_7-1"  35.3900 "Sandstone" -999.25 -999.25 100.0000      0.0     0.0 "vc"       "vc"       "Ovre_strand_skraning/strand_"                       "Proksimal_delta_front_(Proksimal_munningsbar)"
4358.6 "6507_7-1"  34.7200 "Sandstone" -999.25 -999.25 100.0000      0.0     0.0 "vc"       "vc"       "Ovre_strand_skraning/strand_"                       "Proksimal_delta_front_(Proksimal_munningsbar)"
4358.7 "6507_7-1"  34.2400 "Sandstone" -999.25 -999.25 100.0000      0.0     0.0 "vc"       "vc"       "Ovre_strand_skraning/strand_"                       "Proksimal_delta_front_(Proksimal_munningsbar)"
4358.8 "6507_7-1"  33.9000 "Sandstone" -999.25 -999.25 100.0000      0.0     0.0 "vc"       "vc"       "Ovre_strand_skraning/strand_"                       "Proksimal_delta_front_(Proksimal_munningsbar)"
4358.9 "6507_7-1"  33.5800 "Sandstone" -999.25 -999.25 100.0000      0.0     0.0 "vc"       "vc"       "Ovre_strand_skraning/strand_"                       "Proksimal_delta_front_(Proksimal_munningsbar)"
4359.0 "6507_7-1"  33.6900 "Sandstone" -999.25 -999.25 100.0000      0.0     0.0 "vc"       "vc"       "Ovre_strand_skraning/strand_"                       "Proksimal_delta_front_(Proksimal_munningsbar)"
4359.1 "6507_7-1"  34.2800 "Sandstone" -999.25 -999.25 100.0000      0.0     0.0 "vc"       "vc"       "Ovre_strand_skraning/strand_"                       "Proksimal_delta_front_(Proksimal_munningsbar)"
4359.2 "6507_7-1"  35.5600 "Sandstone" -999.25 -999.25 100.0000      0.0     0.0 "vc"       "vc"       "Ovre_strand_skraning/strand_"                       "Proksimal_delta_front_(Proksimal_munningsbar)"
4359.3 "6507_7-1"  39.5200 "Sandstone" -999.25 -999.25 100.0000      0.0     0.0 "vc"       "vc"       "Ovre_strand_skraning/strand_"                       "Proksimal_delta_front_(Proksimal_munningsbar)"
4359.4 "6507_7-1"  43.5300 "Sandstone" -999.25 -999.25 100.0000      0.0     0.0 "vc"       "vc"       "Ovre_strand_skraning/strand_"                       "Proksimal_delta_front_(Proksimal_munningsbar)"
4359.5 "6507_7-1"  44.0200 "Sandstone" -999.25 -999.25 100.0000      0.0     0.0 "vc"       "vc"       "Ovre_strand_skraning/strand_"                       "Proksimal_delta_front_(Proksimal_munningsbar)"
4359.6 "6507_7-1"  44.1800 "Sandstone" -999.25 -999.25 100.0000      0.0     0.0 "vc"       "vc"       "Ovre_strand_skraning/strand_"                       "Proksimal_delta_front_(Proksimal_munningsbar)"
4359.7 "6507_7-1"  43.8200 "Sandstone" -999.25 -999.25 100.0000      0.0     0.0 "vc"       "vc"       "Ovre_strand_skraning/strand_"                       "Proksimal_delta_front_(Proksimal_munningsbar)"
4359.8 "6507_7-1"  43.0300 "Sandstone" -999.25 -999.25 100.0000      0.0     0.0 "vc"       "vc"       "Ovre_strand_skraning/strand_"                       "Proksimal_delta_front_(Proksimal_munningsbar)"
