~Version
VERS  .                                 3.0 : CWLS LAS ASCII Standard - Version 3.0
WRAP  . NO                                  : One line per depth step
DLM   . SPACE                               : Column data section delimiter
SOURCE. Converted to LAS by Log Studio 4.76 : GeoProvider

~Well
STRT.         3504.0 : Start depth
STOP.         4600.3 : Stop depth
STEP.              1 : Step
NULL.        -999.25 : No-value
COMP.                : Company
WELL. 6507/7-1       : Well
FLD .                : Field
LOC .                : Location
LATI.                : Latitude
LONG.                : Longitude
GDAT.                : Geodetic datum
CNTY.                : County
STAT.                : State
CTRY.                : Country
SRVC. GeoProvider AS : Service company
DATE.                : Date
API .                : API number
RUN .                : Run number

~Parameters
WellboreName.  : Wellbore name
RigName     .  : Rig name
StartDate   .  : Start date

~Curves
DEPTH.m            .  : null {F}Depth mMD
Hole_ID.-          .  : null {S}Hole ID
GR.API             .  : null {F}Gamma Ray
Lithology1.-       .  : null {S}Lithology 1
Lithology2.-       .  : null {S}Lithology 2
Lithology3.-       .  : null {S}Lithology 3
Lithology1.%       .  : null {F}Lithology 1 percentage
Lithology2.%       .  : null {F}Lithology 2 percentage
Lithology3.%       .  : null {F}Lithology 3 percentage
Grain_size_Top.-   .  : null {S}Grain size at the top 
Grain_size_Base.-  .  : null {S}Grain size at the bottom
Sub_Environment.-  .  : null {S}Sub Environment
Gross_Environment.-.  : null {S}Gross Environment

~Ascii
# ...
4351.9 "6507_7-1"  49.5300 "Sandstone" -999.25 -999.25 100.0000      0.0     0.0 "vc"       "vc"       "Ovre_strand_skraning/strand"                        "Proksimal_delta_front_(Proksimal_munningsbar)"
4352.0 "6507_7-1"  47.4900 "Sandstone" -999.25 -999.25 100.0000      0.0     0.0 "vc"       "vc"       "Ovre_strand_skraning/strand"                        "Proksimal_delta_front_(Proksimal_munningsbar)"
4352.1 "6507_7-1"  45.4600 "Sandstone" -999.25 -999.25 100.0000      0.0     0.0 "vc"       "vc"       "Ovre_strand_skraning/strand"                        "Proksimal_delta_front_(Proksimal_munningsbar)"
4352.2 "6507_7-1"  44.1800 "Sandstone" -999.25 -999.25 100.0000      0.0     0.0 "vc"       "vc"       "Ovre_strand_skraning/strand"                        "Proksimal_delta_front_(Proksimal_munningsbar)"
4352.3 "6507_7-1"  43.0100 "Sandstone" -999.25 -999.25 100.0000      0.0     0.0 "vc"       "vc"       "Ovre_strand_skraning/strand"                        "Proksimal_delta_front_(Proksimal_munningsbar)"
4352.4 "6507_7-1"  42.9300 "Sandstone" -999.25 -999.25 100.0000      0.0     0.0 "vc"       "vc"       "Ovre_strand_skraning/strand"                        "Proksimal_delta_front_(Proksimal_munningsbar)"
4352.5 "6507_7-1"  42.9300 "Sandstone" -999.25 -999.25 100.0000      0.0     0.0 "vc"       "vc"       "Ovre_strand_skraning/strand"                        "Proksimal_delta_front_(Proksimal_munningsbar)"
4352.6 "6507_7-1"  43.0500 "Sandstone" -999.25 -999.25 100.0000      0.0     0.0 "vc"       "vc"       "Ovre_strand_skraning/strand"                        "Proksimal_delta_front_(Proksimal_munningsbar)"
4352.7 "6507_7-1"  43.4800 "Sandstone" -999.25 -999.25 100.0000      0.0     0.0 "vc"       "vc"       "Ovre_strand_skraning/strand"                        "Proksimal_delta_front_(Proksimal_munningsbar)"
4352.8 "6507_7-1"  43.9100 "Sandstone" -999.25 -999.25 100.0000      0.0     0.0 "vc"       "vc"       "Ovre_strand_skraning/strand"                        "Proksimal_delta_front_(Proksimal_munningsbar)"
4352.9 "6507_7-1"  44.2000 "Sandstone" -999.25 -999.25 100.0000      0.0     0.0 "vc"       "vc"       "Ovre_strand_skraning/strand"                        "Proksimal_delta_front_(Proksimal_munningsbar)"
4353.0 "6507_7-1"  44.3200 "Sandstone" -999.25 -999.25 100.0000      0.0     0.0 "vc"       "vc"       "Ovre_strand_skraning/strand"                        "Proksimal_delta_front_(Proksimal_munningsbar)"
4353.1 "6507_7-1"  44.0200 "Sandstone" -999.25 -999.25 100.0000      0.0     0.0 "vc"       "vc"       "Ovre_strand_skraning/strand"                        "Proksimal_delta_front_(Proksimal_munningsbar)"
4353.2 "6507_7-1"  43.7100 "Sandstone" -999.25 -999.25 100.0000      0.0     0.0 "vc"       "vc"       "Ovre_strand_skraning/strand"                        "Proksimal_delta_front_(Proksimal_munningsbar)"
4353.3 "6507_7-1"  42.7700 "Sandstone" -999.25 -999.25 100.0000      0.0     0.0 "vc"       "vc"       "Ovre_strand_skraning/strand"                        "Proksimal_delta_front_(Proksimal_munningsbar)"
4353.4 "6507_7-1"  41.6000 "Sandstone" -999.25 -999.25 100.0000      0.0     0.0 "vc"       "vc"       "Ovre_strand_skraning/strand"                        "Proksimal_delta_front_(Proksimal_munningsbar)"
4353.5 "6507_7-1"  40.8200 "Sandstone" -999.25 -999.25 100.0000      0.0     0.0 "vc"       "vc"       "Ovre_strand_skraning/strand"                        "Proksimal_delta_front_(Proksimal_munningsbar)"
4353.6 "6507_7-1"  40.7400 "Sandstone" -999.25 -999.25 100.0000      0.0     0.0 "vc"       "vc"       "Ovre_strand_skraning/strand"                        "Proksimal_delta_front_(Proksimal_munningsbar)"
4353.7 "6507_7-1"  40.7200 "Sandstone" -999.25 -999.25 100.0000      0.0     0.0 "vc"       "vc"       "Ovre_strand_skraning/strand"                        "Proksimal_delta_front_(Proksimal_munningsbar)"
4353.8 "6507_7-1"  40.9100 "Sandstone" -999.25 -999.25 100.0000      0.0     0.0 "vc"       "vc"       "Ovre_strand_skraning/strand"                        "Proksimal_delta_front_(Proksimal_munningsbar)"
4353.9 "6507_7-1"  41.5100 "Sandstone" -999.25 -999.25 100.0000      0.0     0.0 "vc"       "vc"       "Ovre_strand_skraning/strand"                        "Proksimal_delta_front_(Proksimal_munningsbar)"
4354.0 "6507_7-1"  42.1200 "Sandstone" -999.25 -999.25 100.0000      0.0     0.0 "vc"       "vc"       "Ovre_strand_skraning/strand"                        "Proksimal_delta_front_(Proksimal_munningsbar)"
4354.1 "6507_7-1"  42.7200 "Sandstone" -999.25 -999.25 100.0000      0.0     0.0 "vc"       "vc"       "Ovre_strand_skraning/strand"                        "Proksimal_delta_front_(Proksimal_munningsbar)"
4354.2 "6507_7-1"  43.3200 "Sandstone" -999.25 -999.25 100.0000      0.0     0.0 "vc"       "vc"       "Ovre_strand_skraning/strand"                        "Proksimal_delta_front_(Proksimal_munningsbar)"
4354.3 "6507_7-1"  43.8000 "Sandstone" -999.25 -999.25 100.0000      0.0     0.0 "vc"       "vc"       "Ovre_strand_skraning/strand"                        "Proksimal_delta_front_(Proksimal_munningsbar)"
4354.4 "6507_7-1"  43.8000 "Sandstone" -999.25 -999.25 100.0000      0.0     0.0 "vc"       "vc"       "Ovre_strand_skraning/strand"                        "Proksimal_delta_front_(Proksimal_munningsbar)"
4354.5 "6507_7-1"  43.8000 "Sandstone" -999.25 -999.25 100.0000      0.0     0.0 "vc"       "vc"       "Ovre_strand_skraning/strand"                        "Proksimal_delta_front_(Proksimal_munningsbar)"
4354.6 "6507_7-1"  43.8000 "Sandstone" -999.25 -999.25 100.0000      0.0     0.0 "vc"       "vc"       "Ovre_strand_skraning/strand"                        "Proksimal_delta_front_(Proksimal_munningsbar)"
4354.7 "6507_7-1"  43.5700 "Sandstone" -999.25 -999.25 100.0000      0.0     0.0 "vc"       "vc"       "Ovre_strand_skraning/strand"                        "Proksimal_delta_front_(Proksimal_munningsbar)"
4354.8 "6507_7-1"  42.8800 "Sandstone" -999.25 -999.25 100.0000      0.0     0.0 "vc"       "vc"       "Ovre_strand_skraning/strand"                        "Proksimal_delta_front_(Proksimal_munningsbar)"
4354.9 "6507_7-1"  41.9200 "Sandstone" -999.25 -999.25 100.0000      0.0     0.0 "vc"       "vc"       "Ovre_strand_skraning/strand"                        "Proksimal_delta_front_(Proksimal_munningsbar)"
4355.0 "6507_7-1"  41.3300 "Sandstone" -999.25 -999.25 100.0000      0.0     0.0 "vc"       "vc"       "Ovre_strand_skraning/strand"                        "Proksimal_delta_front_(Proksimal_munningsbar)"
4355.1 "6507_7-1"  40.8800 "Sandstone" -999.25 -999.25 100.0000      0.0     0.0 "vc"       "vc"       "Ovre_strand_skraning/strand"                        "Proksimal_delta_front_(Proksimal_munningsbar)"
4355.2 "6507_7-1"  41.0500 "Sandstone" -999.25 -999.25 100.0000      0.0     0.0 "vc"       "vc"       "Ovre_strand_skraning/strand_"                       "Proksimal_delta_front_(Proksimal_munningsbar)"
4355.3 "6507_7-1"  41.2200 "Sandstone" -999.25 -999.25 100.0000      0.0     0.0 "vc"       "vc"       "Ovre_strand_skraning/strand_"                       "Proksimal_delta_front_(Proksimal_munningsbar)"
4355.4 "6507_7-1"  41.3700 "Sandstone" -999.25 -999.25 100.0000      0.0     0.0 "vc"       "vc"       "Ovre_strand_skraning/strand_"                       "Proksimal_delta_front_(Proksimal_munningsbar)"
4355.5 "6507_7-1"  41.3700 "Sandstone" -999.25 -999.25 100.0000      0.0     0.0 "vc"       "vc"       "Ovre_strand_skraning/strand_"                       "Proksimal_delta_front_(Proksimal_munningsbar)"
4355.6 "6507_7-1"  41.3300 "Sandstone" -999.25 -999.25 100.0000      0.0     0.0 "vc"       "vc"       "Ovre_strand_skraning/strand_"                       "Proksimal_delta_front_(Proksimal_munningsbar)"
4355.7 "6507_7-1"  41.0600 "Sandstone" -999.25 -999.25 100.0000      0.0     0.0 "vc"       "vc"       "Ovre_strand_skraning/strand_"                       "Proksimal_delta_front_(Proksimal_munningsbar)"
4355.8 "6507_7-1"  40.7800 "Sandstone" -999.25 -999.25 100.0000      0.0     0.0 "vc"       "vc"       "Ovre_strand_skraning/strand_"                       "Proksimal_delta_front_(Proksimal_munningsbar)"
