~Version
VERS  .                                 3.0 : CWLS LAS ASCII Standard - Version 3.0
WRAP  . NO                                  : One line per depth step
DLM   . SPACE                               : Column data section delimiter
SOURCE. Converted to LAS by Log Studio 4.76 : GeoProvider

~Well
STRT.         3504.0 : Start depth
STOP.         4600.3 : Stop depth
STEP.              1 : Step
NULL.        -999.25 : No-value
COMP.                : Company
WELL. 6507/7-1       : Well
FLD .                : Field
LOC .                : Location
LATI.                : Latitude
LONG.                : Longitude
GDAT.                : Geodetic datum
CNTY.                : County
STAT.                : State
CTRY.                : Country
SRVC. GeoProvider AS : Service company
DATE.                : Date
API .                : API number
RUN .                : Run number

~Parameters
WellboreName.  : Wellbore name
RigName     .  : Rig name
StartDate   .  : Start date

~Curves
DEPTH.m            .  : null {F}Depth mMD
Hole_ID.-          .  : null {S}Hole ID
GR.API             .  : null {F}Gamma Ray
Lithology1.-       .  : null {S}Lithology 1
Lithology2.-       .  : null {S}Lithology 2
Lithology3.-       .  : null {S}Lithology 3
Lithology1.%       .  : null {F}Lithology 1 percentage
Lithology2.%       .  : null {F}Lithology 2 percentage
Lithology3.%       .  : null {F}Lithology 3 percentage
Grain_size_Top.-   .  : null {S}Grain size at the top 
Grain_size_Base.-  .  : null {S}Grain size at the bottom
Sub_Environment.-  .  : null {S}Sub Environment
Gross_Environment.-.  : null {S}Gross Environment

~Ascii
# ...
4359.9 "6507_7-1"  41.7000 "Sandstone" -999.25 -999.25 100.0000      0.0     0.0 "vc"       "vc"       "Ovre_strand_skraning/strand_"                       "Proksimal_delta_front_(Proksimal_munningsbar)"
4360.0 "6507_7-1"  40.3700 "Sandstone" -999.25 -999.25 100.0000      0.0     0.0 "vc"       "vc"       "Ovre_strand_skraning/strand_"                       "Proksimal_delta_front_(Proksimal_munningsbar)"
4360.1 "6507_7-1"  39.0400 "Sandstone" -999.25 -999.25 100.0000      0.0     0.0 "vc"       "vc"       "Ovre_strand_skraning/strand_"                       "Proksimal_delta_front_(Proksimal_munningsbar)"
4360.2 "6507_7-1"  37.8100 "Sandstone" -999.25 -999.25 100.0000      0.0     0.0 "vc"       "vc"       "Ovre_strand_skraning/strand_"                       "Proksimal_delta_front_(Proksimal_munningsbar)"
4360.3 "6507_7-1"  37.1400 "Sandstone" -999.25 -999.25 100.0000      0.0     0.0 "vc"       "vc"       "Ovre_strand_skraning/strand_"                       "Proksimal_delta_front_(Proksimal_munningsbar)"
4360.4 "6507_7-1"  36.4700 "Sandstone" -999.25 -999.25 100.0000      0.0     0.0 "vc"       "vc"       "Ovre_strand_skraning/strand_"                       "Proksimal_delta_front_(Proksimal_munningsbar)"
4360.5 "6507_7-1"  35.8200 "Sandstone" -999.25 -999.25 100.0000      0.0     0.0 "vc"       "vc"       "Ovre_strand_skraning/strand_"                       "Proksimal_delta_front_(Proksimal_munningsbar)"
4360.6 "6507_7-1"  35.4900 "Sandstone" -999.25 -999.25 100.0000      0.0     0.0 "vc"       "vc"       "Ovre_strand_skraning/strand_"                       "Proksimal_delta_front_(Proksimal_munningsbar)"
4360.7 "6507_7-1"  35.1700 "Sandstone" -999.25 -999.25 100.0000      0.0     0.0 "vc"       "vc"       "Ovre_strand_skraning/strand_"                       "Proksimal_delta_front_(Proksimal_munningsbar)"
4360.8 "6507_7-1"  35.2700 "Sandstone" -999.25 -999.25 100.0000      0.0     0.0 "vc"       "vc"       "Ovre_strand_skraning/strand_"                       "Proksimal_delta_front_(Proksimal_munningsbar)"
4360.9 "6507_7-1"  36.1300 "Sandstone" -999.25 -999.25 100.0000      0.0     0.0 "vc"       "vc"       "Ovre_strand_skraning/strand_"                       "Proksimal_delta_front_(Proksimal_munningsbar)"
4361.0 "6507_7-1"  36.9900 "Sandstone" -999.25 -999.25 100.0000      0.0     0.0 "vc"       "vc"       "Ovre_strand_skraning/strand_"                       "Proksimal_delta_front_(Proksimal_munningsbar)"
4361.1 "6507_7-1"  38.8700 "Sandstone" -999.25 -999.25 100.0000      0.0     0.0 "vc/granule" "vc/granule" "Ovre_strand_skraning/strand_"                       "Proksimal_delta_front_(Proksimal_munningsbar)"
4361.2 "6507_7-1"  41.6200 "Sandstone" -999.25 -999.25 100.0000      0.0     0.0 "vc/granule" "vc/granule" "Ovre_strand_skraning/strand_"                       "Proksimal_delta_front_(Proksimal_munningsbar)"
4361.3 "6507_7-1"  44.6700 "Sandstone" -999.25 -999.25 100.0000      0.0     0.0 "vc/granule" "vc/granule" "Ovre_strand_skraning/strand_"                       "Proksimal_delta_front_(Proksimal_munningsbar)"
4361.4 "6507_7-1"  48.0700 "Sandstone" -999.25 -999.25 100.0000      0.0     0.0 "vc/granule" "vc/granule" "Ovre_strand_skraning/strand_"                       "Proksimal_delta_front_(Proksimal_munningsbar)"
4361.5 "6507_7-1"  48.9100 "Sandstone" -999.25 -999.25 100.0000      0.0     0.0 "vc/granule" "vc/granule" "Ovre_strand_skraning/strand_"                       "Proksimal_delta_front_(Proksimal_munningsbar)"
4361.6 "6507_7-1"  49.2200 "Sandstone" -999.25 -999.25 100.0000      0.0     0.0 "vc/granule" "vc/granule" "Ovre_strand_skraning/strand_"                       "Proksimal_delta_front_(Proksimal_munningsbar)"
4361.7 "6507_7-1"  48.9900 "Sandstone" -999.25 -999.25 100.0000      0.0     0.0 "vc/granule" "vc/granule" "Ovre_strand_skraning/strand_"                       "Proksimal_delta_front_(Proksimal_munningsbar)"
4361.8 "6507_7-1"  48.3900 "Sandstone" -999.25 -999.25 100.0000      0.0     0.0 "vc/granule" "vc/granule" "Ovre_strand_skraning/strand_"                       "Proksimal_delta_front_(Proksimal_munningsbar)"
4361.9 "6507_7-1"  47.7900 "Sandstone" -999.25 -999.25 100.0000      0.0     0.0 "vc/granule" "vc/granule" "Ovre_strand_skraning/strand_"                       "Proksimal_delta_front_(Proksimal_munningsbar)"
4362.0 "6507_7-1"  47.1900 "Sandstone" -999.25 -999.25 100.0000      0.0     0.0 "vc/granule" "vc/granule" "Ovre_strand_skraning/strand_"                       "Proksimal_delta_front_(Proksimal_munningsbar)"
4362.1 "6507_7-1"  46.5900 "Sandstone" -999.25 -999.25 100.0000      0.0     0.0 "vc/granule" "vc/granule" "Ovre_strand_skraning/strand_"                       "Proksimal_delta_front_(Proksimal_munningsbar)"
4362.2 "6507_7-1"  45.9900 "Sandstone" -999.25 -999.25 100.0000      0.0     0.0 "vc/granule" "vc/granule" "Ovre_strand_skraning/strand_"                       "Proksimal_delta_front_(Proksimal_munningsbar)"
4362.3 "6507_7-1"  45.6500 "Sandstone" -999.25 -999.25 100.0000      0.0     0.0 "vc/granule" "vc/granule" "Ovre_strand_skraning/strand_"                       "Proksimal_delta_front_(Proksimal_munningsbar)"
4362.4 "6507_7-1"  45.5300 "Sandstone" -999.25 -999.25 100.0000      0.0     0.0 "vc/granule" "vc/granule" "Ovre_strand_skraning/strand_"                       "Proksimal_delta_front_(Proksimal_munningsbar)"
4362.5 "6507_7-1"  45.4800 "Sandstone" -999.25 -999.25 100.0000      0.0     0.0 "vc/granule" "vc/granule" "Ovre_strand_skraning/strand_"                       "Proksimal_delta_front_(Proksimal_munningsbar)"
4362.6 "6507_7-1"  45.4400 "Sandstone" -999.25 -999.25 100.0000      0.0     0.0 "vc/granule" "vc/granule" "Ovre_strand_skraning/strand_"                       "Proksimal_delta_front_(Proksimal_munningsbar)"
4362.7 "6507_7-1"  45.3900 "Sandstone" -999.25 -999.25 100.0000      0.0     0.0 "vc/granule" "vc/granule" "Ovre_strand_skraning/strand_"                       "Proksimal_delta_front_(Proksimal_munningsbar)"
4362.8 "6507_7-1"  45.1900 "Sandstone" -999.25 -999.25 100.0000      0.0     0.0 "vc/granule" "vc/granule" "Ovre_strand_skraning/strand_"                       "Proksimal_delta_front_(Proksimal_munningsbar)"
4362.9 "6507_7-1"  44.6800 "Sandstone" -999.25 -999.25 100.0000      0.0     0.0 "vc/granule" "vc/granule" "Ovre_strand_skraning/strand_"                       "Proksimal_delta_front_(Proksimal_munningsbar)"
4363.0 "6507_7-1"  44.1700 "Sandstone" -999.25 -999.25 100.0000      0.0     0.0 "vc/granule" "vc/granule" "Ovre_strand_skraning/strand_"                       "Proksimal_delta_front_(Proksimal_munningsbar)"
4363.1 "6507_7-1"  43.0300 "Sandstone" -999.25 -999.25 100.0000      0.0     0.0 "vc/granule" "vc/granule" "Ovre_strand_skraning/strand_"                       "Proksimal_delta_front_(Proksimal_munningsbar)"
4363.2 "6507_7-1"  41.8700 "Sandstone" -999.25 -999.25 100.0000      0.0     0.0 "vc/granule" "vc/granule" "Ovre_strand_skraning/strand_"                       "Proksimal_delta_front_(Proksimal_munningsbar)"
4363.3 "6507_7-1"  40.8500 "Sandstone" -999.25 -999.25 100.0000      0.0     0.0 "vc/granule" "vc/granule" "Ovre_strand_skraning/strand_"                       "Proksimal_delta_front_(Proksimal_munningsbar)"
4363.4 "6507_7-1"  40.2300 "Sandstone" -999.25 -999.25 100.0000      0.0     0.0 "vc/granule" "vc/granule" "Ovre_strand_skraning/strand_"                       "Proksimal_delta_front_(Proksimal_munningsbar)"
4363.5 "6507_7-1"  39.6600 "Sandstone" -999.25 -999.25 100.0000      0.0     0.0 "vc/granule" "vc/granule" "Ovre_strand_skraning/strand_"                       "Proksimal_delta_front_(Proksimal_munningsbar)"
4363.6 "6507_7-1"  39.9900 "Sandstone" -999.25 -999.25 100.0000      0.0     0.0 "vc/granule" "vc/granule" "Ovre_strand_skraning/strand_"                       "Proksimal_delta_front_(Proksimal_munningsbar)"
4363.7 "6507_7-1"  40.3300 "Sandstone" -999.25 -999.25 100.0000      0.0     0.0 "vc/granule" "vc/granule" "Ovre_strand_skraning/strand_"                       "Proksimal_delta_front_(Proksimal_munningsbar)"
