~Version
VERS  .                                 3.0 : CWLS LAS ASCII Standard - Version 3.0
WRAP  . NO                                  : One line per depth step
DLM   . SPACE                               : Column data section delimiter
SOURCE. Converted to LAS by Log Studio 4.76 : GeoProvider

~Well
STRT.         3504.0 : Start depth
STOP.         4600.3 : Stop depth
STEP.              1 : Step
NULL.        -999.25 : No-value
COMP.                : Company
WELL. 6507/7-1       : Well
FLD .                : Field
LOC .                : Location
LATI.                : Latitude
LONG.                : Longitude
GDAT.                : Geodetic datum
CNTY.                : County
STAT.                : State
CTRY.                : Country
SRVC. GeoProvider AS : Service company
DATE.                : Date
API .                : API number
RUN .                : Run number

~Parameters
WellboreName.  : Wellbore name
RigName     .  : Rig name
StartDate   .  : Start date

~Curves
DEPTH.m            .  : null {F}Depth mMD
Hole_ID.-          .  : null {S}Hole ID
GR.API             .  : null {F}Gamma Ray
Lithology1.-       .  : null {S}Lithology 1
Lithology2.-       .  : null {S}Lithology 2
Lithology3.-       .  : null {S}Lithology 3
Lithology1.%       .  : null {F}Lithology 1 percentage
Lithology2.%       .  : null {F}Lithology 2 percentage
Lithology3.%       .  : null {F}Lithology 3 percentage
Grain_size_Top.-   .  : null {S}Grain size at the top 
Grain_size_Base.-  .  : null {S}Grain size at the bottom
Sub_Environment.-  .  : null {S}Sub Environment
Gross_Environment.-.  : null {S}Gross Environment

~Ascii
3504.0 "6507_7-1"  92.6600 "Sandstone" -999.25 -999.25 100.0000      0.0     0.0 "vc"       "vc/granule" "?____Ovre_strand_skraning/submarin_sandbanke_______?" "?"                                          
3504.1 "6507_7-1"  92.5300 "Sandstone" -999.25 -999.25 100.0000      0.0     0.0 "vc"       "vc/granule" "?____Ovre_strand_skraning/submarin_sandbanke_______?" "?"                                          
3504.2 "6507_7-1"  89.3700 "Sandstone" -999.25 -999.25 100.0000      0.0     0.0 "vc"       "vc/granule" "?____Ovre_strand_skraning/submarin_sandbanke_______?" "?"                                          
3504.3 "6507_7-1"  85.2000 "Sandstone" -999.25 -999.25 100.0000      0.0     0.0 "vc"       "vc/granule" "?____Ovre_strand_skraning/submarin_sandbanke_______?" "?"                                          
3504.4 "6507_7-1"  81.0400 "Sandstone" -999.25 -999.25 100.0000      0.0     0.0 "vc"       "vc/granule" "?____Ovre_strand_skraning/submarin_sandbanke_______?" "?"                                          
3504.5 "6507_7-1"  75.9300 "Sandstone" -999.25 -999.25 100.0000      0.0     0.0 "vc"       "vc/granule" "?____Ovre_strand_skraning/submarin_sandbanke_______?" "?"                                          
3504.6 "6507_7-1"  70.6500 "Sandstone" -999.25 -999.25 100.0000      0.0     0.0 "vc"       "vc/granule" "?____Ovre_strand_skraning/submarin_sandbanke_______?" "?"                                          
3504.7 "6507_7-1"  65.3700 "Sandstone" -999.25 -999.25 100.0000      0.0     0.0 "vc"       "vc/granule" "?____Ovre_strand_skraning/submarin_sandbanke_______?" "?"                                          
3504.8 "6507_7-1"  61.4500 "Sandstone" -999.25 -999.25 100.0000      0.0     0.0 "vc"       "vc/granule" "?____Ovre_strand_skraning/submarin_sandbanke_______?" "?"                                          
3504.9 "6507_7-1"  59.3500 "Sandstone" -999.25 -999.25 100.0000      0.0     0.0 "vc"       "vc/granule" "?____Ovre_strand_skraning/submarin_sandbanke_______?" "?"                                          
3505.0 "6507_7-1"  59.1900 "Sandstone" -999.25 -999.25 100.0000      0.0     0.0 "vc"       "vc/granule" "?____Ovre_strand_skraning/submarin_sandbanke_______?" "?"                                          
3505.1 "6507_7-1"  60.7400 "Sandstone" -999.25 -999.25 100.0000      0.0     0.0 "vc"       "vc/granule" "?____Ovre_strand_skraning/submarin_sandbanke_______?" "?"                                          
3505.2 "6507_7-1"  63.3400 "Sandstone" -999.25 -999.25 100.0000      0.0     0.0 "vc"       "vc/granule" "?____Ovre_strand_skraning/submarin_sandbanke_______?" "?"                                          
3505.3 "6507_7-1"  65.5700 "Sandstone" -999.25 -999.25 100.0000      0.0     0.0 "vc"       "vc/granule" "?____Ovre_strand_skraning/submarin_sandbanke_______?" "?"                                          
3505.4 "6507_7-1"  67.6500 "Sandstone" -999.25 -999.25 100.0000      0.0     0.0 "vc"       "vc/granule" "?____Ovre_strand_skraning/submarin_sandbanke_______?" "?"                                          
3505.5 "6507_7-1"  68.1000 "Sandstone" -999.25 -999.25 100.0000      0.0     0.0 "vc"       "vc/granule" "?____Ovre_strand_skraning/submarin_sandbanke_______?" "?"                                          
3505.6 "6507_7-1"  68.1000 "Sandstone" -999.25 -999.25 100.0000      0.0     0.0 "vc"       "vc/granule" "?____Ovre_strand_skraning/submarin_sandbanke_______?" "?"                                          
3505.7 "6507_7-1"  68.1000 "Sandstone" -999.25 -999.25 100.0000      0.0     0.0 "vc"       "vc/granule" "?____Ovre_strand_skraning/submarin_sandbanke_______?" "?"                                          
3505.8 "6507_7-1"  70.6500 "Sandstone" -999.25 -999.25 100.0000      0.0     0.0 "vc"       "vc/granule" "?____Ovre_strand_skraning/submarin_sandbanke_______?" "?"                                          
3505.9 "6507_7-1"  76.8900 "Sandstone" -999.25 -999.25 100.0000      0.0     0.0 "vc"       "vc/granule" "?____Ovre_strand_skraning/submarin_sandbanke_______?" "?"                                          
3506.0 "6507_7-1"  84.0800 "Sandstone" -999.25 -999.25 100.0000      0.0     0.0 "vc"       "vc/granule" "?____Ovre_strand_skraning/submarin_sandbanke_______?" "?"                                          
3506.1 "6507_7-1"  93.5900 "Sandstone" -999.25 -999.25 100.0000      0.0     0.0 "vc"       "vc/granule" "?____Ovre_strand_skraning/submarin_sandbanke_______?" "?"                                          
3506.2 "6507_7-1"  99.3900 "Sandstone" -999.25 -999.25 100.0000      0.0     0.0 "vc"       "vc/granule" "?____Ovre_strand_skraning/submarin_sandbanke_______?" "?"                                          
3506.3 "6507_7-1"  99.5300 "Sandstone" -999.25 -999.25 100.0000      0.0     0.0 "vc"       "vc/granule" "?____Ovre_strand_skraning/submarin_sandbanke_______?" "?"                                          
3506.4 "6507_7-1"  98.2900 "Sandstone" -999.25 -999.25 100.0000      0.0     0.0 "vc"       "vc/granule" "?____Ovre_strand_skraning/submarin_sandbanke_______?" "?"                                          
3506.5 "6507_7-1"  95.9700 "Shale"   -999.25 -999.25 100.0000      0.0     0.0 "silt"     "silt"     "?____Ovre_strand_skraning/submarin_sandbanke_______?" "?"                                          
3506.6 "6507_7-1"  93.6600 "Shale"   -999.25 -999.25 100.0000      0.0     0.0 "silt"     "silt"     "?____Ovre_strand_skraning/submarin_sandbanke_______?" "?"                                          
3506.7 "6507_7-1"  92.2200 "Sandstone" -999.25 -999.25 100.0000      0.0     0.0 "c"        "f"        "?____Ovre_strand_skraning/submarin_sandbanke_______?" "?"                                          
3506.8 "6507_7-1"  93.0200 "Sandstone" -999.25 -999.25 100.0000      0.0     0.0 "c"        "f"        "?____Ovre_strand_skraning/submarin_sandbanke_______?" "?"                                          
3506.9 "6507_7-1"  93.8200 "Sandstone" -999.25 -999.25 100.0000      0.0     0.0 "c"        "f"        "?____Ovre_strand_skraning/submarin_sandbanke_______?" "?"                                          
3507.0 "6507_7-1"  94.7600 "Sandstone" -999.25 -999.25 100.0000      0.0     0.0 "c"        "f"        "?____Ovre_strand_skraning/submarin_sandbanke_______?" "?"                                          
3507.1 "6507_7-1"  95.4100 "Sandstone" -999.25 -999.25 100.0000      0.0     0.0 "c"        "f"        "?____Ovre_strand_skraning/submarin_sandbanke_______?" "?"                                          
3507.2 "6507_7-1"  95.1100 "Sandstone" -999.25 -999.25 100.0000      0.0     0.0 "c"        "f"        "?____Ovre_strand_skraning/submarin_sandbanke_______?" "?"                                          
3507.3 "6507_7-1"  93.4400 "Sandstone" -999.25 -999.25 100.0000      0.0     0.0 "c"        "f"        "?____Ovre_strand_skraning/submarin_sandbanke_______?" "?"                                          
3507.4 "6507_7-1"  91.2800 "Sandstone" -999.25 -999.25 100.0000      0.0     0.0 "c"        "f"        "?____Ovre_strand_skraning/submarin_sandbanke_______?" "?"                                          
3507.5 "6507_7-1"  88.4800 "Sandstone" -999.25 -999.25 100.0000      0.0     0.0 "c"        "f"        "?____Ovre_strand_skraning/submarin_sandbanke_______?" "?"                                          
3507.6 "6507_7-1"  85.4700 "Sandstone" -999.25 -999.25 100.0000      0.0     0.0 "c"        "f"        "?____Ovre_strand_skraning/submarin_sandbanke_______?" "?"                                          
3507.7 "6507_7-1"  80.7700 "Sandstone" -999.25 -999.25 100.0000      0.0     0.0 "c"        "f"        "?____Ovre_strand_skraning/submarin_sandbanke_______?" "?"                                          
3507.8 "6507_7-1"  76.0800 "Sandstone" -999.25 -999.25 100.0000      0.0     0.0 "c"        "f"        "?____Ovre_strand_skraning/submarin_sandbanke_______?" "?"                                          
