~Version
VERS  .                                 3.0 : CWLS LAS ASCII Standard - Version 3.0
WRAP  . NO                                  : One line per depth step
DLM   . SPACE                               : Column data section delimiter
SOURCE. Converted to LAS by Log Studio 4.76 : GeoProvider

~Well
STRT.         3504.0 : Start depth
STOP.         4600.3 : Stop depth
STEP.              1 : Step
NULL.        -999.25 : No-value
COMP.                : Company
WELL. 6507/7-1       : Well
FLD .                : Field
LOC .                : Location
LATI.                : Latitude
LONG.                : Longitude
GDAT.                : Geodetic datum
CNTY.                : County
STAT.                : State
CTRY.                : Country
SRVC. GeoProvider AS : Service company
DATE.                : Date
API .                : API number
RUN .                : Run number

~Parameters
WellboreName.  : Wellbore name
RigName     .  : Rig name
StartDate   .  : Start date

~Curves
DEPTH.m            .  : null {F}Depth mMD
Hole_ID.-          .  : null {S}Hole ID
GR.API             .  : null {F}Gamma Ray
Lithology1.-       .  : null {S}Lithology 1
Lithology2.-       .  : null {S}Lithology 2
Lithology3.-       .  : null {S}Lithology 3
Lithology1.%       .  : null {F}Lithology 1 percentage
Lithology2.%       .  : null {F}Lithology 2 percentage
Lithology3.%       .  : null {F}Lithology 3 percentage
Grain_size_Top.-   .  : null {S}Grain size at the top 
Grain_size_Base.-  .  : null {S}Grain size at the bottom
Sub_Environment.-  .  : null {S}Sub Environment
Gross_Environment.-.  : null {S}Gross Environment

~Ascii
# ...
3507.9 "6507_7-1"  71.3800 "Sandstone" -999.25 -999.25 100.0000      0.0     0.0 "c"        "f"        "?____Ovre_strand_skraning/submarin_sandbanke_______?" "?"                                          
3508.0 "6507_7-1"  68.8400 "Sandstone" -999.25 -999.25 100.0000      0.0     0.0 "c"        "f"        "?____Ovre_strand_skraning/submarin_sandbanke_______?" "?"                                          
3508.1 "6507_7-1"  66.7600 "Sandstone" -999.25 -999.25 100.0000      0.0     0.0 "c"        "f"        "?____Ovre_strand_skraning/submarin_sandbanke_______?" "?"                                          
3508.2 "6507_7-1"  66.3200 "Sandstone" -999.25 -999.25 100.0000      0.0     0.0 "c"        "f"        "?____Ovre_strand_skraning/submarin_sandbanke_______?" "?"                                          
3508.3 "6507_7-1"  66.0900 "Sandstone" -999.25 -999.25 100.0000      0.0     0.0 "c"        "f"        "?____Ovre_strand_skraning/submarin_sandbanke_______?" "?"                                          
3508.4 "6507_7-1"  66.9100 "Sandstone" -999.25 -999.25 100.0000      0.0     0.0 "c"        "f"        "?____Ovre_strand_skraning/submarin_sandbanke_______?" "?"                                          
3508.5 "6507_7-1"  67.7800 "Sandstone" -999.25 -999.25 100.0000      0.0     0.0 "c"        "f"        "?____Ovre_strand_skraning/submarin_sandbanke_______?" "?"                                          
3508.6 "6507_7-1"  68.6500 "Sandstone" -999.25 -999.25 100.0000      0.0     0.0 "c"        "f"        "?____Ovre_strand_skraning/submarin_sandbanke_______?" "?"                                          
3508.7 "6507_7-1"  69.4300 "Sandstone" -999.25 -999.25 100.0000      0.0     0.0 "c"        "f"        "?____Ovre_strand_skraning/submarin_sandbanke_______?" "?"                                          
3508.8 "6507_7-1"  69.2800 "Sandstone" -999.25 -999.25 100.0000      0.0     0.0 "c"        "f"        "?____Ovre_strand_skraning/submarin_sandbanke_______?" "?"                                          
3508.9 "6507_7-1"  68.8000 "Sandstone" -999.25 -999.25 100.0000      0.0     0.0 "c"        "f"        "?____Ovre_strand_skraning/submarin_sandbanke_______?" "?"                                          
3509.0 "6507_7-1"  68.0300 "Sandstone" -999.25 -999.25 100.0000      0.0     0.0 "c"        "f"        "?____Ovre_strand_skraning/submarin_sandbanke_______?" "?"                                          
3509.1 "6507_7-1"  67.4200 "Sandstone" -999.25 -999.25 100.0000      0.0     0.0 "c"        "f"        "?____Ovre_strand_skraning/submarin_sandbanke_______?" "?"                                          
3509.2 "6507_7-1"  67.4200 "Sandstone" -999.25 -999.25 100.0000      0.0     0.0 "c"        "f"        "?____Ovre_strand_skraning/submarin_sandbanke_______?" "?"                                          
3509.3 "6507_7-1"  67.4200 "Sandstone" -999.25 -999.25 100.0000      0.0     0.0 "c"        "f"        "?____Ovre_strand_skraning/submarin_sandbanke_______?" "?"                                          
3509.4 "6507_7-1"  68.1100 "Sandstone" -999.25 -999.25 100.0000      0.0     0.0 "c"        "f"        "?____Ovre_strand_skraning/submarin_sandbanke_______?" "?"                                          
3509.5 "6507_7-1"  68.8800 "Sandstone" -999.25 -999.25 100.0000      0.0     0.0 "c"        "f"        "?____Ovre_strand_skraning/submarin_sandbanke_______?" "?"                                          
3509.6 "6507_7-1"  69.6600 "Sandstone" -999.25 -999.25 100.0000      0.0     0.0 "c"        "f"        "?____Ovre_strand_skraning/submarin_sandbanke_______?" "?"                                          
3509.7 "6507_7-1"  69.3400 "Sandstone" -999.25 -999.25 100.0000      0.0     0.0 "c"        "f"        "?____Ovre_strand_skraning/submarin_sandbanke_______?" "?"                                          
3509.8 "6507_7-1"  68.8500 "Sandstone" -999.25 -999.25 100.0000      0.0     0.0 "c"        "f"        "?____Ovre_strand_skraning/submarin_sandbanke_______?" "?"                                          
3509.9 "6507_7-1"  68.2700 "Sandstone" -999.25 -999.25 100.0000      0.0     0.0 "c"        "f"        "?____Ovre_strand_skraning/submarin_sandbanke_______?" "?"                                          
3510.0 "6507_7-1"  68.1100 "Sandstone" -999.25 -999.25 100.0000      0.0     0.0 "c"        "f"        "?____Ovre_strand_skraning/submarin_sandbanke_______?" "?"                                          
3510.1 "6507_7-1"  68.8900 "Sandstone" -999.25 -999.25 100.0000      0.0     0.0 "c"        "f"        "?____Ovre_strand_skraning/submarin_sandbanke_______?" "?"                                          
3510.2 "6507_7-1"  69.6600 "Sandstone" -999.25 -999.25 100.0000      0.0     0.0 "c"        "f"        "?____Ovre_strand_skraning/submarin_sandbanke_______?" "?"                                          
3510.3 "6507_7-1"  70.4300 "Sandstone" -999.25 -999.25 100.0000      0.0     0.0 "c"        "f"        "?____Ovre_strand_skraning/submarin_sandbanke_______?" "?"                                          
3510.4 "6507_7-1"  70.8000 "Sandstone" -999.25 -999.25 100.0000      0.0     0.0 "c"        "f"        "?____Ovre_strand_skraning/submarin_sandbanke_______?" "?"                                          
3510.5 "6507_7-1"  70.9600 "Sandstone" -999.25 -999.25 100.0000      0.0     0.0 "c"        "f"        "?____Ovre_strand_skraning/submarin_sandbanke_______?" "?"                                          
3510.6 "6507_7-1"  70.8000 "Sandstone" -999.25 -999.25 100.0000      0.0     0.0 "c"        "f"        "?____Ovre_strand_skraning/submarin_sandbanke_______?" "?"                                          
3510.7 "6507_7-1"  69.6700 "Sandstone" -999.25 -999.25 100.0000      0.0     0.0 "c"        "f"        "?____Ovre_strand_skraning/submarin_sandbanke_______?" "?"                                          
3510.8 "6507_7-1"  68.4600 "Sandstone" -999.25 -999.25 100.0000      0.0     0.0 "c"        "f"        "?____Ovre_strand_skraning/submarin_sandbanke_______?" "?"                                          
3510.9 "6507_7-1"  67.2500 "Sandstone" -999.25 -999.25 100.0000      0.0     0.0 "c"        "f"        "?____Ovre_strand_skraning/submarin_sandbanke_______?" "?"                                          
3511.0 "6507_7-1"  66.0500 "Sandstone" -999.25 -999.25 100.0000      0.0     0.0 "c"        "f"        "?____Ovre_strand_skraning/submarin_sandbanke_______?" "?"                                          
3511.1 "6507_7-1"  64.8300 "Sandstone" -999.25 -999.25 100.0000      0.0     0.0 "c"        "f"        "?____Ovre_strand_skraning/submarin_sandbanke_______?" "?"                                          
3511.2 "6507_7-1"  63.5900 "Sandstone" -999.25 -999.25 100.0000      0.0     0.0 "c"        "f"        "?____Ovre_strand_skraning/submarin_sandbanke_______?" "?"                                          
3511.3 "6507_7-1"  62.3500 "Sandstone" -999.25 -999.25 100.0000      0.0     0.0 "c"        "f"        "?____Ovre_strand_skraning/submarin_sandbanke_______?" "?"                                          
3511.4 "6507_7-1"  61.9400 "Sandstone" -999.25 -999.25 100.0000      0.0     0.0 "c"        "f"        "?____Ovre_strand_skraning/submarin_sandbanke_______?" "?"                                          
3511.5 "6507_7-1"  62.1300 "Sandstone" -999.25 -999.25 100.0000      0.0     0.0 "c"        "f"        "?____Ovre_strand_skraning/submarin_sandbanke_______?" "?"                                          
3511.6 "6507_7-1"  62.4200 "Sandstone" -999.25 -999.25 100.0000      0.0     0.0 "c"        "f"        "?____Ovre_strand_skraning/submarin_sandbanke_______?" "?"                                          
3511.7 "6507_7-1"  63.0000 "Sandstone" -999.25 -999.25 100.0000      0.0     0.0 "c"        "f"        "?____Ovre_strand_skraning/submarin_sandbanke_______?" "?"                                          
3511.8 "6507_7-1"  63.5800 "Sandstone" -999.25 -999.25 100.0000      0.0     0.0 "c"        "f"        "?____Ovre_strand_skraning/submarin_sandbanke_______?" "?"                                          
