~Version
VERS  .                                 3.0 : CWLS LAS ASCII Standard - Version 3.0
WRAP  . NO                                  : One line per depth step
DLM   . SPACE                               : Column data section delimiter
SOURCE. Converted to LAS by Log Studio 4.76 : GeoProvider

~Well
STRT.         3504.0 : Start depth
STOP.         4600.3 : Stop depth
STEP.              1 : Step
NULL.        -999.25 : No-value
COMP.                : Company
WELL. 6507/7-1       : Well
FLD .                : Field
LOC .                : Location
LATI.                : Latitude
LONG.                : Longitude
GDAT.                : Geodetic datum
CNTY.                : County
STAT.                : State
CTRY.                : Country
SRVC. GeoProvider AS : Service company
DATE.                : Date
API .                : API number
RUN .                : Run number

~Parameters
WellboreName.  : Wellbore name
RigName     .  : Rig name
StartDate   .  : Start date

~Curves
DEPTH.m            .  : null {F}Depth mMD
Hole_ID.-          .  : null {S}Hole ID
GR.API             .  : null {F}Gamma Ray
Lithology1.-       .  : null {S}Lithology 1
Lithology2.-       .  : null {S}Lithology 2
Lithology3.-       .  : null {S}Lithology 3
Lithology1.%       .  : null {F}Lithology 1 percentage
Lithology2.%       .  : null {F}Lithology 2 percentage
Lithology3.%       .  : null {F}Lithology 3 percentage
Grain_size_Top.-   .  : null {S}Grain size at the top 
Grain_size_Base.-  .  : null {S}Grain size at the bottom
Sub_Environment.-  .  : null {S}Sub Environment
Gross_Environment.-.  : null {S}Gross Environment

~Ascii
# ...
4591.6 "6507_7-1"  -999.25 -999.25   -999.25 -999.25  -999.25  -999.25 -999.25 -999.25    -999.25    -999.25                                              -999.25                                      
4591.7 "6507_7-1"  -999.25 -999.25   -999.25 -999.25  -999.25  -999.25 -999.25 -999.25    -999.25    -999.25                                              -999.25                                      
4591.8 "6507_7-1"  -999.25 -999.25   -999.25 -999.25  -999.25  -999.25 -999.25 -999.25    -999.25    -999.25                                              -999.25                                      
4591.9 "6507_7-1"  -999.25 -999.25   -999.25 -999.25  -999.25  -999.25 -999.25 -999.25    -999.25    -999.25                                              -999.25                                      
4592.0 "6507_7-1"  -999.25 -999.25   -999.25 -999.25  -999.25  -999.25 -999.25 -999.25    -999.25    -999.25                                              -999.25                                      
4592.1 "6507_7-1"  -999.25 -999.25   -999.25 -999.25  -999.25  -999.25 -999.25 -999.25    -999.25    -999.25                                              -999.25                                      
4592.2 "6507_7-1"  -999.25 -999.25   -999.25 -999.25  -999.25  -999.25 -999.25 -999.25    -999.25    -999.25                                              -999.25                                      
4592.3 "6507_7-1"  -999.25 -999.25   -999.25 -999.25  -999.25  -999.25 -999.25 -999.25    -999.25    -999.25                                              -999.25                                      
4592.4 "6507_7-1"  -999.25 -999.25   -999.25 -999.25  -999.25  -999.25 -999.25 -999.25    -999.25    -999.25                                              -999.25                                      
4592.5 "6507_7-1"  -999.25 -999.25   -999.25 -999.25  -999.25  -999.25 -999.25 -999.25    -999.25    -999.25                                              -999.25                                      
4592.6 "6507_7-1"  -999.25 -999.25   -999.25 -999.25  -999.25  -999.25 -999.25 -999.25    -999.25    -999.25                                              -999.25                                      
4592.7 "6507_7-1"  -999.25 -999.25   -999.25 -999.25  -999.25  -999.25 -999.25 -999.25    -999.25    -999.25                                              -999.25                                      
4592.8 "6507_7-1"  -999.25 -999.25   -999.25 -999.25  -999.25  -999.25 -999.25 -999.25    -999.25    -999.25                                              -999.25                                      
4592.9 "6507_7-1"  -999.25 -999.25   -999.25 -999.25  -999.25  -999.25 -999.25 -999.25    -999.25    -999.25                                              -999.25                                      
4593.0 "6507_7-1"  -999.25 "Sandstone" "Clay"  -999.25  50.0000 50.00000     0.0 "clay"     "clay"     "Beskyttet_distal_bukt"                              "Nedre_delta_slette"                         
4593.1 "6507_7-1"  -999.25 "Sandstone" "Clay"  -999.25  50.0000 50.00000     0.0 "clay"     "clay"     "Beskyttet_distal_bukt"                              "Nedre_delta_slette"                         
4593.2 "6507_7-1"  -999.25 "Sandstone" "Clay"  -999.25  50.0000 50.00000     0.0 "clay"     "clay"     "Beskyttet_distal_bukt"                              "Nedre_delta_slette"                         
4593.3 "6507_7-1"  -999.25 "Sandstone" "Clay"  -999.25  50.0000 50.00000     0.0 "clay"     "clay"     "Beskyttet_distal_bukt"                              "Nedre_delta_slette"                         
4593.4 "6507_7-1"  -999.25 "Sandstone" "Clay"  -999.25  50.0000 50.00000     0.0 "clay"     "clay"     "Beskyttet_distal_bukt"                              "Nedre_delta_slette"                         
4593.5 "6507_7-1"  -999.25 "Sandstone" -999.25 -999.25 100.0000      0.0     0.0 "f"        "f"        "Beskyttet_distal_bukt"                              "Nedre_delta_slette"                         
4593.6 "6507_7-1"  -999.25 "Sandstone" -999.25 -999.25 100.0000      0.0     0.0 "f"        "f"        "Beskyttet_distal_bukt"                              "Nedre_delta_slette"                         
4593.7 "6507_7-1"  -999.25 "Sandstone" -999.25 -999.25 100.0000      0.0     0.0 "f"        "f"        "Beskyttet_distal_bukt"                              "Nedre_delta_slette"                         
4593.8 "6507_7-1"  -999.25 "Sandstone" -999.25 -999.25 100.0000      0.0     0.0 "f"        "f"        "Beskyttet_distal_bukt"                              "Nedre_delta_slette"                         
4593.9 "6507_7-1"  -999.25 "Sandstone" -999.25 -999.25 100.0000      0.0     0.0 "m/c"      "m/c"      "Beskyttet_distal_bukt"                              "Nedre_delta_slette"                         
4594.0 "6507_7-1"  -999.25 "Sandstone" -999.25 -999.25 100.0000      0.0     0.0 "m/c"      "m/c"      "Beskyttet_distal_bukt"                              "Nedre_delta_slette"                         
4594.1 "6507_7-1"  -999.25 "Sandstone" -999.25 -999.25 100.0000      0.0     0.0 "m/c"      "m/c"      "Beskyttet_distal_bukt"                              "Nedre_delta_slette"                         
4594.2 "6507_7-1"  -999.25 "Sandstone" -999.25 -999.25 100.0000      0.0     0.0 "m/c"      "m/c"      "Beskyttet_distal_bukt"                              "Nedre_delta_slette"                         
4594.3 "6507_7-1"  -999.25 "Sandstone" -999.25 -999.25 100.0000      0.0     0.0 "vc"       "vc"       "Beskyttet_distal_bukt"                              "Nedre_delta_slette"                         
4594.4 "6507_7-1"  -999.25 "Sandstone" -999.25 -999.25 100.0000      0.0     0.0 "vc"       "vc"       "Beskyttet_distal_bukt"                              "Nedre_delta_slette"                         
4594.5 "6507_7-1"  -999.25 "Sandstone" -999.25 -999.25 100.0000      0.0     0.0 "vc"       "vc"       "Beskyttet_distal_bukt"                              "Nedre_delta_slette"                         
4594.6 "6507_7-1"  -999.25 "Sandstone" -999.25 -999.25 100.0000      0.0     0.0 "vc"       "vc"       "Beskyttet_distal_bukt"                              "Nedre_delta_slette"                         
4594.7 "6507_7-1"  -999.25 "Sandstone" -999.25 -999.25 100.0000      0.0     0.0 "vc"       "vc"       "Beskyttet_distal_bukt"                              "Nedre_delta_slette"                         
4594.8 "6507_7-1"  -999.25 "Sandstone" "Shale" -999.25  50.0000 50.00000     0.0 "vf"       "vf"       "Beskyttet_distal_bukt"                              "Nedre_delta_slette"                         
4594.9 "6507_7-1"  -999.25 "Sandstone" "Shale" -999.25  50.0000 50.00000     0.0 "vf"       "vf"       "Beskyttet_distal_bukt"                              "Nedre_delta_slette"                         
4595.0 "6507_7-1"  -999.25 "Sandstone" "Shale" -999.25  50.0000 50.00000     0.0 "vf"       "vf"       "Beskyttet_distal_bukt"                              "Nedre_delta_slette"                         
4595.1 "6507_7-1"  -999.25 "Sandstone" "Shale" -999.25  50.0000 50.00000     0.0 "vf"       "vf"       "Beskyttet_distal_bukt"                              "Nedre_delta_slette"                         
4595.2 "6507_7-1"  -999.25 "Sandstone" -999.25 -999.25 100.0000      0.0     0.0 "vc/granule" "vc/granule" "Beskyttet_distal_bukt"                              "Nedre_delta_slette"                         
4595.3 "6507_7-1"  -999.25 "Sandstone" -999.25 -999.25 100.0000      0.0     0.0 "vc/granule" "vc/granule" "Beskyttet_distal_bukt"                              "Nedre_delta_slette"                         
4595.4 "6507_7-1"  -999.25 "Sandstone" -999.25 -999.25 100.0000      0.0     0.0 "vc/granule" "vc/granule" "Beskyttet_distal_bukt"                              "Nedre_delta_slette"                         
4595.5 "6507_7-1"  -999.25 "Sandstone" -999.25 -999.25 100.0000      0.0     0.0 "vc/granule" "vc/granule" "Beskyttet_distal_bukt"                              "Nedre_delta_slette"                         
