~Version
VERS  .                                 3.0 : CWLS LAS ASCII Standard - Version 3.0
WRAP  . NO                                  : One line per depth step
DLM   . SPACE                               : Column data section delimiter
SOURCE. Converted to LAS by Log Studio 4.76 : GeoProvider

~Well
STRT.         3504.0 : Start depth
STOP.         4600.3 : Stop depth
STEP.              1 : Step
NULL.        -999.25 : No-value
COMP.                : Company
WELL. 6507/7-1       : Well
FLD .                : Field
LOC .                : Location
LATI.                : Latitude
LONG.                : Longitude
GDAT.                : Geodetic datum
CNTY.                : County
STAT.                : State
CTRY.                : Country
SRVC. GeoProvider AS : Service company
DATE.                : Date
API .                : API number
RUN .                : Run number

~Parameters
WellboreName.  : Wellbore name
RigName     .  : Rig name
StartDate   .  : Start date

~Curves
DEPTH.m            .  : null {F}Depth mMD
Hole_ID.-          .  : null {S}Hole ID
GR.API             .  : null {F}Gamma Ray
Lithology1.-       .  : null {S}Lithology 1
Lithology2.-       .  : null {S}Lithology 2
Lithology3.-       .  : null {S}Lithology 3
Lithology1.%       .  : null {F}Lithology 1 percentage
Lithology2.%       .  : null {F}Lithology 2 percentage
Lithology3.%       .  : null {F}Lithology 3 percentage
Grain_size_Top.-   .  : null {S}Grain size at the top 
Grain_size_Base.-  .  : null {S}Grain size at the bottom
Sub_Environment.-  .  : null {S}Sub Environment
Gross_Environment.-.  : null {S}Gross Environment

~Ascii
# ...
4479.6 "6507_7-1"  67.0300 "Sandstone" "Clay"  -999.25  40.0000 60.00000     0.0 "clay/silt" "clay/silt" "Apent_marint"                                       "Prodelta-distal_munningsbanke"              
4479.7 "6507_7-1"  68.8600 "Sandstone" "Clay"  -999.25  40.0000 60.00000     0.0 "clay/silt" "clay/silt" "Apent_marint"                                       "Prodelta-distal_munningsbanke"              
4479.8 "6507_7-1"  70.0900 "Sandstone" "Clay"  -999.25  40.0000 60.00000     0.0 "clay/silt" "clay/silt" "Apent_marint"                                       "Prodelta-distal_munningsbanke"              
4479.9 "6507_7-1"  71.2700 "Sandstone" "Clay"  -999.25  40.0000 60.00000     0.0 "clay/silt" "clay/silt" "Apent_marint"                                       "Prodelta-distal_munningsbanke"              
4480.0 "6507_7-1"  71.2300 "Sandstone" "Clay"  -999.25  40.0000 60.00000     0.0 "clay/silt" "clay/silt" "Apent_marint"                                       "Prodelta-distal_munningsbanke"              
4480.1 "6507_7-1"  71.1700 "Sandstone" "Clay"  -999.25  40.0000 60.00000     0.0 "clay/silt" "clay/silt" "Apent_marint"                                       "Prodelta-distal_munningsbanke"              
4480.2 "6507_7-1"  71.4500 "Sandstone" "Clay"  -999.25  40.0000 60.00000     0.0 "clay/silt" "clay/silt" "Apent_marint"                                       "Prodelta-distal_munningsbanke"              
4480.3 "6507_7-1"  72.6900 "Sandstone" "Clay"  -999.25  40.0000 60.00000     0.0 "clay/silt" "clay/silt" "Apent_marint"                                       "Prodelta-distal_munningsbanke"              
4480.4 "6507_7-1"  73.9300 "Sandstone" "Clay"  -999.25  40.0000 60.00000     0.0 "clay/silt" "clay/silt" "Apent_marint"                                       "Prodelta-distal_munningsbanke"              
4480.5 "6507_7-1"  74.8500 "Sandstone" "Clay"  -999.25  40.0000 60.00000     0.0 "clay/silt" "clay/silt" "Apent_marint"                                       "Prodelta-distal_munningsbanke"              
4480.6 "6507_7-1"  74.5400 "Sandstone" "Clay"  -999.25  40.0000 60.00000     0.0 "clay/silt" "clay/silt" "Apent_marint"                                       "Prodelta-distal_munningsbanke"              
4480.7 "6507_7-1"  73.0800 "Sandstone" "Clay"  -999.25  40.0000 60.00000     0.0 "clay/silt" "clay/silt" "Apent_marint"                                       "Prodelta-distal_munningsbanke"              
4480.8 "6507_7-1"  71.6200 "Sandstone" "Clay"  -999.25  40.0000 60.00000     0.0 "clay/silt" "clay/silt" "Apent_marint"                                       "Prodelta-distal_munningsbanke"              
4480.9 "6507_7-1"  70.1900 "Sandstone" "Clay"  -999.25  40.0000 60.00000     0.0 "clay/silt" "clay/silt" "Apent_marint"                                       "Prodelta-distal_munningsbanke"              
4481.0 "6507_7-1"  69.4000 "Sandstone" "Clay"  -999.25  40.0000 60.00000     0.0 "clay/silt" "clay/silt" "Apent_marint"                                       "Prodelta-distal_munningsbanke"              
4481.1 "6507_7-1"  70.1300 "Sandstone" "Clay"  -999.25  40.0000 60.00000     0.0 "clay/silt" "clay/silt" "Apent_marint"                                       "Prodelta-distal_munningsbanke"              
4481.2 "6507_7-1"  72.4800 "Sandstone" "Clay"  -999.25  40.0000 60.00000     0.0 "clay/silt" "clay/silt" "Apent_marint"                                       "Prodelta-distal_munningsbanke"              
4481.3 "6507_7-1"  75.0800 "Sandstone" "Clay"  -999.25  40.0000 60.00000     0.0 "clay/silt" "clay/silt" "Apent_marint"                                       "Prodelta-distal_munningsbanke"              
4481.4 "6507_7-1"  81.3000 "Sandstone" "Clay"  -999.25  40.0000 60.00000     0.0 "clay/silt" "clay/silt" "Apent_marint"                                       "Prodelta-distal_munningsbanke"              
4481.5 "6507_7-1"  88.8000 "Sandstone" "Clay"  -999.25  40.0000 60.00000     0.0 "clay/silt" "clay/silt" "Apent_marint"                                       "Prodelta-distal_munningsbanke"              
4481.6 "6507_7-1"  92.4400 "Sandstone" "Clay"  -999.25  40.0000 60.00000     0.0 "clay/silt" "clay/silt" "Apent_marint"                                       "Prodelta-distal_munningsbanke"              
4481.7 "6507_7-1"  93.8400 "Sandstone" "Clay"  -999.25  40.0000 60.00000     0.0 "clay/silt" "clay/silt" "Apent_marint"                                       "Prodelta-distal_munningsbanke"              
4481.8 "6507_7-1"  97.9600 "Sandstone" "Clay"  -999.25  40.0000 60.00000     0.0 "clay/silt" "clay/silt" "Apent_marint"                                       "Prodelta-distal_munningsbanke"              
4481.9 "6507_7-1" 105.0500 "Sandstone" "Clay"  -999.25  40.0000 60.00000     0.0 "clay/silt" "clay/silt" "Apent_marint"                                       "Prodelta-distal_munningsbanke"              
4482.0 "6507_7-1" 112.1300 "Sandstone" "Clay"  -999.25  40.0000 60.00000     0.0 "clay/silt" "clay/silt" "Apent_marint"                                       "Prodelta-distal_munningsbanke"              
4482.1 "6507_7-1" 116.9300 "Sandstone" "Clay"  -999.25  40.0000 60.00000     0.0 "clay/silt" "clay/silt" "Apent_marint"                                       "Prodelta-distal_munningsbanke"              
4482.2 "6507_7-1" 117.0500 "Sandstone" "Clay"  -999.25  40.0000 60.00000     0.0 "clay/silt" "clay/silt" "Apent_marint"                                       "Prodelta-distal_munningsbanke"              
4482.3 "6507_7-1" 114.8200 "Sandstone" "Clay"  -999.25  40.0000 60.00000     0.0 "clay/silt" "clay/silt" "Apent_marint"                                       "Prodelta-distal_munningsbanke"              
4482.4 "6507_7-1" 109.0600 "Sandstone" "Clay"  -999.25  40.0000 60.00000     0.0 "clay/silt" "clay/silt" "Apent_marint"                                       "Prodelta-distal_munningsbanke"              
4482.5 "6507_7-1" 102.9800 "Sandstone" "Clay"  -999.25  40.0000 60.00000     0.0 "clay/silt" "clay/silt" "Apent_marint"                                       "Prodelta-distal_munningsbanke"              
4482.6 "6507_7-1"  96.9000 "Sandstone" "Clay"  -999.25  40.0000 60.00000     0.0 "clay/silt" "clay/silt" "Apent_marint"                                       "Prodelta-distal_munningsbanke"              
4482.7 "6507_7-1"  94.1900 "Sandstone" "Clay"  -999.25  40.0000 60.00000     0.0 "clay/silt" "clay/silt" "Apent_marint"                                       "Prodelta-distal_munningsbanke"              
4482.8 "6507_7-1"  92.5800 "Sandstone" "Clay"  -999.25  40.0000 60.00000     0.0 "clay/silt" "clay/silt" "Apent_marint"                                       "Prodelta-distal_munningsbanke"              
4482.9 "6507_7-1"  92.3600 "Sandstone" "Clay"  -999.25  40.0000 60.00000     0.0 "clay/silt" "clay/silt" "Apent_marint"                                       "Prodelta-distal_munningsbanke"              
4483.0 "6507_7-1"  92.6500 "Sandstone" "Clay"  -999.25  40.0000 60.00000     0.0 "clay/silt" "clay/silt" "Apent_marint"                                       "Prodelta-distal_munningsbanke"              
4483.1 "6507_7-1"  92.9500 "Sandstone" "Clay"  -999.25  40.0000 60.00000     0.0 "clay/silt" "clay/silt" "Apent_marint"                                       "Prodelta-distal_munningsbanke"              
4483.2 "6507_7-1"  92.2800 "Sandstone" "Clay"  -999.25  40.0000 60.00000     0.0 "clay/silt" "clay/silt" "Apent_marint"                                       "Prodelta-distal_munningsbanke"              
4483.3 "6507_7-1"  91.5500 "Sandstone" "Clay"  -999.25  40.0000 60.00000     0.0 "clay/silt" "clay/silt" "Apent_marint"                                       "Prodelta-distal_munningsbanke"              
4483.4 "6507_7-1"  92.0100 "Sandstone" "Clay"  -999.25  40.0000 60.00000     0.0 "clay/silt" "clay/silt" "Apent_marint"                                       "Prodelta-distal_munningsbanke"              
4483.5 "6507_7-1"  93.1400 "Sandstone" "Clay"  -999.25  40.0000 60.00000     0.0 "clay/silt" "clay/silt" "Apent_marint"                                       "Prodelta-distal_munningsbanke"              
