~Version
VERS  .                                 3.0 : CWLS LAS ASCII Standard - Version 3.0
WRAP  . NO                                  : One line per depth step
DLM   . SPACE                               : Column data section delimiter
SOURCE. Converted to LAS by Log Studio 4.76 : GeoProvider

~Well
STRT.         3504.0 : Start depth
STOP.         4600.3 : Stop depth
STEP.              1 : Step
NULL.        -999.25 : No-value
COMP.                : Company
WELL. 6507/7-1       : Well
FLD .                : Field
LOC .                : Location
LATI.                : Latitude
LONG.                : Longitude
GDAT.                : Geodetic datum
CNTY.                : County
STAT.                : State
CTRY.                : Country
SRVC. GeoProvider AS : Service company
DATE.                : Date
API .                : API number
RUN .                : Run number

~Parameters
WellboreName.  : Wellbore name
RigName     .  : Rig name
StartDate   .  : Start date

~Curves
DEPTH.m            .  : null {F}Depth mMD
Hole_ID.-          .  : null {S}Hole ID
GR.API             .  : null {F}Gamma Ray
Lithology1.-       .  : null {S}Lithology 1
Lithology2.-       .  : null {S}Lithology 2
Lithology3.-       .  : null {S}Lithology 3
Lithology1.%       .  : null {F}Lithology 1 percentage
Lithology2.%       .  : null {F}Lithology 2 percentage
Lithology3.%       .  : null {F}Lithology 3 percentage
Grain_size_Top.-   .  : null {S}Grain size at the top 
Grain_size_Base.-  .  : null {S}Grain size at the bottom
Sub_Environment.-  .  : null {S}Sub Environment
Gross_Environment.-.  : null {S}Gross Environment

~Ascii
# ...
4595.6 "6507_7-1"  -999.25 "Sandstone" -999.25 -999.25 100.0000      0.0     0.0 "vc/granule" "vc/granule" "Beskyttet_distal_bukt"                              "Nedre_delta_slette"                         
4595.7 "6507_7-1" 113.1700 "Sandstone" -999.25 -999.25 100.0000      0.0     0.0 "vc/granule" "vc/granule" "Beskyttet_distal_bukt"                              "Nedre_delta_slette"                         
4595.8 "6507_7-1" 113.0300 "Sandstone" -999.25 -999.25 100.0000      0.0     0.0 "vc/granule" "vc/granule" "Beskyttet_distal_bukt"                              "Nedre_delta_slette"                         
4595.9 "6507_7-1" 111.7400 "Sandstone" -999.25 -999.25 100.0000      0.0     0.0 "f"        "f"        "Beskyttet_distal_bukt"                              "Nedre_delta_slette"                         
4596.0 "6507_7-1" 110.3400 "Sandstone" -999.25 -999.25 100.0000      0.0     0.0 "f"        "f"        "Beskyttet_distal_bukt"                              "Nedre_delta_slette"                         
4596.1 "6507_7-1" 106.6300 "Sandstone" -999.25 -999.25 100.0000      0.0     0.0 "f"        "f"        "Beskyttet_distal_bukt"                              "Nedre_delta_slette"                         
4596.2 "6507_7-1" 105.2600 "Sandstone" -999.25 -999.25 100.0000      0.0     0.0 "f"        "f"        "Beskyttet_distal_bukt"                              "Nedre_delta_slette"                         
4596.3 "6507_7-1" 105.6700 "Sandstone" -999.25 -999.25 100.0000      0.0     0.0 "f"        "f"        "Beskyttet_distal_bukt"                              "Nedre_delta_slette"                         
4596.4 "6507_7-1" 106.0100 "Sandstone" -999.25 -999.25 100.0000      0.0     0.0 "f"        "f"        "Beskyttet_distal_bukt"                              "Nedre_delta_slette"                         
4596.5 "6507_7-1" 104.1900 "Sandstone" -999.25 -999.25 100.0000      0.0     0.0 "f"        "f"        "Beskyttet_distal_bukt"                              "Nedre_delta_slette"                         
4596.6 "6507_7-1" 103.0200 "Sandstone" -999.25 -999.25 100.0000      0.0     0.0 "f"        "f"        "Beskyttet_distal_bukt"                              "Nedre_delta_slette"                         
4596.7 "6507_7-1" 102.8900 "Sandstone" -999.25 -999.25 100.0000      0.0     0.0 "f"        "f"        "Beskyttet_distal_bukt"                              "Nedre_delta_slette"                         
4596.8 "6507_7-1" 107.8200 "Sandstone" -999.25 -999.25 100.0000      0.0     0.0 "f"        "f"        "Beskyttet_distal_bukt"                              "Nedre_delta_slette"                         
4596.9 "6507_7-1" 116.4700 "Sandstone" "Shale" -999.25  95.0000  5.00000     0.0 "silt"     "vc/granule" "Beskyttet_distal_bukt"                              "Nedre_delta_slette"                         
4597.0 "6507_7-1" 125.0900 "Sandstone" "Shale" -999.25  95.0000  5.00000     0.0 "silt"     "vc/granule" "Beskyttet_distal_bukt"                              "Nedre_delta_slette"                         
4597.1 "6507_7-1" 132.7100 "Sandstone" "Shale" -999.25  95.0000  5.00000     0.0 "silt"     "vc/granule" "Beskyttet_distal_bukt"                              "Nedre_delta_slette"                         
4597.2 "6507_7-1" 134.7400 "Sandstone" "Shale" -999.25  95.0000  5.00000     0.0 "silt"     "vc/granule" "Beskyttet_distal_bukt"                              "Nedre_delta_slette"                         
4597.3 "6507_7-1" 131.6900 "Sandstone" "Shale" -999.25  95.0000  5.00000     0.0 "silt"     "vc/granule" "Beskyttet_distal_bukt"                              "Nedre_delta_slette"                         
4597.4 "6507_7-1" 124.0600 "Sandstone" "Shale" -999.25  95.0000  5.00000     0.0 "silt"     "vc/granule" "Beskyttet_distal_bukt"                              "Nedre_delta_slette"                         
4597.5 "6507_7-1" 115.2100 "Sandstone" "Shale" -999.25  95.0000  5.00000     0.0 "silt"     "vc/granule" "Beskyttet_distal_bukt"                              "Nedre_delta_slette"                         
4597.6 "6507_7-1" 113.5500 "Sandstone" "Shale" -999.25  95.0000  5.00000     0.0 "silt"     "vc/granule" "Beskyttet_distal_bukt"                              "Nedre_delta_slette"                         
4597.7 "6507_7-1" 112.8500 "Sandstone" "Shale" -999.25  95.0000  5.00000     0.0 "silt"     "vc/granule" "Beskyttet_distal_bukt"                              "Nedre_delta_slette"                         
4597.8 "6507_7-1" 111.2000 "Sandstone" "Shale" -999.25  95.0000  5.00000     0.0 "silt"     "vc/granule" "Beskyttet_distal_bukt"                              "Nedre_delta_slette"                         
4597.9 "6507_7-1" 107.6200 "Sandstone" "Shale" -999.25  95.0000  5.00000     0.0 "silt"     "vc/granule" "Beskyttet_distal_bukt"                              "Nedre_delta_slette"                         
4598.0 "6507_7-1" 103.3700 "Sandstone" "Shale" -999.25  95.0000  5.00000     0.0 "silt"     "vc/granule" "Beskyttet_distal_bukt"                              "Nedre_delta_slette"                         
4598.1 "6507_7-1"  99.1300 "Sandstone" "Shale" -999.25  95.0000  5.00000     0.0 "silt"     "vc/granule" "Beskyttet_distal_bukt"                              "Nedre_delta_slette"                         
4598.2 "6507_7-1"  94.8800 "Sandstone" "Shale" -999.25  95.0000  5.00000     0.0 "silt"     "vc/granule" "Beskyttet_distal_bukt"                              "Nedre_delta_slette"                         
4598.3 "6507_7-1"  92.3600 "Sandstone" "Shale" -999.25  95.0000  5.00000     0.0 "silt"     "vc/granule" "Beskyttet_distal_bukt"                              "Nedre_delta_slette"                         
4598.4 "6507_7-1"  94.2300 "Sandstone" "Shale" -999.25  95.0000  5.00000     0.0 "silt"     "vc/granule" "Beskyttet_distal_bukt"                              "Nedre_delta_slette"                         
4598.5 "6507_7-1" 102.9400 "Sandstone" "Shale" -999.25  95.0000  5.00000     0.0 "silt"     "vc/granule" "Beskyttet_distal_bukt"                              "Nedre_delta_slette"                         
4598.6 "6507_7-1" 111.0900 "Sandstone" "Shale" -999.25  95.0000  5.00000     0.0 "silt"     "vc/granule" "Beskyttet_distal_bukt"                              "Nedre_delta_slette"                         
4598.7 "6507_7-1" 114.5500 "Sandstone" "Shale" -999.25  95.0000  5.00000     0.0 "silt"     "vc/granule" "Beskyttet_distal_bukt"                              "Nedre_delta_slette"                         
4598.8 "6507_7-1" 112.9100 "Sandstone" "Shale" -999.25  95.0000  5.00000     0.0 "silt"     "vc/granule" "Beskyttet_distal_bukt"                              "Nedre_delta_slette"                         
4598.9 "6507_7-1" 107.5300 "Sandstone" "Shale" -999.25  95.0000  5.00000     0.0 "silt"     "vc/granule" "Beskyttet_distal_bukt"                              "Nedre_delta_slette"                         
4599.0 "6507_7-1"  98.6400 "Sandstone" "Shale" -999.25  95.0000  5.00000     0.0 "silt"     "vc/granule" "Beskyttet_distal_bukt"                              "Nedre_delta_slette"                         
4599.1 "6507_7-1"  88.2700 "Sandstone" "Shale" -999.25  95.0000  5.00000     0.0 "silt"     "vc/granule" "Beskyttet_distal_bukt"                              "Nedre_delta_slette"                         
4599.2 "6507_7-1"  79.7400 "Sandstone" "Shale" -999.25  95.0000  5.00000     0.0 "silt"     "vc/granule" "Beskyttet_distal_bukt"                              "Nedre_delta_slette"                         
4599.3 "6507_7-1"  76.1000 "Sandstone" "Shale" -999.25  95.0000  5.00000     0.0 "silt"     "vc/granule" "Beskyttet_distal_bukt"                              "Nedre_delta_slette"                         
4599.4 "6507_7-1"  76.6200 "Sandstone" "Shale" -999.25  95.0000  5.00000     0.0 "silt"     "vc/granule" "Beskyttet_distal_bukt"                              "Nedre_delta_slette"                         
4599.5 "6507_7-1"  78.7800 "Sandstone" "Clay"  -999.25  20.0000 80.00000     0.0 "clay"     "clay"     "Beskyttet_distal_bukt"                              "Nedre_delta_slette"                         
