~Version
VERS  .                                 3.0 : CWLS LAS ASCII Standard - Version 3.0
WRAP  . NO                                  : One line per depth step
DLM   . SPACE                               : Column data section delimiter
SOURCE. Converted to LAS by Log Studio 4.76 : GeoProvider

~Well
STRT.         3504.0 : Start depth
STOP.         4600.3 : Stop depth
STEP.              1 : Step
NULL.        -999.25 : No-value
COMP.                : Company
WELL. 6507/7-1       : Well
FLD .                : Field
LOC .                : Location
LATI.                : Latitude
LONG.                : Longitude
GDAT.                : Geodetic datum
CNTY.                : County
STAT.                : State
CTRY.                : Country
SRVC. GeoProvider AS : Service company
DATE.                : Date
API .                : API number
RUN .                : Run number

~Parameters
WellboreName.  : Wellbore name
RigName     .  : Rig name
StartDate   .  : Start date

~Curves
DEPTH.m            .  : null {F}Depth mMD
Hole_ID.-          .  : null {S}Hole ID
GR.API             .  : null {F}Gamma Ray
Lithology1.-       .  : null {S}Lithology 1
Lithology2.-       .  : null {S}Lithology 2
Lithology3.-       .  : null {S}Lithology 3
Lithology1.%       .  : null {F}Lithology 1 percentage
Lithology2.%       .  : null {F}Lithology 2 percentage
Lithology3.%       .  : null {F}Lithology 3 percentage
Grain_size_Top.-   .  : null {S}Grain size at the top 
Grain_size_Base.-  .  : null {S}Grain size at the bottom
Sub_Environment.-  .  : null {S}Sub Environment
Gross_Environment.-.  : null {S}Gross Environment

~Ascii
# ...
4371.6 "6507_7-1"  63.5500 "Sandstone" -999.25 -999.25 100.0000      0.0     0.0 "vc"       "vc"       "Regresjon"                                          "Proksimal_delta_front_(Proksimal_munningsbar)"
4371.7 "6507_7-1"  64.4300 "Sandstone" -999.25 -999.25 100.0000      0.0     0.0 "vc"       "vc"       "Regresjon"                                          "Proksimal_delta_front_(Proksimal_munningsbar)"
4371.8 "6507_7-1"  65.0100 "Sandstone" -999.25 -999.25 100.0000      0.0     0.0 "vc"       "vc"       "Regresjon"                                          "Proksimal_delta_front_(Proksimal_munningsbar)"
4371.9 "6507_7-1"  65.5900 "Sandstone" -999.25 -999.25 100.0000      0.0     0.0 "vc"       "vc"       "Regresjon"                                          "Proksimal_delta_front_(Proksimal_munningsbar)"
4372.0 "6507_7-1"  65.7100 "Sandstone" -999.25 -999.25 100.0000      0.0     0.0 "vc"       "vc"       "Regresjon"                                          "Proksimal_delta_front_(Proksimal_munningsbar)"
4372.1 "6507_7-1"  65.7900 "Sandstone" -999.25 -999.25 100.0000      0.0     0.0 "vc"       "vc"       "Regresjon"                                          "Proksimal_delta_front_(Proksimal_munningsbar)"
4372.2 "6507_7-1"  65.8700 "Sandstone" -999.25 -999.25 100.0000      0.0     0.0 "vc"       "vc"       "Regresjon"                                          "Proksimal_delta_front_(Proksimal_munningsbar)"
4372.3 "6507_7-1"  65.9600 "Sandstone" -999.25 -999.25 100.0000      0.0     0.0 "vc"       "vc"       "Regresjon"                                          "Proksimal_delta_front_(Proksimal_munningsbar)"
4372.4 "6507_7-1"  66.1500 "Sandstone" "Clay"  -999.25   5.0000 95.00000     0.0 "clay"     "clay"     "Regresjon"                                          "Proksimal_delta_front_(Proksimal_munningsbar)"
4372.5 "6507_7-1"  66.4300 "Sandstone" "Clay"  -999.25   5.0000 95.00000     0.0 "clay"     "clay"     "Regresjon"                                          "Proksimal_delta_front_(Proksimal_munningsbar)"
4372.6 "6507_7-1"  66.7000 "Sandstone" "Clay"  -999.25   5.0000 95.00000     0.0 "clay"     "clay"     "Regresjon"                                          "Proksimal_delta_front_(Proksimal_munningsbar)"
4372.7 "6507_7-1"  66.9700 "Sandstone" "Clay"  -999.25   5.0000 95.00000     0.0 "clay"     "clay"     "Apen_marint"                                        "Proksimal_delta_front_(Proksimal_munningsbar)"
4372.8 "6507_7-1"  67.2400 "Sandstone" "Clay"  -999.25   5.0000 95.00000     0.0 "clay"     "clay"     "Apen_marint"                                        "Proksimal_delta_front_(Proksimal_munningsbar)"
4372.9 "6507_7-1"  67.5100 "Sandstone" "Clay"  -999.25   5.0000 95.00000     0.0 "clay"     "clay"     "Apen_marint"                                        "Proksimal_delta_front_(Proksimal_munningsbar)"
4373.0 "6507_7-1"  67.4200 "Sandstone" "Clay"  -999.25   5.0000 95.00000     0.0 "clay"     "clay"     "Apen_marint"                                        "Proksimal_delta_front_(Proksimal_munningsbar)"
4373.1 "6507_7-1"  66.1400 "Sandstone" "Clay"  -999.25   5.0000 95.00000     0.0 "clay"     "clay"     "Apen_marint"                                        "Proksimal_delta_front_(Proksimal_munningsbar)"
4373.2 "6507_7-1"  63.4600 "Sandstone" "Clay"  -999.25   5.0000 95.00000     0.0 "clay"     "clay"     "Apen_marint"                                        "Proksimal_delta_front_(Proksimal_munningsbar)"
4373.3 "6507_7-1"  59.8700 "Sandstone" "Clay"  -999.25   5.0000 95.00000     0.0 "clay"     "clay"     "Apen_marint"                                        "Proksimal_delta_front_(Proksimal_munningsbar)"
4373.4 "6507_7-1"  56.8700 "Sandstone" "Clay"  -999.25   5.0000 95.00000     0.0 "clay"     "clay"     "Apen_marint"                                        "Proksimal_delta_front_(Proksimal_munningsbar)"
4373.5 "6507_7-1"  54.1700 "Sandstone" "Clay"  -999.25   5.0000 95.00000     0.0 "clay"     "clay"     "Apen_marint"                                        "Proksimal_delta_front_(Proksimal_munningsbar)"
4373.6 "6507_7-1"  51.4600 "Sandstone" "Clay"  -999.25   5.0000 95.00000     0.0 "clay"     "clay"     "Apen_marint"                                        "Proksimal_delta_front_(Proksimal_munningsbar)"
4373.7 "6507_7-1"  51.0000 "Sandstone" "Clay"  -999.25   5.0000 95.00000     0.0 "clay"     "clay"     "Apen_marint"                                        "Proksimal_delta_front_(Proksimal_munningsbar)"
4373.8 "6507_7-1"  51.2900 "Sandstone" "Clay"  -999.25   5.0000 95.00000     0.0 "clay"     "clay"     "Apen_marint"                                        "Proksimal_delta_front_(Proksimal_munningsbar)"
4373.9 "6507_7-1"  56.8000 "Sandstone" "Clay"  -999.25   5.0000 95.00000     0.0 "clay"     "clay"     "Apen_marint"                                        "Proksimal_delta_front_(Proksimal_munningsbar)"
4374.0 "6507_7-1"  62.3100 "Sandstone" "Clay"  -999.25   5.0000 95.00000     0.0 "clay"     "clay"     "Transgression"                                      "Proksimal_delta_front_(Proksimal_munningsbar)"
4374.1 "6507_7-1"  64.4400 "Sandstone" "Clay"  -999.25   5.0000 95.00000     0.0 "clay"     "clay"     "Transgression"                                      "Proksimal_delta_front_(Proksimal_munningsbar)"
4374.2 "6507_7-1"  70.8900 "Sandstone" "Clay"  -999.25   5.0000 95.00000     0.0 "clay"     "clay"     "Transgression"                                      "Proksimal_delta_front_(Proksimal_munningsbar)"
4374.3 "6507_7-1"  81.4000 "Sandstone" "Clay"  -999.25   5.0000 95.00000     0.0 "clay"     "clay"     "Transgression"                                      "Proksimal_delta_front_(Proksimal_munningsbar)"
4374.4 "6507_7-1" 109.2100 "Sandstone" "Clay"  -999.25   5.0000 95.00000     0.0 "clay"     "clay"     "Transgression"                                      "Proksimal_delta_front_(Proksimal_munningsbar)"
4374.5 "6507_7-1" 113.3500 "Sandstone" -999.25 -999.25 100.0000      0.0     0.0 "vc"       "vc"       "Transgression"                                      "Proksimal_delta_front_(Proksimal_munningsbar)"
4374.6 "6507_7-1" 122.0800 "Sandstone" -999.25 -999.25 100.0000      0.0     0.0 "vc"       "vc"       "Transgression"                                      "Proksimal_delta_front_(Proksimal_munningsbar)"
4374.7 "6507_7-1" 136.3200 "Sandstone" -999.25 -999.25 100.0000      0.0     0.0 "vc"       "vc"       "Transgression"                                      "Proksimal_delta_front_(Proksimal_munningsbar)"
4374.8 "6507_7-1" 149.8800 "Sandstone" -999.25 -999.25 100.0000      0.0     0.0 "vc"       "vc"       "Transgression"                                      "Proksimal_delta_front_(Proksimal_munningsbar)"
4374.9 "6507_7-1"  -999.25 "Sandstone" -999.25 -999.25 100.0000      0.0     0.0 "vc"       "vc"       "Transgression"                                      "Proksimal_delta_front_(Proksimal_munningsbar)"
4375.0 "6507_7-1"  -999.25 "Sandstone" -999.25 -999.25 100.0000      0.0     0.0 "vc"       "vc"       "Transgression"                                      "Proksimal_delta_front_(Proksimal_munningsbar)"
4375.1 "6507_7-1"  -999.25 "Sandstone" -999.25 -999.25 100.0000      0.0     0.0 "vc"       "vc"       "Transgression"                                      "Proksimal_delta_front_(Proksimal_munningsbar)"
4375.2 "6507_7-1"  -999.25 "Sandstone" -999.25 -999.25 100.0000      0.0     0.0 "vc"       "vc"       "Transgression"                                      "Proksimal_delta_front_(Proksimal_munningsbar)"
4375.3 "6507_7-1"  -999.25 -999.25   -999.25 -999.25  -999.25  -999.25 -999.25 -999.25    -999.25    -999.25                                              -999.25                                      
4375.4 "6507_7-1"  -999.25 -999.25   -999.25 -999.25  -999.25  -999.25 -999.25 -999.25    -999.25    -999.25                                              -999.25                                      
4375.5 "6507_7-1"  -999.25 -999.25   -999.25 -999.25  -999.25  -999.25 -999.25 -999.25    -999.25    -999.25                                              -999.25                                      
