~Version
VERS  .                                 3.0 : CWLS LAS ASCII Standard - Version 3.0
WRAP  . NO                                  : One line per depth step
DLM   . SPACE                               : Column data section delimiter
SOURCE. Converted to LAS by Log Studio 4.76 : GeoProvider

~Well
STRT.         3504.0 : Start depth
STOP.         4600.3 : Stop depth
STEP.              1 : Step
NULL.        -999.25 : No-value
COMP.                : Company
WELL. 6507/7-1       : Well
FLD .                : Field
LOC .                : Location
LATI.                : Latitude
LONG.                : Longitude
GDAT.                : Geodetic datum
CNTY.                : County
STAT.                : State
CTRY.                : Country
SRVC. GeoProvider AS : Service company
DATE.                : Date
API .                : API number
RUN .                : Run number

~Parameters
WellboreName.  : Wellbore name
RigName     .  : Rig name
StartDate   .  : Start date

~Curves
DEPTH.m            .  : null {F}Depth mMD
Hole_ID.-          .  : null {S}Hole ID
GR.API             .  : null {F}Gamma Ray
Lithology1.-       .  : null {S}Lithology 1
Lithology2.-       .  : null {S}Lithology 2
Lithology3.-       .  : null {S}Lithology 3
Lithology1.%       .  : null {F}Lithology 1 percentage
Lithology2.%       .  : null {F}Lithology 2 percentage
Lithology3.%       .  : null {F}Lithology 3 percentage
Grain_size_Top.-   .  : null {S}Grain size at the top 
Grain_size_Base.-  .  : null {S}Grain size at the bottom
Sub_Environment.-  .  : null {S}Sub Environment
Gross_Environment.-.  : null {S}Gross Environment

~Ascii
# ...
4363.8 "6507_7-1"  40.9000 "Sandstone" -999.25 -999.25 100.0000      0.0     0.0 "vc/granule" "vc/granule" "Ovre_strand_skraning/strand_"                       "Proksimal_delta_front_(Proksimal_munningsbar)"
4363.9 "6507_7-1"  41.2400 "Sandstone" -999.25 -999.25 100.0000      0.0     0.0 "vc/granule" "vc/granule" "Proksimal_munningsbanke_et_viftdelta"               "Proksimal_delta_front_(Proksimal_munningsbar)"
4364.0 "6507_7-1"  40.5700 "Sandstone" -999.25 -999.25 100.0000      0.0     0.0 "vc/granule" "vc/granule" "Proksimal_munningsbanke_et_viftdelta"               "Proksimal_delta_front_(Proksimal_munningsbar)"
4364.1 "6507_7-1"  40.0200 "Sandstone" -999.25 -999.25 100.0000      0.0     0.0 "vc/granule" "vc/granule" "Proksimal_munningsbanke_et_viftdelta"               "Proksimal_delta_front_(Proksimal_munningsbar)"
4364.2 "6507_7-1"  40.3100 "Sandstone" -999.25 -999.25 100.0000      0.0     0.0 "vc/granule" "vc/granule" "Proksimal_munningsbanke_et_viftdelta"               "Proksimal_delta_front_(Proksimal_munningsbar)"
4364.3 "6507_7-1"  40.6100 "Sandstone" -999.25 -999.25 100.0000      0.0     0.0 "vc/granule" "vc/granule" "Proksimal_munningsbanke_et_viftdelta"               "Proksimal_delta_front_(Proksimal_munningsbar)"
4364.4 "6507_7-1"  40.9000 "Sandstone" -999.25 -999.25 100.0000      0.0     0.0 "vc/granule" "vc/granule" "Proksimal_munningsbanke_et_viftdelta"               "Proksimal_delta_front_(Proksimal_munningsbar)"
4364.5 "6507_7-1"  40.8100 "Sandstone" -999.25 -999.25 100.0000      0.0     0.0 "vc/granule" "vc/granule" "Proksimal_munningsbanke_et_viftdelta"               "Proksimal_delta_front_(Proksimal_munningsbar)"
4364.6 "6507_7-1"  40.4200 "Sandstone" -999.25 -999.25 100.0000      0.0     0.0 "vc/granule" "vc/granule" "Proksimal_munningsbanke_et_viftdelta"               "Proksimal_delta_front_(Proksimal_munningsbar)"
4364.7 "6507_7-1"  39.7700 "Sandstone" -999.25 -999.25 100.0000      0.0     0.0 "vc/granule" "vc/granule" "Proksimal_munningsbanke_et_viftdelta"               "Proksimal_delta_front_(Proksimal_munningsbar)"
4364.8 "6507_7-1"  38.6000 "Sandstone" -999.25 -999.25 100.0000      0.0     0.0 "vc/granule" "vc/granule" "Proksimal_munningsbanke_et_viftdelta"               "Proksimal_delta_front_(Proksimal_munningsbar)"
4364.9 "6507_7-1"  37.8000 "Sandstone" -999.25 -999.25 100.0000      0.0     0.0 "vc/granule" "vc/granule" "Proksimal_munningsbanke_et_viftdelta"               "Proksimal_delta_front_(Proksimal_munningsbar)"
4365.0 "6507_7-1"  38.0700 "Sandstone" -999.25 -999.25 100.0000      0.0     0.0 "vc/granule" "vc/granule" "Proksimal_munningsbanke_et_viftdelta"               "Proksimal_delta_front_(Proksimal_munningsbar)"
4365.1 "6507_7-1"  38.5200 "Sandstone" -999.25 -999.25 100.0000      0.0     0.0 "vc/granule" "vc/granule" "Proksimal_munningsbanke_et_viftdelta"               "Proksimal_delta_front_(Proksimal_munningsbar)"
4365.2 "6507_7-1"  39.3200 "Sandstone" -999.25 -999.25 100.0000      0.0     0.0 "vc/granule" "vc/granule" "Proksimal_munningsbanke_et_viftdelta"               "Proksimal_delta_front_(Proksimal_munningsbar)"
4365.3 "6507_7-1"  40.1200 "Sandstone" -999.25 -999.25 100.0000      0.0     0.0 "vc/granule" "vc/granule" "Proksimal_munningsbanke_et_viftdelta"               "Proksimal_delta_front_(Proksimal_munningsbar)"
4365.4 "6507_7-1"  39.9500 "Sandstone" -999.25 -999.25 100.0000      0.0     0.0 "vc/granule" "vc/granule" "Proksimal_munningsbanke_et_viftdelta"               "Proksimal_delta_front_(Proksimal_munningsbar)"
4365.5 "6507_7-1"  39.7400 "Sandstone" -999.25 -999.25 100.0000      0.0     0.0 "vc/granule" "vc/granule" "Proksimal_munningsbanke_et_viftdelta"               "Proksimal_delta_front_(Proksimal_munningsbar)"
4365.6 "6507_7-1"  39.5200 "Sandstone" -999.25 -999.25 100.0000      0.0     0.0 "vc/granule" "vc/granule" "Proksimal_munningsbanke_et_viftdelta"               "Proksimal_delta_front_(Proksimal_munningsbar)"
4365.7 "6507_7-1"  39.3000 "Sandstone" -999.25 -999.25 100.0000      0.0     0.0 "vc/granule" "vc/granule" "Proksimal_munningsbanke_et_viftdelta"               "Proksimal_delta_front_(Proksimal_munningsbar)"
4365.8 "6507_7-1"  39.5300 "Sandstone" -999.25 -999.25 100.0000      0.0     0.0 "vc/granule" "vc/granule" "Proksimal_munningsbanke_et_viftdelta"               "Proksimal_delta_front_(Proksimal_munningsbar)"
4365.9 "6507_7-1"  39.7800 "Sandstone" -999.25 -999.25 100.0000      0.0     0.0 "vc/granule" "vc/granule" "Proksimal_munningsbanke_et_viftdelta"               "Proksimal_delta_front_(Proksimal_munningsbar)"
4366.0 "6507_7-1"  41.0300 "Sandstone" -999.25 -999.25 100.0000      0.0     0.0 "vc/granule" "vc/granule" "Proksimal_munningsbanke_et_viftdelta"               "Proksimal_delta_front_(Proksimal_munningsbar)"
4366.1 "6507_7-1"  43.0800 "Sandstone" -999.25 -999.25 100.0000      0.0     0.0 "vc/granule" "vc/granule" "Proksimal_munningsbanke_et_viftdelta"               "Proksimal_delta_front_(Proksimal_munningsbar)"
4366.2 "6507_7-1"  46.1600 "Sandstone" -999.25 -999.25 100.0000      0.0     0.0 "vc/granule" "vc/granule" "Proksimal_munningsbanke_et_viftdelta"               "Proksimal_delta_front_(Proksimal_munningsbar)"
4366.3 "6507_7-1"  47.4500 "Sandstone" -999.25 -999.25 100.0000      0.0     0.0 "vc/granule" "vc/granule" "Proksimal_munningsbanke_et_viftdelta"               "Proksimal_delta_front_(Proksimal_munningsbar)"
4366.4 "6507_7-1"  48.1500 "Sandstone" -999.25 -999.25 100.0000      0.0     0.0 "vc/granule" "vc/granule" "Proksimal_munningsbanke_et_viftdelta"               "Proksimal_delta_front_(Proksimal_munningsbar)"
4366.5 "6507_7-1"  48.8500 "Sandstone" -999.25 -999.25 100.0000      0.0     0.0 "vc/granule" "vc/granule" "Proksimal_munningsbanke_et_viftdelta"               "Proksimal_delta_front_(Proksimal_munningsbar)"
4366.6 "6507_7-1"  49.7600 "Sandstone" -999.25 -999.25 100.0000      0.0     0.0 "vc/granule" "vc/granule" "Proksimal_munningsbanke_et_viftdelta"               "Proksimal_delta_front_(Proksimal_munningsbar)"
4366.7 "6507_7-1"  50.7400 "Sandstone" -999.25 -999.25 100.0000      0.0     0.0 "vc/granule" "vc/granule" "Proksimal_munningsbanke_et_viftdelta"               "Proksimal_delta_front_(Proksimal_munningsbar)"
4366.8 "6507_7-1"  53.0200 "Sandstone" -999.25 -999.25 100.0000      0.0     0.0 "vc/granule" "vc/granule" "Proksimal_munningsbanke_et_viftdelta"               "Proksimal_delta_front_(Proksimal_munningsbar)"
4366.9 "6507_7-1"  55.3000 "Sandstone" -999.25 -999.25 100.0000      0.0     0.0 "vc/granule" "vc/granule" "Proksimal_munningsbanke_et_viftdelta"               "Proksimal_delta_front_(Proksimal_munningsbar)"
4367.0 "6507_7-1"  57.5100 "Sandstone" -999.25 -999.25 100.0000      0.0     0.0 "vc/granule" "vc/granule" "Proksimal_munningsbanke_et_viftdelta"               "Proksimal_delta_front_(Proksimal_munningsbar)"
4367.1 "6507_7-1"  58.0400 "Sandstone" -999.25 -999.25 100.0000      0.0     0.0 "vc/granule" "vc/granule" "Proksimal_munningsbanke_et_viftdelta"               "Proksimal_delta_front_(Proksimal_munningsbar)"
4367.2 "6507_7-1"  57.8300 "Sandstone" -999.25 -999.25 100.0000      0.0     0.0 "vc/granule" "vc/granule" "Proksimal_munningsbanke_et_viftdelta"               "Proksimal_delta_front_(Proksimal_munningsbar)"
4367.3 "6507_7-1"  54.4200 "Sandstone" -999.25 -999.25 100.0000      0.0     0.0 "vc/granule" "vc/granule" "Proksimal_munningsbanke_et_viftdelta"               "Proksimal_delta_front_(Proksimal_munningsbar)"
4367.4 "6507_7-1"  50.2100 "Sandstone" -999.25 -999.25 100.0000      0.0     0.0 "vc/granule" "vc/granule" "Proksimal_munningsbanke_et_viftdelta"               "Proksimal_delta_front_(Proksimal_munningsbar)"
4367.5 "6507_7-1"  50.0900 "Sandstone" -999.25 -999.25 100.0000      0.0     0.0 "vc/granule" "vc/granule" "Proksimal_munningsbanke_et_viftdelta"               "Proksimal_delta_front_(Proksimal_munningsbar)"
4367.6 "6507_7-1"  51.4200 "Sandstone" -999.25 -999.25 100.0000      0.0     0.0 "vc/granule" "vc/granule" "Proksimal_munningsbanke_et_viftdelta"               "Proksimal_delta_front_(Proksimal_munningsbar)"
