~Version
VERS  .                                 3.0 : CWLS LAS ASCII Standard - Version 3.0
WRAP  . NO                                  : One line per depth step
DLM   . SPACE                               : Column data section delimiter
SOURCE. Converted to LAS by Log Studio 4.76 : GeoProvider

~Well
STRT.         3504.0 : Start depth
STOP.         4600.3 : Stop depth
STEP.              1 : Step
NULL.        -999.25 : No-value
COMP.                : Company
WELL. 6507/7-1       : Well
FLD .                : Field
LOC .                : Location
LATI.                : Latitude
LONG.                : Longitude
GDAT.                : Geodetic datum
CNTY.                : County
STAT.                : State
CTRY.                : Country
SRVC. GeoProvider AS : Service company
DATE.                : Date
API .                : API number
RUN .                : Run number

~Parameters
WellboreName.  : Wellbore name
RigName     .  : Rig name
StartDate   .  : Start date

~Curves
DEPTH.m            .  : null {F}Depth mMD
Hole_ID.-          .  : null {S}Hole ID
GR.API             .  : null {F}Gamma Ray
Lithology1.-       .  : null {S}Lithology 1
Lithology2.-       .  : null {S}Lithology 2
Lithology3.-       .  : null {S}Lithology 3
Lithology1.%       .  : null {F}Lithology 1 percentage
Lithology2.%       .  : null {F}Lithology 2 percentage
Lithology3.%       .  : null {F}Lithology 3 percentage
Grain_size_Top.-   .  : null {S}Grain size at the top 
Grain_size_Base.-  .  : null {S}Grain size at the bottom
Sub_Environment.-  .  : null {S}Sub Environment
Gross_Environment.-.  : null {S}Gross Environment

~Ascii
# ...
4343.9 "6507_7-1"  40.4100 "Sandstone" -999.25 -999.25 100.0000      0.0     0.0 "c/vc"     "c/vc"     "Ovre_strand_skraning/strand"                        "Proksimal_delta_front_(Proksimal_munningsbar)"
4344.0 "6507_7-1"  40.9200 "Sandstone" -999.25 -999.25 100.0000      0.0     0.0 "c/vc"     "c/vc"     "Ovre_strand_skraning/strand"                        "Proksimal_delta_front_(Proksimal_munningsbar)"
4344.1 "6507_7-1"  42.1400 "Sandstone" -999.25 -999.25 100.0000      0.0     0.0 "c/vc"     "c/vc"     "Ovre_strand_skraning/strand"                        "Proksimal_delta_front_(Proksimal_munningsbar)"
4344.2 "6507_7-1"  43.3600 "Sandstone" -999.25 -999.25 100.0000      0.0     0.0 "c/vc"     "c/vc"     "Ovre_strand_skraning/strand"                        "Proksimal_delta_front_(Proksimal_munningsbar)"
4344.3 "6507_7-1"  44.7300 "Sandstone" -999.25 -999.25 100.0000      0.0     0.0 "c/vc"     "c/vc"     "Ovre_strand_skraning/strand"                        "Proksimal_delta_front_(Proksimal_munningsbar)"
4344.4 "6507_7-1"  46.6400 "Sandstone" -999.25 -999.25 100.0000      0.0     0.0 "c/vc"     "c/vc"     "Ovre_strand_skraning/strand"                        "Proksimal_delta_front_(Proksimal_munningsbar)"
4344.5 "6507_7-1"  48.5500 "Sandstone" -999.25 -999.25 100.0000      0.0     0.0 "c/vc"     "c/vc"     "Ovre_strand_skraning/strand"                        "Proksimal_delta_front_(Proksimal_munningsbar)"
4344.6 "6507_7-1"  50.4600 "Sandstone" -999.25 -999.25 100.0000      0.0     0.0 "c/vc"     "c/vc"     "Ovre_strand_skraning/strand"                        "Proksimal_delta_front_(Proksimal_munningsbar)"
4344.7 "6507_7-1"  50.4900 "Sandstone" -999.25 -999.25 100.0000      0.0     0.0 "c/vc"     "c/vc"     "Ovre_strand_skraning/strand"                        "Proksimal_delta_front_(Proksimal_munningsbar)"
4344.8 "6507_7-1"  50.4200 "Sandstone" -999.25 -999.25 100.0000      0.0     0.0 "c/vc"     "c/vc"     "Ovre_strand_skraning/strand"                        "Proksimal_delta_front_(Proksimal_munningsbar)"
4344.9 "6507_7-1"  49.7200 "Sandstone" -999.25 -999.25 100.0000      0.0     0.0 "c/vc"     "c/vc"     "Ovre_strand_skraning/strand"                        "Proksimal_delta_front_(Proksimal_munningsbar)"
4345.0 "6507_7-1"  48.5500 "Sandstone" -999.25 -999.25 100.0000      0.0     0.0 "c/vc"     "c/vc"     "Ovre_strand_skraning/strand"                        "Proksimal_delta_front_(Proksimal_munningsbar)"
4345.1 "6507_7-1"  47.3800 "Sandstone" -999.25 -999.25 100.0000      0.0     0.0 "c/vc"     "c/vc"     "Ovre_strand_skraning/strand"                        "Proksimal_delta_front_(Proksimal_munningsbar)"
4345.2 "6507_7-1"  46.2100 "Sandstone" -999.25 -999.25 100.0000      0.0     0.0 "c/vc"     "c/vc"     "Ovre_strand_skraning/strand"                        "Proksimal_delta_front_(Proksimal_munningsbar)"
4345.3 "6507_7-1"  45.0400 "Sandstone" -999.25 -999.25 100.0000      0.0     0.0 "c/vc"     "c/vc"     "Ovre_strand_skraning/strand"                        "Proksimal_delta_front_(Proksimal_munningsbar)"
4345.4 "6507_7-1"  43.8800 "Sandstone" -999.25 -999.25 100.0000      0.0     0.0 "c/vc"     "c/vc"     "Ovre_strand_skraning/strand"                        "Proksimal_delta_front_(Proksimal_munningsbar)"
4345.5 "6507_7-1"  42.7100 "Sandstone" -999.25 -999.25 100.0000      0.0     0.0 "c/vc"     "c/vc"     "Ovre_strand_skraning/strand"                        "Proksimal_delta_front_(Proksimal_munningsbar)"
4345.6 "6507_7-1"  41.5400 "Sandstone" -999.25 -999.25 100.0000      0.0     0.0 "c/vc"     "c/vc"     "Ovre_strand_skraning/strand"                        "Proksimal_delta_front_(Proksimal_munningsbar)"
4345.7 "6507_7-1"  41.2000 "Sandstone" -999.25 -999.25 100.0000      0.0     0.0 "c/vc"     "c/vc"     "Ovre_strand_skraning/strand"                        "Proksimal_delta_front_(Proksimal_munningsbar)"
4345.8 "6507_7-1"  41.5100 "Sandstone" -999.25 -999.25 100.0000      0.0     0.0 "c/vc"     "c/vc"     "Ovre_strand_skraning/strand"                        "Proksimal_delta_front_(Proksimal_munningsbar)"
4345.9 "6507_7-1"  41.8100 "Sandstone" -999.25 -999.25 100.0000      0.0     0.0 "c/vc"     "c/vc"     "Ovre_strand_skraning/strand"                        "Proksimal_delta_front_(Proksimal_munningsbar)"
4346.0 "6507_7-1"  41.8900 "Sandstone" -999.25 -999.25 100.0000      0.0     0.0 "c/vc"     "c/vc"     "Ovre_strand_skraning/strand"                        "Proksimal_delta_front_(Proksimal_munningsbar)"
4346.1 "6507_7-1"  41.8900 "Sandstone" -999.25 -999.25 100.0000      0.0     0.0 "c/vc"     "c/vc"     "Ovre_strand_skraning/strand"                        "Proksimal_delta_front_(Proksimal_munningsbar)"
4346.2 "6507_7-1"  41.2700 "Sandstone" -999.25 -999.25 100.0000      0.0     0.0 "c/vc"     "c/vc"     "Ovre_strand_skraning/strand"                        "Proksimal_delta_front_(Proksimal_munningsbar)"
4346.3 "6507_7-1"  40.3400 "Sandstone" -999.25 -999.25 100.0000      0.0     0.0 "c/vc"     "c/vc"     "Ovre_strand_skraning/strand"                        "Proksimal_delta_front_(Proksimal_munningsbar)"
4346.4 "6507_7-1"  39.4000 "Sandstone" -999.25 -999.25 100.0000      0.0     0.0 "c/vc"     "c/vc"     "Ovre_strand_skraning/strand"                        "Proksimal_delta_front_(Proksimal_munningsbar)"
4346.5 "6507_7-1"  39.0400 "Sandstone" -999.25 -999.25 100.0000      0.0     0.0 "c/vc"     "c/vc"     "Ovre_strand_skraning/strand"                        "Proksimal_delta_front_(Proksimal_munningsbar)"
4346.6 "6507_7-1"  39.2700 "Sandstone" -999.25 -999.25 100.0000      0.0     0.0 "c/vc"     "c/vc"     "Ovre_strand_skraning/strand"                        "Proksimal_delta_front_(Proksimal_munningsbar)"
4346.7 "6507_7-1"  40.8000 "Sandstone" -999.25 -999.25 100.0000      0.0     0.0 "c/vc"     "c/vc"     "Ovre_strand_skraning/strand"                        "Proksimal_delta_front_(Proksimal_munningsbar)"
4346.8 "6507_7-1"  42.1000 "Sandstone" -999.25 -999.25 100.0000      0.0     0.0 "c/vc"     "c/vc"     "Ovre_strand_skraning/strand"                        "Proksimal_delta_front_(Proksimal_munningsbar)"
4346.9 "6507_7-1"  42.8100 "Sandstone" -999.25 -999.25 100.0000      0.0     0.0 "c/vc"     "c/vc"     "Ovre_strand_skraning/strand"                        "Proksimal_delta_front_(Proksimal_munningsbar)"
4347.0 "6507_7-1"  43.5200 "Sandstone" -999.25 -999.25 100.0000      0.0     0.0 "c/vc"     "c/vc"     "Ovre_strand_skraning/strand"                        "Proksimal_delta_front_(Proksimal_munningsbar)"
4347.1 "6507_7-1"  43.6000 "Sandstone" -999.25 -999.25 100.0000      0.0     0.0 "c/vc"     "c/vc"     "Ovre_strand_skraning/strand"                        "Proksimal_delta_front_(Proksimal_munningsbar)"
4347.2 "6507_7-1"  43.2600 "Sandstone" -999.25 -999.25 100.0000      0.0     0.0 "c/vc"     "c/vc"     "Ovre_strand_skraning/strand"                        "Proksimal_delta_front_(Proksimal_munningsbar)"
4347.3 "6507_7-1"  42.5200 "Sandstone" -999.25 -999.25 100.0000      0.0     0.0 "c/vc"     "c/vc"     "Ovre_strand_skraning/strand"                        "Proksimal_delta_front_(Proksimal_munningsbar)"
4347.4 "6507_7-1"  41.4400 "Sandstone" -999.25 -999.25 100.0000      0.0     0.0 "c/vc"     "c/vc"     "Ovre_strand_skraning/strand"                        "Proksimal_delta_front_(Proksimal_munningsbar)"
4347.5 "6507_7-1"  40.3500 "Sandstone" -999.25 -999.25 100.0000      0.0     0.0 "c/vc"     "c/vc"     "Ovre_strand_skraning/strand"                        "Proksimal_delta_front_(Proksimal_munningsbar)"
4347.6 "6507_7-1"  39.2600 "Sandstone" -999.25 -999.25 100.0000      0.0     0.0 "c/vc"     "c/vc"     "Ovre_strand_skraning/strand"                        "Proksimal_delta_front_(Proksimal_munningsbar)"
4347.7 "6507_7-1"  38.2600 "Sandstone" -999.25 -999.25 100.0000      0.0     0.0 "c/vc"     "c/vc"     "Ovre_strand_skraning/strand"                        "Proksimal_delta_front_(Proksimal_munningsbar)"
4347.8 "6507_7-1"  37.5600 "Sandstone" -999.25 -999.25 100.0000      0.0     0.0 "c/vc"     "c/vc"     "Ovre_strand_skraning/strand"                        "Proksimal_delta_front_(Proksimal_munningsbar)"
