~Version
VERS  .                                 3.0 : CWLS LAS ASCII Standard - Version 3.0
WRAP  . NO                                  : One line per depth step
DLM   . SPACE                               : Column data section delimiter
SOURCE. Converted to LAS by Log Studio 4.76 : GeoProvider

~Well
STRT.         3504.0 : Start depth
STOP.         4600.3 : Stop depth
STEP.              1 : Step
NULL.        -999.25 : No-value
COMP.                : Company
WELL. 6507/7-1       : Well
FLD .                : Field
LOC .                : Location
LATI.                : Latitude
LONG.                : Longitude
GDAT.                : Geodetic datum
CNTY.                : County
STAT.                : State
CTRY.                : Country
SRVC. GeoProvider AS : Service company
DATE.                : Date
API .                : API number
RUN .                : Run number

~Parameters
WellboreName.  : Wellbore name
RigName     .  : Rig name
StartDate   .  : Start date

~Curves
DEPTH.m            .  : null {F}Depth mMD
Hole_ID.-          .  : null {S}Hole ID
GR.API             .  : null {F}Gamma Ray
Lithology1.-       .  : null {S}Lithology 1
Lithology2.-       .  : null {S}Lithology 2
Lithology3.-       .  : null {S}Lithology 3
Lithology1.%       .  : null {F}Lithology 1 percentage
Lithology2.%       .  : null {F}Lithology 2 percentage
Lithology3.%       .  : null {F}Lithology 3 percentage
Grain_size_Top.-   .  : null {S}Grain size at the top 
Grain_size_Base.-  .  : null {S}Grain size at the bottom
Sub_Environment.-  .  : null {S}Sub Environment
Gross_Environment.-.  : null {S}Gross Environment

~Ascii
# ...
4339.9 "6507_7-1"  -999.25 -999.25   -999.25 -999.25  -999.25  -999.25 -999.25 -999.25    -999.25    -999.25                                              -999.25                                      
4340.0 "6507_7-1"  -999.25 "Sandstone" "Shale" -999.25  30.0000 70.00000     0.0 "vf/f"     "vf/f"     "Transgression"                                      "Proksimal_delta_front_(Proksimal_munningsbar)"
4340.1 "6507_7-1"  -999.25 "Sandstone" "Shale" -999.25  30.0000 70.00000     0.0 "vf/f"     "vf/f"     "Transgression"                                      "Proksimal_delta_front_(Proksimal_munningsbar)"
4340.2 "6507_7-1"  -999.25 "Sandstone" "Shale" -999.25  30.0000 70.00000     0.0 "vf/f"     "vf/f"     "Transgression"                                      "Proksimal_delta_front_(Proksimal_munningsbar)"
4340.3 "6507_7-1"  -999.25 "Sandstone" "Shale" -999.25  30.0000 70.00000     0.0 "vf/f"     "vf/f"     "Transgression"                                      "Proksimal_delta_front_(Proksimal_munningsbar)"
4340.4 "6507_7-1"  -999.25 "Sandstone" -999.25 -999.25 100.0000      0.0     0.0 "vc"       "vc"       "Transgression"                                      "Proksimal_delta_front_(Proksimal_munningsbar)"
4340.5 "6507_7-1"  -999.25 "Sandstone" -999.25 -999.25 100.0000      0.0     0.0 "vc"       "vc"       "Transgression"                                      "Proksimal_delta_front_(Proksimal_munningsbar)"
4340.6 "6507_7-1"  -999.25 "Sandstone" -999.25 -999.25 100.0000      0.0     0.0 "vc"       "vc"       "Transgression"                                      "Proksimal_delta_front_(Proksimal_munningsbar)"
4340.7 "6507_7-1"  -999.25 "Sandstone" -999.25 -999.25 100.0000      0.0     0.0 "vc"       "vc"       "Transgression"                                      "Proksimal_delta_front_(Proksimal_munningsbar)"
4340.8 "6507_7-1"  -999.25 "Sandstone" -999.25 -999.25 100.0000      0.0     0.0 "vc"       "vc"       "Transgression"                                      "Proksimal_delta_front_(Proksimal_munningsbar)"
4340.9 "6507_7-1"  -999.25 "Sandstone" -999.25 -999.25 100.0000      0.0     0.0 "vc"       "vc"       "Transgression"                                      "Proksimal_delta_front_(Proksimal_munningsbar)"
4341.0 "6507_7-1"  -999.25 "Sandstone" -999.25 -999.25 100.0000      0.0     0.0 "vc"       "vc"       "Transgression"                                      "Proksimal_delta_front_(Proksimal_munningsbar)"
4341.1 "6507_7-1"  -999.25 "Sandstone" -999.25 -999.25 100.0000      0.0     0.0 "vc"       "vc"       "Ovre_strand_skraning/strand"                        "Proksimal_delta_front_(Proksimal_munningsbar)"
4341.2 "6507_7-1"  -999.25 "Sandstone" -999.25 -999.25 100.0000      0.0     0.0 "vc"       "vc"       "Ovre_strand_skraning/strand"                        "Proksimal_delta_front_(Proksimal_munningsbar)"
4341.3 "6507_7-1"  -999.25 "Sandstone" -999.25 -999.25 100.0000      0.0     0.0 "vc"       "vc"       "Ovre_strand_skraning/strand"                        "Proksimal_delta_front_(Proksimal_munningsbar)"
4341.4 "6507_7-1"  -999.25 "Sandstone" -999.25 -999.25 100.0000      0.0     0.0 "vc"       "vc"       "Ovre_strand_skraning/strand"                        "Proksimal_delta_front_(Proksimal_munningsbar)"
4341.5 "6507_7-1"  65.0400 "Sandstone" -999.25 -999.25 100.0000      0.0     0.0 "vc"       "vc"       "Ovre_strand_skraning/strand"                        "Proksimal_delta_front_(Proksimal_munningsbar)"
4341.6 "6507_7-1"  64.0700 "Sandstone" -999.25 -999.25 100.0000      0.0     0.0 "vc"       "vc"       "Ovre_strand_skraning/strand"                        "Proksimal_delta_front_(Proksimal_munningsbar)"
4341.7 "6507_7-1"  60.2200 "Sandstone" -999.25 -999.25 100.0000      0.0     0.0 "vc"       "vc"       "Ovre_strand_skraning/strand"                        "Proksimal_delta_front_(Proksimal_munningsbar)"
4341.8 "6507_7-1"  54.3300 "Sandstone" -999.25 -999.25 100.0000      0.0     0.0 "vc"       "vc"       "Ovre_strand_skraning/strand"                        "Proksimal_delta_front_(Proksimal_munningsbar)"
4341.9 "6507_7-1"  51.1900 "Sandstone" -999.25 -999.25 100.0000      0.0     0.0 "vc"       "vc"       "Ovre_strand_skraning/strand"                        "Proksimal_delta_front_(Proksimal_munningsbar)"
4342.0 "6507_7-1"  48.0500 "Sandstone" -999.25 -999.25 100.0000      0.0     0.0 "vc"       "vc"       "Ovre_strand_skraning/strand"                        "Proksimal_delta_front_(Proksimal_munningsbar)"
4342.1 "6507_7-1"  47.4500 "Sandstone" -999.25 -999.25 100.0000      0.0     0.0 "vc"       "vc"       "Ovre_strand_skraning/strand"                        "Proksimal_delta_front_(Proksimal_munningsbar)"
4342.2 "6507_7-1"  47.0900 "Sandstone" -999.25 -999.25 100.0000      0.0     0.0 "vc"       "vc"       "Ovre_strand_skraning/strand"                        "Proksimal_delta_front_(Proksimal_munningsbar)"
4342.3 "6507_7-1"  46.1200 "Sandstone" -999.25 -999.25 100.0000      0.0     0.0 "vc"       "vc"       "Ovre_strand_skraning/strand"                        "Proksimal_delta_front_(Proksimal_munningsbar)"
4342.4 "6507_7-1"  44.6400 "Sandstone" -999.25 -999.25 100.0000      0.0     0.0 "vc"       "vc"       "Ovre_strand_skraning/strand"                        "Proksimal_delta_front_(Proksimal_munningsbar)"
4342.5 "6507_7-1"  42.9500 "Sandstone" -999.25 -999.25 100.0000      0.0     0.0 "vc"       "vc"       "Ovre_strand_skraning/strand"                        "Proksimal_delta_front_(Proksimal_munningsbar)"
4342.6 "6507_7-1"  40.8100 "Sandstone" -999.25 -999.25 100.0000      0.0     0.0 "vc"       "vc"       "Ovre_strand_skraning/strand"                        "Proksimal_delta_front_(Proksimal_munningsbar)"
4342.7 "6507_7-1"  39.7000 "Sandstone" -999.25 -999.25 100.0000      0.0     0.0 "vc"       "vc"       "Ovre_strand_skraning/strand"                        "Proksimal_delta_front_(Proksimal_munningsbar)"
4342.8 "6507_7-1"  39.4900 "Sandstone" -999.25 -999.25 100.0000      0.0     0.0 "vc"       "vc"       "Ovre_strand_skraning/strand"                        "Proksimal_delta_front_(Proksimal_munningsbar)"
4342.9 "6507_7-1"  40.2700 "Sandstone" -999.25 -999.25 100.0000      0.0     0.0 "vc"       "vc"       "Ovre_strand_skraning/strand"                        "Proksimal_delta_front_(Proksimal_munningsbar)"
4343.0 "6507_7-1"  41.1600 "Sandstone" -999.25 -999.25 100.0000      0.0     0.0 "vc"       "vc"       "Ovre_strand_skraning/strand"                        "Proksimal_delta_front_(Proksimal_munningsbar)"
4343.1 "6507_7-1"  42.0500 "Sandstone" -999.25 -999.25 100.0000      0.0     0.0 "vc"       "vc"       "Ovre_strand_skraning/strand"                        "Proksimal_delta_front_(Proksimal_munningsbar)"
4343.2 "6507_7-1"  42.6400 "Sandstone" -999.25 -999.25 100.0000      0.0     0.0 "c/vc"     "c/vc"     "Ovre_strand_skraning/strand"                        "Proksimal_delta_front_(Proksimal_munningsbar)"
4343.3 "6507_7-1"  43.1500 "Sandstone" -999.25 -999.25 100.0000      0.0     0.0 "c/vc"     "c/vc"     "Ovre_strand_skraning/strand"                        "Proksimal_delta_front_(Proksimal_munningsbar)"
4343.4 "6507_7-1"  43.3100 "Sandstone" -999.25 -999.25 100.0000      0.0     0.0 "c/vc"     "c/vc"     "Ovre_strand_skraning/strand"                        "Proksimal_delta_front_(Proksimal_munningsbar)"
4343.5 "6507_7-1"  42.9500 "Sandstone" -999.25 -999.25 100.0000      0.0     0.0 "c/vc"     "c/vc"     "Ovre_strand_skraning/strand"                        "Proksimal_delta_front_(Proksimal_munningsbar)"
4343.6 "6507_7-1"  42.3700 "Sandstone" -999.25 -999.25 100.0000      0.0     0.0 "c/vc"     "c/vc"     "Ovre_strand_skraning/strand"                        "Proksimal_delta_front_(Proksimal_munningsbar)"
4343.7 "6507_7-1"  41.5700 "Sandstone" -999.25 -999.25 100.0000      0.0     0.0 "c/vc"     "c/vc"     "Ovre_strand_skraning/strand"                        "Proksimal_delta_front_(Proksimal_munningsbar)"
4343.8 "6507_7-1"  40.7800 "Sandstone" -999.25 -999.25 100.0000      0.0     0.0 "c/vc"     "c/vc"     "Ovre_strand_skraning/strand"                        "Proksimal_delta_front_(Proksimal_munningsbar)"
