~Version
VERS  .                                 3.0 : CWLS LAS ASCII Standard - Version 3.0
WRAP  . NO                                  : One line per depth step
DLM   . SPACE                               : Column data section delimiter
SOURCE. Converted to LAS by Log Studio 4.76 : GeoProvider

~Well
STRT.         3504.0 : Start depth
STOP.         4600.3 : Stop depth
STEP.              1 : Step
NULL.        -999.25 : No-value
COMP.                : Company
WELL. 6507/7-1       : Well
FLD .                : Field
LOC .                : Location
LATI.                : Latitude
LONG.                : Longitude
GDAT.                : Geodetic datum
CNTY.                : County
STAT.                : State
CTRY.                : Country
SRVC. GeoProvider AS : Service company
DATE.                : Date
API .                : API number
RUN .                : Run number

~Parameters
WellboreName.  : Wellbore name
RigName     .  : Rig name
StartDate   .  : Start date

~Curves
DEPTH.m            .  : null {F}Depth mMD
Hole_ID.-          .  : null {S}Hole ID
GR.API             .  : null {F}Gamma Ray
Lithology1.-       .  : null {S}Lithology 1
Lithology2.-       .  : null {S}Lithology 2
Lithology3.-       .  : null {S}Lithology 3
Lithology1.%       .  : null {F}Lithology 1 percentage
Lithology2.%       .  : null {F}Lithology 2 percentage
Lithology3.%       .  : null {F}Lithology 3 percentage
Grain_size_Top.-   .  : null {S}Grain size at the top 
Grain_size_Base.-  .  : null {S}Grain size at the bottom
Sub_Environment.-  .  : null {S}Sub Environment
Gross_Environment.-.  : null {S}Gross Environment

~Ascii
# ...
4367.7 "6507_7-1"  56.4300 "Sandstone" -999.25 -999.25 100.0000      0.0     0.0 "vc/granule" "vc/granule" "Proksimal_munningsbanke_et_viftdelta"               "Proksimal_delta_front_(Proksimal_munningsbar)"
4367.8 "6507_7-1"  62.7400 "Sandstone" -999.25 -999.25 100.0000      0.0     0.0 "vc/granule" "vc/granule" "Proksimal_munningsbanke_et_viftdelta"               "Proksimal_delta_front_(Proksimal_munningsbar)"
4367.9 "6507_7-1"  69.0500 "Sandstone" -999.25 -999.25 100.0000      0.0     0.0 "vc/granule" "vc/granule" "Proksimal_munningsbanke_et_viftdelta"               "Proksimal_delta_front_(Proksimal_munningsbar)"
4368.0 "6507_7-1"  72.1400 "Sandstone" -999.25 -999.25 100.0000      0.0     0.0 "vc/granule" "vc/granule" "Proksimal_munningsbanke_et_viftdelta"               "Proksimal_delta_front_(Proksimal_munningsbar)"
4368.1 "6507_7-1"  73.5800 "Sandstone" -999.25 -999.25 100.0000      0.0     0.0 "vc/granule" "vc/granule" "Proksimal_munningsbanke_et_viftdelta"               "Proksimal_delta_front_(Proksimal_munningsbar)"
4368.2 "6507_7-1"  73.6500 "Sandstone" -999.25 -999.25 100.0000      0.0     0.0 "vc/granule" "vc/granule" "Proksimal_munningsbanke_et_viftdelta"               "Proksimal_delta_front_(Proksimal_munningsbar)"
4368.3 "6507_7-1"  70.7300 "Sandstone" -999.25 -999.25 100.0000      0.0     0.0 "vc/granule" "vc/granule" "Proksimal_munningsbanke_et_viftdelta"               "Proksimal_delta_front_(Proksimal_munningsbar)"
4368.4 "6507_7-1"  58.5000 "Sandstone" -999.25 -999.25 100.0000      0.0     0.0 "vc/granule" "vc/granule" "Proksimal_munningsbanke_et_viftdelta"               "Proksimal_delta_front_(Proksimal_munningsbar)"
4368.5 "6507_7-1"  49.8500 "Sandstone" -999.25 -999.25 100.0000      0.0     0.0 "vc/granule" "vc/granule" "Proksimal_munningsbanke_et_viftdelta"               "Proksimal_delta_front_(Proksimal_munningsbar)"
4368.6 "6507_7-1"  48.2900 "Sandstone" -999.25 -999.25 100.0000      0.0     0.0 "vc/granule" "vc/granule" "Proksimal_munningsbanke_et_viftdelta"               "Proksimal_delta_front_(Proksimal_munningsbar)"
4368.7 "6507_7-1"  46.5500 "Sandstone" -999.25 -999.25 100.0000      0.0     0.0 "vc/granule" "vc/granule" "Proksimal_munningsbanke_et_viftdelta"               "Proksimal_delta_front_(Proksimal_munningsbar)"
4368.8 "6507_7-1"  44.5900 "Sandstone" -999.25 -999.25 100.0000      0.0     0.0 "vc/granule" "vc/granule" "Proksimal_munningsbanke_et_viftdelta"               "Proksimal_delta_front_(Proksimal_munningsbar)"
4368.9 "6507_7-1"  41.5200 "Sandstone" -999.25 -999.25 100.0000      0.0     0.0 "c/vc"     "c/vc"     "Proksimal_munningsbanke_et_viftdelta"               "Proksimal_delta_front_(Proksimal_munningsbar)"
4369.0 "6507_7-1"  40.5100 "Sandstone" -999.25 -999.25 100.0000      0.0     0.0 "c/vc"     "c/vc"     "Proksimal_munningsbanke_et_viftdelta"               "Proksimal_delta_front_(Proksimal_munningsbar)"
4369.1 "6507_7-1"  40.7000 "Sandstone" -999.25 -999.25 100.0000      0.0     0.0 "c/vc"     "c/vc"     "Proksimal_munningsbanke_et_viftdelta"               "Proksimal_delta_front_(Proksimal_munningsbar)"
4369.2 "6507_7-1"  41.5700 "Sandstone" -999.25 -999.25 100.0000      0.0     0.0 "c/vc"     "c/vc"     "Proksimal_munningsbanke_et_viftdelta"               "Proksimal_delta_front_(Proksimal_munningsbar)"
4369.3 "6507_7-1"  44.7500 "Sandstone" -999.25 -999.25 100.0000      0.0     0.0 "c/vc"     "c/vc"     "Proksimal_munningsbanke_et_viftdelta"               "Proksimal_delta_front_(Proksimal_munningsbar)"
4369.4 "6507_7-1"  46.7900 "Sandstone" -999.25 -999.25 100.0000      0.0     0.0 "c/vc"     "c/vc"     "Proksimal_munningsbanke_et_viftdelta"               "Proksimal_delta_front_(Proksimal_munningsbar)"
4369.5 "6507_7-1"  48.0400 "Sandstone" -999.25 -999.25 100.0000      0.0     0.0 "c/vc"     "c/vc"     "Proksimal_munningsbanke_et_viftdelta"               "Proksimal_delta_front_(Proksimal_munningsbar)"
4369.6 "6507_7-1"  48.8600 "Sandstone" -999.25 -999.25 100.0000      0.0     0.0 "c/vc"     "c/vc"     "Proksimal_munningsbanke_et_viftdelta"               "Proksimal_delta_front_(Proksimal_munningsbar)"
4369.7 "6507_7-1"  48.9400 "Sandstone" -999.25 -999.25 100.0000      0.0     0.0 "c/vc"     "c/vc"     "Proksimal_munningsbanke_et_viftdelta"               "Proksimal_delta_front_(Proksimal_munningsbar)"
4369.8 "6507_7-1"  48.9200 "Sandstone" -999.25 -999.25 100.0000      0.0     0.0 "vc"       "vc"       "Proksimal_munningsbanke_et_viftdelta"               "Proksimal_delta_front_(Proksimal_munningsbar)"
4369.9 "6507_7-1"  48.7700 "Sandstone" -999.25 -999.25 100.0000      0.0     0.0 "vc"       "vc"       "Proksimal_munningsbanke_et_viftdelta"               "Proksimal_delta_front_(Proksimal_munningsbar)"
4370.0 "6507_7-1"  49.9400 "Sandstone" -999.25 -999.25 100.0000      0.0     0.0 "vc"       "vc"       "Proksimal_munningsbanke_et_viftdelta"               "Proksimal_delta_front_(Proksimal_munningsbar)"
4370.1 "6507_7-1"  51.1500 "Sandstone" -999.25 -999.25 100.0000      0.0     0.0 "vc"       "vc"       "Proksimal_munningsbanke_et_viftdelta"               "Proksimal_delta_front_(Proksimal_munningsbar)"
4370.2 "6507_7-1"  54.1100 "Sandstone" -999.25 -999.25 100.0000      0.0     0.0 "vc"       "vc"       "Proksimal_munningsbanke_et_viftdelta"               "Proksimal_delta_front_(Proksimal_munningsbar)"
4370.3 "6507_7-1"  57.0600 "Sandstone" -999.25 -999.25 100.0000      0.0     0.0 "vc"       "vc"       "Proksimal_munningsbanke_et_viftdelta"               "Proksimal_delta_front_(Proksimal_munningsbar)"
4370.4 "6507_7-1"  58.8700 "Sandstone" -999.25 -999.25 100.0000      0.0     0.0 "vc"       "vc"       "Proksimal_munningsbanke_et_viftdelta"               "Proksimal_delta_front_(Proksimal_munningsbar)"
4370.5 "6507_7-1"  58.6100 "Sandstone" -999.25 -999.25 100.0000      0.0     0.0 "vc"       "vc"       "Proksimal_munningsbanke_et_viftdelta"               "Proksimal_delta_front_(Proksimal_munningsbar)"
4370.6 "6507_7-1"  57.2900 "Sandstone" -999.25 -999.25 100.0000      0.0     0.0 "vc"       "vc"       "Proksimal_munningsbanke_et_viftdelta"               "Proksimal_delta_front_(Proksimal_munningsbar)"
4370.7 "6507_7-1"  55.5700 "Sandstone" -999.25 -999.25 100.0000      0.0     0.0 "vc"       "vc"       "Proksimal_munningsbanke_et_viftdelta"               "Proksimal_delta_front_(Proksimal_munningsbar)"
4370.8 "6507_7-1"  52.5700 "Sandstone" -999.25 -999.25 100.0000      0.0     0.0 "vc"       "vc"       "Proksimal_munningsbanke_et_viftdelta"               "Proksimal_delta_front_(Proksimal_munningsbar)"
4370.9 "6507_7-1"  49.5800 "Sandstone" -999.25 -999.25 100.0000      0.0     0.0 "vc"       "vc"       "Regresjon"                                          "Proksimal_delta_front_(Proksimal_munningsbar)"
4371.0 "6507_7-1"  48.7900 "Sandstone" -999.25 -999.25 100.0000      0.0     0.0 "vc"       "vc"       "Regresjon"                                          "Proksimal_delta_front_(Proksimal_munningsbar)"
4371.1 "6507_7-1"  49.2300 "Sandstone" -999.25 -999.25 100.0000      0.0     0.0 "vc"       "vc"       "Regresjon"                                          "Proksimal_delta_front_(Proksimal_munningsbar)"
4371.2 "6507_7-1"  50.2000 "Sandstone" -999.25 -999.25 100.0000      0.0     0.0 "vc"       "vc"       "Regresjon"                                          "Proksimal_delta_front_(Proksimal_munningsbar)"
4371.3 "6507_7-1"  53.7000 "Sandstone" -999.25 -999.25 100.0000      0.0     0.0 "vc"       "vc"       "Regresjon"                                          "Proksimal_delta_front_(Proksimal_munningsbar)"
4371.4 "6507_7-1"  57.1300 "Sandstone" -999.25 -999.25 100.0000      0.0     0.0 "vc"       "vc"       "Regresjon"                                          "Proksimal_delta_front_(Proksimal_munningsbar)"
4371.5 "6507_7-1"  60.3400 "Sandstone" -999.25 -999.25 100.0000      0.0     0.0 "vc"       "vc"       "Regresjon"                                          "Proksimal_delta_front_(Proksimal_munningsbar)"
