~Version
VERS  .                                 3.0 : CWLS LAS ASCII Standard - Version 3.0
WRAP  . NO                                  : One line per depth step
DLM   . SPACE                               : Column data section delimiter
SOURCE. Converted to LAS by Log Studio 4.76 : GeoProvider

~Well
STRT.         3504.0 : Start depth
STOP.         4600.3 : Stop depth
STEP.              1 : Step
NULL.        -999.25 : No-value
COMP.                : Company
WELL. 6507/7-1       : Well
FLD .                : Field
LOC .                : Location
LATI.                : Latitude
LONG.                : Longitude
GDAT.                : Geodetic datum
CNTY.                : County
STAT.                : State
CTRY.                : Country
SRVC. GeoProvider AS : Service company
DATE.                : Date
API .                : API number
RUN .                : Run number

~Parameters
WellboreName.  : Wellbore name
RigName     .  : Rig name
StartDate   .  : Start date

~Curves
DEPTH.m            .  : null {F}Depth mMD
Hole_ID.-          .  : null {S}Hole ID
GR.API             .  : null {F}Gamma Ray
Lithology1.-       .  : null {S}Lithology 1
Lithology2.-       .  : null {S}Lithology 2
Lithology3.-       .  : null {S}Lithology 3
Lithology1.%       .  : null {F}Lithology 1 percentage
Lithology2.%       .  : null {F}Lithology 2 percentage
Lithology3.%       .  : null {F}Lithology 3 percentage
Grain_size_Top.-   .  : null {S}Grain size at the top 
Grain_size_Base.-  .  : null {S}Grain size at the bottom
Sub_Environment.-  .  : null {S}Sub Environment
Gross_Environment.-.  : null {S}Gross Environment

~Ascii
# ...
4483.6 "6507_7-1"  94.9500 "Sandstone" "Clay"  -999.25  40.0000 60.00000     0.0 "clay/silt" "clay/silt" "Apent_marint"                                       "Prodelta-distal_munningsbanke"              
4483.7 "6507_7-1"  98.1400 "Sandstone" "Clay"  -999.25  40.0000 60.00000     0.0 "clay/silt" "clay/silt" "Apent_marint"                                       "Prodelta-distal_munningsbanke"              
4483.8 "6507_7-1" 102.5400 "Sandstone" "Clay"  -999.25  40.0000 60.00000     0.0 "clay/silt" "clay/silt" "Apent_marint"                                       "Prodelta-distal_munningsbanke"              
4483.9 "6507_7-1" 106.9300 "Sandstone" "Clay"  -999.25  40.0000 60.00000     0.0 "clay/silt" "clay/silt" "Apent_marint"                                       "Prodelta-distal_munningsbanke"              
4484.0 "6507_7-1" 112.0200 "Sandstone" "Clay"  -999.25  40.0000 60.00000     0.0 "clay/silt" "clay/silt" "Apent_marint"                                       "Prodelta-distal_munningsbanke"              
4484.1 "6507_7-1" 117.2500 "Sandstone" "Clay"  -999.25  40.0000 60.00000     0.0 "clay/silt" "clay/silt" "Apent_marint"                                       "Prodelta-distal_munningsbanke"              
4484.2 "6507_7-1" 120.9500 "Sandstone" "Clay"  -999.25  40.0000 60.00000     0.0 "clay/silt" "clay/silt" "Apent_marint"                                       "Prodelta-distal_munningsbanke"              
4484.3 "6507_7-1" 122.6000 "Sandstone" "Clay"  -999.25  40.0000 60.00000     0.0 "clay/silt" "clay/silt" "Apent_marint"                                       "Prodelta-distal_munningsbanke"              
4484.4 "6507_7-1" 122.8900 "Sandstone" "Clay"  -999.25  40.0000 60.00000     0.0 "clay/silt" "clay/silt" "Apent_marint"                                       "Prodelta-distal_munningsbanke"              
4484.5 "6507_7-1" 122.4200 "Sandstone" "Clay"  -999.25  40.0000 60.00000     0.0 "clay/silt" "clay/silt" "Apent_marint"                                       "Prodelta-distal_munningsbanke"              
4484.6 "6507_7-1" 121.7000 "Sandstone" "Clay"  -999.25  40.0000 60.00000     0.0 "clay/silt" "clay/silt" "Apent_marint"                                       "Prodelta-distal_munningsbanke"              
4484.7 "6507_7-1" 121.3200 "Sandstone" "Clay"  -999.25  40.0000 60.00000     0.0 "clay/silt" "clay/silt" "Apent_marint"                                       "Prodelta-distal_munningsbanke"              
4484.8 "6507_7-1" 122.0900 "Sandstone" "Clay"  -999.25  40.0000 60.00000     0.0 "clay/silt" "clay/silt" "Apent_marint"                                       "Prodelta-distal_munningsbanke"              
4484.9 "6507_7-1" 122.8600 "Sandstone" "Clay"  -999.25  40.0000 60.00000     0.0 "clay/silt" "clay/silt" "Apent_marint"                                       "Prodelta-distal_munningsbanke"              
4485.0 "6507_7-1" 123.6300 "Sandstone" "Clay"  -999.25  40.0000 60.00000     0.0 "clay/silt" "clay/silt" "Apent_marint"                                       "Prodelta-distal_munningsbanke"              
4485.1 "6507_7-1" 123.8600 "Sandstone" "Clay"  -999.25  40.0000 60.00000     0.0 "clay/silt" "clay/silt" "Apent_marint"                                       "Prodelta-distal_munningsbanke"              
4485.2 "6507_7-1" 123.8600 "Sandstone" "Clay"  -999.25  40.0000 60.00000     0.0 "clay/silt" "clay/silt" "Apent_marint"                                       "Prodelta-distal_munningsbanke"              
4485.3 "6507_7-1" 123.1700 "Sandstone" "Clay"  -999.25  40.0000 60.00000     0.0 "clay/silt" "clay/silt" "Apent_marint"                                       "Prodelta-distal_munningsbanke"              
4485.4 "6507_7-1" 121.5600 "Sandstone" "Clay"  -999.25  40.0000 60.00000     0.0 "clay/silt" "clay/silt" "Apent_marint"                                       "Prodelta-distal_munningsbanke"              
4485.5 "6507_7-1" 119.5900 "Sandstone" "Clay"  -999.25  40.0000 60.00000     0.0 "clay/silt" "clay/silt" "Apent_marint"                                       "Prodelta-distal_munningsbanke"              
4485.6 "6507_7-1" 118.1800 "Sandstone" "Clay"  -999.25  40.0000 60.00000     0.0 "clay/silt" "clay/silt" "Apent_marint"                                       "Prodelta-distal_munningsbanke"              
4485.7 "6507_7-1" 118.3200 "Sandstone" "Clay"  -999.25  40.0000 60.00000     0.0 "clay/silt" "clay/silt" "Apent_marint"                                       "Prodelta-distal_munningsbanke"              
4485.8 "6507_7-1" 120.0900 "Sandstone" "Clay"  -999.25  40.0000 60.00000     0.0 "clay/silt" "clay/silt" "Apent_marint"                                       "Prodelta-distal_munningsbanke"              
4485.9 "6507_7-1" 123.4200 "Sandstone" "Clay"  -999.25  40.0000 60.00000     0.0 "clay/silt" "clay/silt" "Apent_marint"                                       "Prodelta-distal_munningsbanke"              
4486.0 "6507_7-1" 127.0800 "Sandstone" "Clay"  -999.25  40.0000 60.00000     0.0 "clay/silt" "clay/silt" "Apent_marint"                                       "Prodelta-distal_munningsbanke"              
4486.1 "6507_7-1" 131.1600 "Sandstone" "Clay"  -999.25  40.0000 60.00000     0.0 "clay/silt" "clay/silt" "Apent_marint"                                       "Prodelta-distal_munningsbanke"              
4486.2 "6507_7-1" 133.0200 "Sandstone" "Clay"  -999.25  40.0000 60.00000     0.0 "clay/silt" "clay/silt" "Apent_marint"                                       "Prodelta-distal_munningsbanke"              
4486.3 "6507_7-1" 132.0300 "Sandstone" "Clay"  -999.25  40.0000 60.00000     0.0 "clay/silt" "clay/silt" "Apent_marint"                                       "Prodelta-distal_munningsbanke"              
4486.4 "6507_7-1" 129.9700 "Sandstone" "Clay"  -999.25  40.0000 60.00000     0.0 "clay/silt" "clay/silt" "Apent_marint"                                       "Prodelta-distal_munningsbanke"              
4486.5 "6507_7-1" 124.0900 "Sandstone" "Clay"  -999.25  40.0000 60.00000     0.0 "clay/silt" "clay/silt" "Apent_marint"                                       "Prodelta-distal_munningsbanke"              
4486.6 "6507_7-1" 119.5000 "Sandstone" "Clay"  -999.25  40.0000 60.00000     0.0 "clay/silt" "clay/silt" "Apent_marint"                                       "Prodelta-distal_munningsbanke"              
4486.7 "6507_7-1" 117.5200 "Sandstone" "Clay"  -999.25  40.0000 60.00000     0.0 "clay/silt" "clay/silt" "Apent_marint"                                       "Prodelta-distal_munningsbanke"              
4486.8 "6507_7-1" 117.1100 "Sandstone" "Clay"  -999.25  40.0000 60.00000     0.0 "clay/silt" "clay/silt" "Apent_marint"                                       "Prodelta-distal_munningsbanke"              
4486.9 "6507_7-1" 116.7000 "Sandstone" "Clay"  -999.25  40.0000 60.00000     0.0 "clay/silt" "clay/silt" "Apent_marint"                                       "Prodelta-distal_munningsbanke"              
4487.0 "6507_7-1" 115.6700 "Sandstone" "Clay"  -999.25  40.0000 60.00000     0.0 "clay/silt" "clay/silt" "Apent_marint"                                       "Prodelta-distal_munningsbanke"              
4487.1 "6507_7-1" 113.2000 "Sandstone" "Clay"  -999.25  40.0000 60.00000     0.0 "clay/silt" "clay/silt" "Apent_marint"                                       "Prodelta-distal_munningsbanke"              
4487.2 "6507_7-1" 110.1200 "Sandstone" "Clay"  -999.25  40.0000 60.00000     0.0 "clay/silt" "clay/silt" "Apent_marint"                                       "Prodelta-distal_munningsbanke"              
4487.3 "6507_7-1" 106.8900 "Sandstone" "Clay"  -999.25  40.0000 60.00000     0.0 "clay/silt" "clay/silt" "Apent_marint"                                       "Prodelta-distal_munningsbanke"              
4487.4 "6507_7-1" 104.8600 "Sandstone" "Clay"  -999.25  40.0000 60.00000     0.0 "clay/silt" "clay/silt" "Apent_marint"                                       "Prodelta-distal_munningsbanke"              
4487.5 "6507_7-1" 102.8400 "Sandstone" "Clay"  -999.25  40.0000 60.00000     0.0 "clay/silt" "clay/silt" "Apent_marint"                                       "Prodelta-distal_munningsbanke"              
