~Version
VERS  .                                 3.0 : CWLS LAS ASCII Standard - Version 3.0
WRAP  . NO                                  : One line per depth step
DLM   . SPACE                               : Column data section delimiter
SOURCE. Converted to LAS by Log Studio 4.76 : GeoProvider

~Well
STRT.         3504.0 : Start depth
STOP.         4600.3 : Stop depth
STEP.              1 : Step
NULL.        -999.25 : No-value
COMP.                : Company
WELL. 6507/7-1       : Well
FLD .                : Field
LOC .                : Location
LATI.                : Latitude
LONG.                : Longitude
GDAT.                : Geodetic datum
CNTY.                : County
STAT.                : State
CTRY.                : Country
SRVC. GeoProvider AS : Service company
DATE.                : Date
API .                : API number
RUN .                : Run number

~Parameters
WellboreName.  : Wellbore name
RigName     .  : Rig name
StartDate   .  : Start date

~Curves
DEPTH.m            .  : null {F}Depth mMD
Hole_ID.-          .  : null {S}Hole ID
GR.API             .  : null {F}Gamma Ray
Lithology1.-       .  : null {S}Lithology 1
Lithology2.-       .  : null {S}Lithology 2
Lithology3.-       .  : null {S}Lithology 3
Lithology1.%       .  : null {F}Lithology 1 percentage
Lithology2.%       .  : null {F}Lithology 2 percentage
Lithology3.%       .  : null {F}Lithology 3 percentage
Grain_size_Top.-   .  : null {S}Grain size at the top 
Grain_size_Base.-  .  : null {S}Grain size at the bottom
Sub_Environment.-  .  : null {S}Sub Environment
Gross_Environment.-.  : null {S}Gross Environment

~Ascii
# ...
4475.6 "6507_7-1"  51.1200 "Sandstone" "Shale" -999.25  75.0000 25.00000     0.0 "silt/vf"  "silt"     "Apent_marint"                                       "Prodelta-distal_munningsbanke"              
4475.7 "6507_7-1"  53.6000 "Sandstone" "Shale" -999.25  75.0000 25.00000     0.0 "silt/vf"  "silt"     "Apent_marint"                                       "Prodelta-distal_munningsbanke"              
4475.8 "6507_7-1"  56.2700 "Sandstone" "Shale" -999.25  75.0000 25.00000     0.0 "silt/vf"  "silt"     "Apent_marint"                                       "Prodelta-distal_munningsbanke"              
4475.9 "6507_7-1"  58.5400 "Sandstone" "Shale" -999.25  75.0000 25.00000     0.0 "silt/vf"  "silt"     "Apent_marint"                                       "Prodelta-distal_munningsbanke"              
4476.0 "6507_7-1"  60.5500 "Sandstone" "Shale" -999.25  75.0000 25.00000     0.0 "silt/vf"  "silt"     "Apent_marint"                                       "Prodelta-distal_munningsbanke"              
4476.1 "6507_7-1"  61.7000 "Sandstone" "Shale" -999.25  75.0000 25.00000     0.0 "silt/vf"  "silt"     "Apent_marint"                                       "Prodelta-distal_munningsbanke"              
4476.2 "6507_7-1"  61.4700 "Sandstone" "Shale" -999.25  75.0000 25.00000     0.0 "silt/vf"  "silt"     "Apent_marint"                                       "Prodelta-distal_munningsbanke"              
4476.3 "6507_7-1"  60.6500 "Sandstone" "Shale" -999.25  75.0000 25.00000     0.0 "silt/vf"  "silt"     "Apent_marint"                                       "Prodelta-distal_munningsbanke"              
4476.4 "6507_7-1"  58.5800 "Sandstone" "Shale" -999.25  75.0000 25.00000     0.0 "silt/vf"  "silt"     "Apent_marint"                                       "Prodelta-distal_munningsbanke"              
4476.5 "6507_7-1"  55.6800 "Sandstone" "Shale" -999.25  75.0000 25.00000     0.0 "silt/vf"  "silt"     "Apent_marint"                                       "Prodelta-distal_munningsbanke"              
4476.6 "6507_7-1"  52.5300 "Sandstone" "Shale" -999.25  75.0000 25.00000     0.0 "silt/vf"  "silt"     "Apent_marint"                                       "Prodelta-distal_munningsbanke"              
4476.7 "6507_7-1"  51.5300 "Sandstone" "Shale" -999.25  75.0000 25.00000     0.0 "silt/vf"  "silt"     "Apent_marint"                                       "Prodelta-distal_munningsbanke"              
4476.8 "6507_7-1"  51.4100 "Sandstone" "Shale" -999.25  75.0000 25.00000     0.0 "silt/vf"  "silt"     "Apent_marint"                                       "Prodelta-distal_munningsbanke"              
4476.9 "6507_7-1"  51.8700 "Sandstone" "Shale" -999.25  75.0000 25.00000     0.0 "silt/vf"  "silt"     "Apent_marint"                                       "Prodelta-distal_munningsbanke"              
4477.0 "6507_7-1"  52.2400 "Sandstone" "Shale" -999.25  75.0000 25.00000     0.0 "silt/vf"  "silt"     "Apent_marint"                                       "Prodelta-distal_munningsbanke"              
4477.1 "6507_7-1"  52.5100 "Sandstone" "Shale" -999.25  75.0000 25.00000     0.0 "silt/vf"  "silt"     "Apent_marint"                                       "Prodelta-distal_munningsbanke"              
4477.2 "6507_7-1"  52.3100 "Sandstone" "Shale" -999.25  75.0000 25.00000     0.0 "silt/vf"  "silt"     "Apent_marint"                                       "Prodelta-distal_munningsbanke"              
4477.3 "6507_7-1"  51.6200 "Sandstone" "Shale" -999.25  75.0000 25.00000     0.0 "silt/vf"  "silt"     "Apent_marint"                                       "Prodelta-distal_munningsbanke"              
4477.4 "6507_7-1"  50.8900 "Sandstone" "Shale" -999.25  50.0000 50.00000     0.0 "silt/vf"  "silt/vf"  "Apent_marint"                                       "Prodelta-distal_munningsbanke"              
4477.5 "6507_7-1"  50.1700 "Sandstone" "Shale" -999.25  50.0000 50.00000     0.0 "silt/vf"  "silt/vf"  "Apent_marint"                                       "Prodelta-distal_munningsbanke"              
4477.6 "6507_7-1"  50.4400 "Sandstone" "Shale" -999.25  50.0000 50.00000     0.0 "silt/vf"  "silt/vf"  "Apent_marint"                                       "Prodelta-distal_munningsbanke"              
4477.7 "6507_7-1"  51.7900 "Sandstone" "Shale" -999.25  50.0000 50.00000     0.0 "silt/vf"  "silt/vf"  "Apent_marint"                                       "Prodelta-distal_munningsbanke"              
4477.8 "6507_7-1"  55.8300 "Sandstone" "Shale" -999.25  50.0000 50.00000     0.0 "silt/vf"  "silt/vf"  "Apent_marint"                                       "Prodelta-distal_munningsbanke"              
4477.9 "6507_7-1"  60.4700 "Sandstone" "Shale" -999.25  50.0000 50.00000     0.0 "silt/vf"  "silt/vf"  "Apent_marint"                                       "Prodelta-distal_munningsbanke"              
4478.0 "6507_7-1"  63.0300 "Sandstone" "Shale" -999.25  50.0000 50.00000     0.0 "silt/vf"  "silt/vf"  "Apent_marint"                                       "Prodelta-distal_munningsbanke"              
4478.1 "6507_7-1"  64.2100 "Sandstone" "Shale" -999.25  50.0000 50.00000     0.0 "silt/vf"  "silt/vf"  "Apent_marint"                                       "Prodelta-distal_munningsbanke"              
4478.2 "6507_7-1"  65.1000 "Sandstone" "Shale" -999.25  50.0000 50.00000     0.0 "silt/vf"  "silt/vf"  "Apent_marint"                                       "Prodelta-distal_munningsbanke"              
4478.3 "6507_7-1"  66.9700 "Sandstone" "Shale" -999.25  50.0000 50.00000     0.0 "silt/vf"  "silt/vf"  "Apent_marint"                                       "Prodelta-distal_munningsbanke"              
4478.4 "6507_7-1"  73.2500 "Sandstone" "Shale" -999.25  50.0000 50.00000     0.0 "silt/vf"  "silt/vf"  "Apent_marint"                                       "Prodelta-distal_munningsbanke"              
4478.5 "6507_7-1"  84.0000 "Sandstone" "Shale" -999.25  50.0000 50.00000     0.0 "silt/vf"  "silt/vf"  "Apent_marint"                                       "Prodelta-distal_munningsbanke"              
4478.6 "6507_7-1" 112.7100 "Sandstone" "Shale" -999.25  50.0000 50.00000     0.0 "silt/vf"  "silt/vf"  "Apent_marint"                                       "Prodelta-distal_munningsbanke"              
4478.7 "6507_7-1" 116.4300 "Sandstone" "Shale" -999.25  50.0000 50.00000     0.0 "silt/vf"  "silt/vf"  "Apent_marint"                                       "Prodelta-distal_munningsbanke"              
4478.8 "6507_7-1" 124.2500 "Sandstone" "Shale" -999.25  50.0000 50.00000     0.0 "silt/vf"  "silt/vf"  "Apent_marint"                                       "Prodelta-distal_munningsbanke"              
4478.9 "6507_7-1" 135.9200 "Sandstone" "Shale" -999.25  50.0000 50.00000     0.0 "silt/vf"  "silt/vf"  "Apent_marint"                                       "Prodelta-distal_munningsbanke"              
4479.0 "6507_7-1" 131.0300 "Sandstone" "Clay"  -999.25  40.0000 60.00000     0.0 "clay/silt" "clay/silt" "Apent_marint"                                       "Prodelta-distal_munningsbanke"              
4479.1 "6507_7-1" 112.1800 "Sandstone" "Clay"  -999.25  40.0000 60.00000     0.0 "clay/silt" "clay/silt" "Apent_marint"                                       "Prodelta-distal_munningsbanke"              
4479.2 "6507_7-1"  91.3900 "Sandstone" "Clay"  -999.25  40.0000 60.00000     0.0 "clay/silt" "clay/silt" "Apent_marint"                                       "Prodelta-distal_munningsbanke"              
4479.3 "6507_7-1"  80.6000 "Sandstone" "Clay"  -999.25  40.0000 60.00000     0.0 "clay/silt" "clay/silt" "Apent_marint"                                       "Prodelta-distal_munningsbanke"              
4479.4 "6507_7-1"  72.3300 "Sandstone" "Clay"  -999.25  40.0000 60.00000     0.0 "clay/silt" "clay/silt" "Apent_marint"                                       "Prodelta-distal_munningsbanke"              
4479.5 "6507_7-1"  66.7800 "Sandstone" "Clay"  -999.25  40.0000 60.00000     0.0 "clay/silt" "clay/silt" "Apent_marint"                                       "Prodelta-distal_munningsbanke"              
