~Version
VERS  .                                 3.0 : CWLS LAS ASCII Standard - Version 3.0
WRAP  . NO                                  : One line per depth step
DLM   . SPACE                               : Column data section delimiter
SOURCE. Converted to LAS by Log Studio 4.76 : GeoProvider

~Well
STRT.        3619.00 : Start depth
STOP.        3758.00 : Stop depth
STEP.              1 : Step
NULL.        -999.25 : No-value
COMP.                : Company
WELL. 6407/1-3       : Well
FLD .                : Field
LOC .                : Location
LATI.                : Latitude
LONG.                : Longitude
GDAT.                : Geodetic datum
CNTY.                : County
STAT.                : State
CTRY.                : Country
SRVC. GeoProvider AS : Service company
DATE.                : Date
API .                : API number
RUN .                : Run number

~Parameters
WellboreName.  : Wellbore name
RigName     .  : Rig name
StartDate   .  : Start date

~Curves
DEPTH.m            .  : null {F}Depth mMD
Hole_ID.-          .  : null {S}Hole ID
GR.API             .  : null {F}Gamma Ray
Lithology1.-       .  : null {S}Lithology 1
Lithology2.-       .  : null {S}Lithology 2
Lithology3.-       .  : null {S}Lithology 3
Lithology1.%       .  : null {F}Lithology 1 percentage
Lithology2.%       .  : null {F}Lithology 2 percentage
Lithology3.%       .  : null {F}Lithology 3 percentage
Grain_size_Top.-   .  : null {S}Grain size at the top 
Grain_size_Base.-  .  : null {S}Grain size at the bottom
Sub_Environment.-  .  : null {S}Sub Environment
Gross_Environment.-.  : null {S}Gross Environment

~Ascii
# ...
3712.00 "6407_1-3" 51.17000 "Sandstone" "Shale" -999.25  45.0000 55.00000     0.0 "silt"  "vf/f"  "Distal_ delta_ front_ (?fan_ delta)_ Low_ degree_ of_ wave_ or_ tidal_ reworking."                                                                                                           "PRODELTA/DISTAL_ DELTA_ FRONT"                                                                                                                                                                                                                             
3712.10 "6407_1-3" 52.68000 "Sandstone" "Shale" -999.25  45.0000 55.00000     0.0 "silt"  "vf/f"  "Distal_ delta_ front_ (?fan_ delta)_ Low_ degree_ of_ wave_ or_ tidal_ reworking."                                                                                                           "PRODELTA/DISTAL_ DELTA_ FRONT"                                                                                                                                                                                                                             
3712.20 "6407_1-3" 55.02000 "Sandstone" "Shale" -999.25  45.0000 55.00000     0.0 "silt"  "vf/f"  "Distal_ delta_ front_ (?fan_ delta)_ Low_ degree_ of_ wave_ or_ tidal_ reworking."                                                                                                           "PRODELTA/DISTAL_ DELTA_ FRONT"                                                                                                                                                                                                                             
3712.30 "6407_1-3" 55.29000 "Sandstone" "Shale" -999.25  45.0000 55.00000     0.0 "silt"  "vf/f"  "Distal_ delta_ front_ (?fan_ delta)_ Low_ degree_ of_ wave_ or_ tidal_ reworking."                                                                                                           "PRODELTA/DISTAL_ DELTA_ FRONT"                                                                                                                                                                                                                             
3712.40 "6407_1-3" 55.57000 "Sandstone" "Shale" -999.25  45.0000 55.00000     0.0 "silt"  "vf/f"  "Distal_ delta_ front_ (?fan_ delta)_ Low_ degree_ of_ wave_ or_ tidal_ reworking."                                                                                                           "PRODELTA/DISTAL_ DELTA_ FRONT"                                                                                                                                                                                                                             
3712.50 "6407_1-3" 55.84000 "Sandstone" "Shale" -999.25  45.0000 55.00000     0.0 "silt"  "vf/f"  "Distal_ delta_ front_ (?fan_ delta)_ Low_ degree_ of_ wave_ or_ tidal_ reworking."                                                                                                           "PRODELTA/DISTAL_ DELTA_ FRONT"                                                                                                                                                                                                                             
3712.60 "6407_1-3" 56.11000 "Sandstone" "Shale" -999.25  45.0000 55.00000     0.0 "silt"  "vf/f"  "Distal_ delta_ front_ (?fan_ delta)_ Low_ degree_ of_ wave_ or_ tidal_ reworking."                                                                                                           "PRODELTA/DISTAL_ DELTA_ FRONT"                                                                                                                                                                                                                             
3712.70 "6407_1-3" 56.94000 "Sandstone" "Shale" -999.25  45.0000 55.00000     0.0 "silt"  "vf/f"  "Distal_ delta_ front_ (?fan_ delta)_ Low_ degree_ of_ wave_ or_ tidal_ reworking."                                                                                                           "PRODELTA/DISTAL_ DELTA_ FRONT"                                                                                                                                                                                                                             
3712.80 "6407_1-3" 58.16000 "Sandstone" "Shale" -999.25  45.0000 55.00000     0.0 "silt"  "vf/f"  "Distal_ delta_ front_ (?fan_ delta)_ Low_ degree_ of_ wave_ or_ tidal_ reworking."                                                                                                           "PRODELTA/DISTAL_ DELTA_ FRONT"                                                                                                                                                                                                                             
3712.90 "6407_1-3" 59.38000 "Sandstone" "Shale" -999.25  45.0000 55.00000     0.0 "silt"  "vf/f"  "Distal_ delta_ front_ (?fan_ delta)_ Low_ degree_ of_ wave_ or_ tidal_ reworking."                                                                                                           "PRODELTA/DISTAL_ DELTA_ FRONT"                                                                                                                                                                                                                             
3713.00 "6407_1-3" 60.60000 "Sandstone" "Shale" -999.25  45.0000 55.00000     0.0 "silt"  "vf/f"  "Distal_ delta_ front_ (?fan_ delta)_ Low_ degree_ of_ wave_ or_ tidal_ reworking."                                                                                                           "PRODELTA/DISTAL_ DELTA_ FRONT"                                                                                                                                                                                                                             
3713.10 "6407_1-3" 62.42000 "Sandstone" "Shale" -999.25  45.0000 55.00000     0.0 "silt"  "vf/f"  "Distal_ delta_ front_ (?fan_ delta)_ Low_ degree_ of_ wave_ or_ tidal_ reworking."                                                                                                           "PRODELTA/DISTAL_ DELTA_ FRONT"                                                                                                                                                                                                                             
3713.20 "6407_1-3" 63.88000 "Sandstone" "Shale" -999.25  45.0000 55.00000     0.0 "silt"  "vf/f"  "Distal_ delta_ front_ (?fan_ delta)_ Low_ degree_ of_ wave_ or_ tidal_ reworking."                                                                                                           "PRODELTA/DISTAL_ DELTA_ FRONT"                                                                                                                                                                                                                             
3713.30 "6407_1-3" 64.08000 "Sandstone" "Shale" -999.25  45.0000 55.00000     0.0 "silt"  "vf/f"  "Distal_ delta_ front_ (?fan_ delta)_ Low_ degree_ of_ wave_ or_ tidal_ reworking."                                                                                                           "PRODELTA/DISTAL_ DELTA_ FRONT"                                                                                                                                                                                                                             
3713.40 "6407_1-3" 64.28000 "Sandstone" "Shale" -999.25  45.0000 55.00000     0.0 "silt"  "vf/f"  "Distal_ delta_ front_ (?fan_ delta)_ Low_ degree_ of_ wave_ or_ tidal_ reworking."                                                                                                           "PRODELTA/DISTAL_ DELTA_ FRONT"                                                                                                                                                                                                                             
