~Version
VERS  .                                 3.0 : CWLS LAS ASCII Standard - Version 3.0
WRAP  . NO                                  : One line per depth step
DLM   . SPACE                               : Column data section delimiter
SOURCE. Converted to LAS by Log Studio 4.76 : GeoProvider

~Well
STRT.        3619.00 : Start depth
STOP.        3758.00 : Stop depth
STEP.              1 : Step
NULL.        -999.25 : No-value
COMP.                : Company
WELL. 6407/1-3       : Well
FLD .                : Field
LOC .                : Location
LATI.                : Latitude
LONG.                : Longitude
GDAT.                : Geodetic datum
CNTY.                : County
STAT.                : State
CTRY.                : Country
SRVC. GeoProvider AS : Service company
DATE.                : Date
API .                : API number
RUN .                : Run number

~Parameters
WellboreName.  : Wellbore name
RigName     .  : Rig name
StartDate   .  : Start date

~Curves
DEPTH.m            .  : null {F}Depth mMD
Hole_ID.-          .  : null {S}Hole ID
GR.API             .  : null {F}Gamma Ray
Lithology1.-       .  : null {S}Lithology 1
Lithology2.-       .  : null {S}Lithology 2
Lithology3.-       .  : null {S}Lithology 3
Lithology1.%       .  : null {F}Lithology 1 percentage
Lithology2.%       .  : null {F}Lithology 2 percentage
Lithology3.%       .  : null {F}Lithology 3 percentage
Grain_size_Top.-   .  : null {S}Grain size at the top 
Grain_size_Base.-  .  : null {S}Grain size at the bottom
Sub_Environment.-  .  : null {S}Sub Environment
Gross_Environment.-.  : null {S}Gross Environment

~Ascii
# ...
3706.00 "6407_1-3" 40.47000 "Sandstone" -999.25 -999.25 100.0000      0.0     0.0 "vf/f"  "f/m"   "Distal_ delta_ front_ (?fan_ delta)_ Low_ degree_ of_ wave_ or_ tidal_ reworking."                                                                                                           "PRODELTA/DISTAL_ DELTA_ FRONT"                                                                                                                                                                                                                             
3706.10 "6407_1-3" 40.97000 "Sandstone" -999.25 -999.25 100.0000      0.0     0.0 "vf/f"  "f/m"   "Distal_ delta_ front_ (?fan_ delta)_ Low_ degree_ of_ wave_ or_ tidal_ reworking."                                                                                                           "PRODELTA/DISTAL_ DELTA_ FRONT"                                                                                                                                                                                                                             
3706.20 "6407_1-3" 41.47000 "Sandstone" -999.25 -999.25 100.0000      0.0     0.0 "vf/f"  "f/m"   "Distal_ delta_ front_ (?fan_ delta)_ Low_ degree_ of_ wave_ or_ tidal_ reworking."                                                                                                           "PRODELTA/DISTAL_ DELTA_ FRONT"                                                                                                                                                                                                                             
3706.30 "6407_1-3" 42.32000 "Sandstone" -999.25 -999.25 100.0000      0.0     0.0 "vf/f"  "f/m"   "Distal_ delta_ front_ (?fan_ delta)_ Low_ degree_ of_ wave_ or_ tidal_ reworking."                                                                                                           "PRODELTA/DISTAL_ DELTA_ FRONT"                                                                                                                                                                                                                             
3706.40 "6407_1-3" 43.23000 "Sandstone" -999.25 -999.25 100.0000      0.0     0.0 "vf/f"  "f/m"   "Distal_ delta_ front_ (?fan_ delta)_ Low_ degree_ of_ wave_ or_ tidal_ reworking."                                                                                                           "PRODELTA/DISTAL_ DELTA_ FRONT"                                                                                                                                                                                                                             
3706.50 "6407_1-3" 44.14000 "Sandstone" -999.25 -999.25 100.0000      0.0     0.0 "vf/f"  "f/m"   "Distal_ delta_ front_ (?fan_ delta)_ Low_ degree_ of_ wave_ or_ tidal_ reworking."                                                                                                           "PRODELTA/DISTAL_ DELTA_ FRONT"                                                                                                                                                                                                                             
3706.60 "6407_1-3" 45.05000 "Sandstone" -999.25 -999.25 100.0000      0.0     0.0 "vf/f"  "f/m"   "Distal_ delta_ front_ (?fan_ delta)_ Low_ degree_ of_ wave_ or_ tidal_ reworking."                                                                                                           "PRODELTA/DISTAL_ DELTA_ FRONT"                                                                                                                                                                                                                             
3706.70 "6407_1-3" 46.03000 "Sandstone" -999.25 -999.25 100.0000      0.0     0.0 "vf/f"  "f/m"   "Distal_ delta_ front_ (?fan_ delta)_ Low_ degree_ of_ wave_ or_ tidal_ reworking."                                                                                                           "PRODELTA/DISTAL_ DELTA_ FRONT"                                                                                                                                                                                                                             
3706.80 "6407_1-3" 47.42000 "Sandstone" -999.25 -999.25 100.0000      0.0     0.0 "vf/f"  "f/m"   "Distal_ delta_ front_ (?fan_ delta)_ Low_ degree_ of_ wave_ or_ tidal_ reworking."                                                                                                           "PRODELTA/DISTAL_ DELTA_ FRONT"                                                                                                                                                                                                                             
3706.90 "6407_1-3" 48.81000 "Sandstone" -999.25 -999.25 100.0000      0.0     0.0 "vf/f"  "f/m"   "Distal_ delta_ front_ (?fan_ delta)_ Low_ degree_ of_ wave_ or_ tidal_ reworking."                                                                                                           "PRODELTA/DISTAL_ DELTA_ FRONT"                                                                                                                                                                                                                             
3707.00 "6407_1-3" 49.28000 "Sandstone" -999.25 -999.25 100.0000      0.0     0.0 "vf/f"  "f/m"   "Distal_ delta_ front_ (?fan_ delta)_ Low_ degree_ of_ wave_ or_ tidal_ reworking."                                                                                                           "PRODELTA/DISTAL_ DELTA_ FRONT"                                                                                                                                                                                                                             
3707.10 "6407_1-3" 48.22000 "Sandstone" -999.25 -999.25 100.0000      0.0     0.0 "vf/f"  "f/m"   "Distal_ delta_ front_ (?fan_ delta)_ Low_ degree_ of_ wave_ or_ tidal_ reworking."                                                                                                           "PRODELTA/DISTAL_ DELTA_ FRONT"                                                                                                                                                                                                                             
3707.20 "6407_1-3" 47.72000 "Sandstone" -999.25 -999.25 100.0000      0.0     0.0 "vf/f"  "f/m"   "Distal_ delta_ front_ (?fan_ delta)_ Low_ degree_ of_ wave_ or_ tidal_ reworking."                                                                                                           "PRODELTA/DISTAL_ DELTA_ FRONT"                                                                                                                                                                                                                             
3707.30 "6407_1-3" 47.43000 "Sandstone" -999.25 -999.25 100.0000      0.0     0.0 "vf/f"  "f/m"   "Distal_ delta_ front_ (?fan_ delta)_ Low_ degree_ of_ wave_ or_ tidal_ reworking."                                                                                                           "PRODELTA/DISTAL_ DELTA_ FRONT"                                                                                                                                                                                                                             
3707.40 "6407_1-3" 47.43000 "Sandstone" -999.25 -999.25 100.0000      0.0     0.0 "vf/f"  "f/m"   "Distal_ delta_ front_ (?fan_ delta)_ Low_ degree_ of_ wave_ or_ tidal_ reworking."                                                                                                           "PRODELTA/DISTAL_ DELTA_ FRONT"                                                                                                                                                                                                                             
