~Version
VERS  .                                 3.0 : CWLS LAS ASCII Standard - Version 3.0
WRAP  . NO                                  : One line per depth step
DLM   . SPACE                               : Column data section delimiter
SOURCE. Converted to LAS by Log Studio 4.76 : GeoProvider

~Well
STRT.        3619.00 : Start depth
STOP.        3758.00 : Stop depth
STEP.              1 : Step
NULL.        -999.25 : No-value
COMP.                : Company
WELL. 6407/1-3       : Well
FLD .                : Field
LOC .                : Location
LATI.                : Latitude
LONG.                : Longitude
GDAT.                : Geodetic datum
CNTY.                : County
STAT.                : State
CTRY.                : Country
SRVC. GeoProvider AS : Service company
DATE.                : Date
API .                : API number
RUN .                : Run number

~Parameters
WellboreName.  : Wellbore name
RigName     .  : Rig name
StartDate   .  : Start date

~Curves
DEPTH.m            .  : null {F}Depth mMD
Hole_ID.-          .  : null {S}Hole ID
GR.API             .  : null {F}Gamma Ray
Lithology1.-       .  : null {S}Lithology 1
Lithology2.-       .  : null {S}Lithology 2
Lithology3.-       .  : null {S}Lithology 3
Lithology1.%       .  : null {F}Lithology 1 percentage
Lithology2.%       .  : null {F}Lithology 2 percentage
Lithology3.%       .  : null {F}Lithology 3 percentage
Grain_size_Top.-   .  : null {S}Grain size at the top 
Grain_size_Base.-  .  : null {S}Grain size at the bottom
Sub_Environment.-  .  : null {S}Sub Environment
Gross_Environment.-.  : null {S}Gross Environment

~Ascii
# ...
3756.90 "6407_1-3" 13.56000 "Sandstone" "Shale" -999.25  88.0000 12.00000     0.0 "c/vc"  "c/vc"  "Proximal_ delta_ front_ (fan_ delta)"                                                                                                                                                        "DELTA_ FRONT"                                                                                                                                                                                                                                              
3757.00 "6407_1-3" 13.98000 "Sandstone" "Shale" -999.25  88.0000 12.00000     0.0 "c/vc"  "c/vc"  "Proximal_ delta_ front_ (fan_ delta)"                                                                                                                                                        "DELTA_ FRONT"                                                                                                                                                                                                                                              
3757.10 "6407_1-3" 14.40000 "Sandstone" "Shale" -999.25  88.0000 12.00000     0.0 "c/vc"  "c/vc"  "Proximal_ delta_ front_ (fan_ delta)"                                                                                                                                                        "DELTA_ FRONT"                                                                                                                                                                                                                                              
3757.20 "6407_1-3" 15.34000 "Sandstone" "Shale" -999.25  88.0000 12.00000     0.0 "c/vc"  "c/vc"  "Proximal_ delta_ front_ (fan_ delta)"                                                                                                                                                        "DELTA_ FRONT"                                                                                                                                                                                                                                              
3757.30 "6407_1-3" 17.57000 "Sandstone" "Shale" -999.25  88.0000 12.00000     0.0 "c/vc"  "c/vc"  "Proximal_ delta_ front_ (fan_ delta)"                                                                                                                                                        "DELTA_ FRONT"                                                                                                                                                                                                                                              
3757.40 "6407_1-3" 18.53000 "Sandstone" "Shale" -999.25  88.0000 12.00000     0.0 "c/vc"  "c/vc"  "Proximal_ delta_ front_ (fan_ delta)"                                                                                                                                                        "DELTA_ FRONT"                                                                                                                                                                                                                                              
3757.50 "6407_1-3" 19.35000 "Sandstone" -999.25 -999.25 100.0000      0.0     0.0 "c"     "c"     "Proximal_ delta_ front_ (fan_ delta)"                                                                                                                                                        "DELTA_ FRONT"                                                                                                                                                                                                                                              
3757.60 "6407_1-3" 20.18000 "Sandstone" -999.25 -999.25 100.0000      0.0     0.0 "c"     "c"     "Proximal_ delta_ front_ (fan_ delta)"                                                                                                                                                        "DELTA_ FRONT"                                                                                                                                                                                                                                              
3757.70 "6407_1-3" 20.56000 "Sandstone" -999.25 -999.25 100.0000      0.0     0.0 "c"     "c"     "Proximal_ delta_ front_ (fan_ delta)"                                                                                                                                                        "DELTA_ FRONT"                                                                                                                                                                                                                                              
3757.80 "6407_1-3" 20.62000 "Sandstone" -999.25 -999.25 100.0000      0.0     0.0 "c"     "c"     "Proximal_ delta_ front_ (fan_ delta)"                                                                                                                                                        "DELTA_ FRONT"                                                                                                                                                                                                                                              
3757.90 "6407_1-3" 20.32000 "Sandstone" -999.25 -999.25 100.0000      0.0     0.0 "c"     "c"     "Proximal_ delta_ front_ (fan_ delta)"                                                                                                                                                        "DELTA_ FRONT"                                                                                                                                                                                                                                              
3758.00 "6407_1-3" 19.82000 "Sandstone" -999.25 -999.25 100.0000      0.0     0.0 "c"     "c"     "Proximal_ delta_ front_ (fan_ delta)"                                                                                                                                                        "DELTA_ FRONT"                                                                                                                                                                                                                                              
