~Version
VERS  .                                 3.0 : CWLS LAS ASCII Standard - Version 3.0
WRAP  . NO                                  : One line per depth step
DLM   . SPACE                               : Column data section delimiter
SOURCE. Converted to LAS by Log Studio 4.76 : GeoProvider

~Well
STRT.        3619.00 : Start depth
STOP.        3758.00 : Stop depth
STEP.              1 : Step
NULL.        -999.25 : No-value
COMP.                : Company
WELL. 6407/1-3       : Well
FLD .                : Field
LOC .                : Location
LATI.                : Latitude
LONG.                : Longitude
GDAT.                : Geodetic datum
CNTY.                : County
STAT.                : State
CTRY.                : Country
SRVC. GeoProvider AS : Service company
DATE.                : Date
API .                : API number
RUN .                : Run number

~Parameters
WellboreName.  : Wellbore name
RigName     .  : Rig name
StartDate   .  : Start date

~Curves
DEPTH.m            .  : null {F}Depth mMD
Hole_ID.-          .  : null {S}Hole ID
GR.API             .  : null {F}Gamma Ray
Lithology1.-       .  : null {S}Lithology 1
Lithology2.-       .  : null {S}Lithology 2
Lithology3.-       .  : null {S}Lithology 3
Lithology1.%       .  : null {F}Lithology 1 percentage
Lithology2.%       .  : null {F}Lithology 2 percentage
Lithology3.%       .  : null {F}Lithology 3 percentage
Grain_size_Top.-   .  : null {S}Grain size at the top 
Grain_size_Base.-  .  : null {S}Grain size at the bottom
Sub_Environment.-  .  : null {S}Sub Environment
Gross_Environment.-.  : null {S}Gross Environment

~Ascii
# ...
3659.50 "6407_1-3" 17.79000 "Sandstone" -999.25 -999.25 100.0000      0.0     0.0 "vc"    "vc"    "Fan-delta_ front,_ with_ strong_ deegree_ of_ both_ wave-reworking_ and_ fluvial_ input._ Increasingly_ more_ proximal_ upwards._ Large_ XB-interval_ may_ represent_ delta_ front_ mouthbar." "HIGH-ENERGY_ NEARSHORE_ MARINE_ TO_ MARGINAL_ MARINE_ (FAN-DELTA_ BRAIDPLAIN?)_ SETTING._ STRONG_ WAVE_ -ACTION_ REDISTRIBUTES_ HIGH_ INFLUX_ OF_ CLASTIC_ MATERIAL._ CYCLES_ SHOW_ A_ TENDENCY_ TOWARDS_ BECOME_ STEPWISE_ SLIGHTLY_ MORE_ DISTAL_ UPWARDS."
3659.60 "6407_1-3" 17.34000 "Sandstone" -999.25 -999.25 100.0000      0.0     0.0 "vc"    "vc"    "Fan-delta_ front,_ with_ strong_ deegree_ of_ both_ wave-reworking_ and_ fluvial_ input._ Increasingly_ more_ proximal_ upwards._ Large_ XB-interval_ may_ represent_ delta_ front_ mouthbar." "HIGH-ENERGY_ NEARSHORE_ MARINE_ TO_ MARGINAL_ MARINE_ (FAN-DELTA_ BRAIDPLAIN?)_ SETTING._ STRONG_ WAVE_ -ACTION_ REDISTRIBUTES_ HIGH_ INFLUX_ OF_ CLASTIC_ MATERIAL._ CYCLES_ SHOW_ A_ TENDENCY_ TOWARDS_ BECOME_ STEPWISE_ SLIGHTLY_ MORE_ DISTAL_ UPWARDS."
3659.70 "6407_1-3" 16.89000 "Sandstone" -999.25 -999.25 100.0000      0.0     0.0 "vc"    "vc"    "Fan-delta_ front,_ with_ strong_ deegree_ of_ both_ wave-reworking_ and_ fluvial_ input._ Increasingly_ more_ proximal_ upwards._ Large_ XB-interval_ may_ represent_ delta_ front_ mouthbar." "HIGH-ENERGY_ NEARSHORE_ MARINE_ TO_ MARGINAL_ MARINE_ (FAN-DELTA_ BRAIDPLAIN?)_ SETTING._ STRONG_ WAVE_ -ACTION_ REDISTRIBUTES_ HIGH_ INFLUX_ OF_ CLASTIC_ MATERIAL._ CYCLES_ SHOW_ A_ TENDENCY_ TOWARDS_ BECOME_ STEPWISE_ SLIGHTLY_ MORE_ DISTAL_ UPWARDS."
3659.80 "6407_1-3" 16.44000 "Sandstone" -999.25 -999.25 100.0000      0.0     0.0 "vc"    "vc"    "Fan-delta_ front,_ with_ strong_ deegree_ of_ both_ wave-reworking_ and_ fluvial_ input._ Increasingly_ more_ proximal_ upwards._ Large_ XB-interval_ may_ represent_ delta_ front_ mouthbar." "HIGH-ENERGY_ NEARSHORE_ MARINE_ TO_ MARGINAL_ MARINE_ (FAN-DELTA_ BRAIDPLAIN?)_ SETTING._ STRONG_ WAVE_ -ACTION_ REDISTRIBUTES_ HIGH_ INFLUX_ OF_ CLASTIC_ MATERIAL._ CYCLES_ SHOW_ A_ TENDENCY_ TOWARDS_ BECOME_ STEPWISE_ SLIGHTLY_ MORE_ DISTAL_ UPWARDS."
3659.90 "6407_1-3" 16.00000 "Sandstone" -999.25 -999.25 100.0000      0.0     0.0 "vc"    "vc"    "Fan-delta_ front,_ with_ strong_ deegree_ of_ both_ wave-reworking_ and_ fluvial_ input._ Increasingly_ more_ proximal_ upwards._ Large_ XB-interval_ may_ represent_ delta_ front_ mouthbar." "HIGH-ENERGY_ NEARSHORE_ MARINE_ TO_ MARGINAL_ MARINE_ (FAN-DELTA_ BRAIDPLAIN?)_ SETTING._ STRONG_ WAVE_ -ACTION_ REDISTRIBUTES_ HIGH_ INFLUX_ OF_ CLASTIC_ MATERIAL._ CYCLES_ SHOW_ A_ TENDENCY_ TOWARDS_ BECOME_ STEPWISE_ SLIGHTLY_ MORE_ DISTAL_ UPWARDS."
3660.00 "6407_1-3" 15.75000 "Sandstone" -999.25 -999.25 100.0000      0.0     0.0 "c"     "c"     "Fan-delta_ front,_ with_ strong_ deegree_ of_ both_ wave-reworking_ and_ fluvial_ input._ Increasingly_ more_ proximal_ upwards._ Large_ XB-interval_ may_ represent_ delta_ front_ mouthbar." "HIGH-ENERGY_ NEARSHORE_ MARINE_ TO_ MARGINAL_ MARINE_ (FAN-DELTA_ BRAIDPLAIN?)_ SETTING._ STRONG_ WAVE_ -ACTION_ REDISTRIBUTES_ HIGH_ INFLUX_ OF_ CLASTIC_ MATERIAL._ CYCLES_ SHOW_ A_ TENDENCY_ TOWARDS_ BECOME_ STEPWISE_ SLIGHTLY_ MORE_ DISTAL_ UPWARDS."
3660.10 "6407_1-3" 15.49000 "Sandstone" -999.25 -999.25 100.0000      0.0     0.0 "c"     "c"     "Fan-delta_ front,_ with_ strong_ deegree_ of_ both_ wave-reworking_ and_ fluvial_ input._ Increasingly_ more_ proximal_ upwards._ Large_ XB-interval_ may_ represent_ delta_ front_ mouthbar." "HIGH-ENERGY_ NEARSHORE_ MARINE_ TO_ MARGINAL_ MARINE_ (FAN-DELTA_ BRAIDPLAIN?)_ SETTING._ STRONG_ WAVE_ -ACTION_ REDISTRIBUTES_ HIGH_ INFLUX_ OF_ CLASTIC_ MATERIAL._ CYCLES_ SHOW_ A_ TENDENCY_ TOWARDS_ BECOME_ STEPWISE_ SLIGHTLY_ MORE_ DISTAL_ UPWARDS."
3660.20 "6407_1-3" 15.23000 "Sandstone" -999.25 -999.25 100.0000      0.0     0.0 "c"     "c"     "Fan-delta_ front,_ with_ strong_ deegree_ of_ both_ wave-reworking_ and_ fluvial_ input._ Increasingly_ more_ proximal_ upwards._ Large_ XB-interval_ may_ represent_ delta_ front_ mouthbar." "HIGH-ENERGY_ NEARSHORE_ MARINE_ TO_ MARGINAL_ MARINE_ (FAN-DELTA_ BRAIDPLAIN?)_ SETTING._ STRONG_ WAVE_ -ACTION_ REDISTRIBUTES_ HIGH_ INFLUX_ OF_ CLASTIC_ MATERIAL._ CYCLES_ SHOW_ A_ TENDENCY_ TOWARDS_ BECOME_ STEPWISE_ SLIGHTLY_ MORE_ DISTAL_ UPWARDS."
3660.30 "6407_1-3" 14.98000 "Sandstone" -999.25 -999.25 100.0000      0.0     0.0 "c"     "c"     "Fan-delta_ front,_ with_ strong_ deegree_ of_ both_ wave-reworking_ and_ fluvial_ input._ Increasingly_ more_ proximal_ upwards._ Large_ XB-interval_ may_ represent_ delta_ front_ mouthbar." "HIGH-ENERGY_ NEARSHORE_ MARINE_ TO_ MARGINAL_ MARINE_ (FAN-DELTA_ BRAIDPLAIN?)_ SETTING._ STRONG_ WAVE_ -ACTION_ REDISTRIBUTES_ HIGH_ INFLUX_ OF_ CLASTIC_ MATERIAL._ CYCLES_ SHOW_ A_ TENDENCY_ TOWARDS_ BECOME_ STEPWISE_ SLIGHTLY_ MORE_ DISTAL_ UPWARDS."
3660.40 "6407_1-3" 14.84000 "Sandstone" -999.25 -999.25 100.0000      0.0     0.0 "c"     "c"     "Fan-delta_ front,_ with_ strong_ deegree_ of_ both_ wave-reworking_ and_ fluvial_ input._ Increasingly_ more_ proximal_ upwards._ Large_ XB-interval_ may_ represent_ delta_ front_ mouthbar." "HIGH-ENERGY_ NEARSHORE_ MARINE_ TO_ MARGINAL_ MARINE_ (FAN-DELTA_ BRAIDPLAIN?)_ SETTING._ STRONG_ WAVE_ -ACTION_ REDISTRIBUTES_ HIGH_ INFLUX_ OF_ CLASTIC_ MATERIAL._ CYCLES_ SHOW_ A_ TENDENCY_ TOWARDS_ BECOME_ STEPWISE_ SLIGHTLY_ MORE_ DISTAL_ UPWARDS."
3660.50 "6407_1-3" 14.94000 "Sandstone" -999.25 -999.25 100.0000      0.0     0.0 "c"     "c"     "Fan-delta_ front,_ with_ strong_ deegree_ of_ both_ wave-reworking_ and_ fluvial_ input._ Increasingly_ more_ proximal_ upwards._ Large_ XB-interval_ may_ represent_ delta_ front_ mouthbar." "HIGH-ENERGY_ NEARSHORE_ MARINE_ TO_ MARGINAL_ MARINE_ (FAN-DELTA_ BRAIDPLAIN?)_ SETTING._ STRONG_ WAVE_ -ACTION_ REDISTRIBUTES_ HIGH_ INFLUX_ OF_ CLASTIC_ MATERIAL._ CYCLES_ SHOW_ A_ TENDENCY_ TOWARDS_ BECOME_ STEPWISE_ SLIGHTLY_ MORE_ DISTAL_ UPWARDS."
3660.60 "6407_1-3" 15.04000 "Sandstone" -999.25 -999.25 100.0000      0.0     0.0 "c"     "c"     "Fan-delta_ front,_ with_ strong_ deegree_ of_ both_ wave-reworking_ and_ fluvial_ input._ Increasingly_ more_ proximal_ upwards._ Large_ XB-interval_ may_ represent_ delta_ front_ mouthbar." "HIGH-ENERGY_ NEARSHORE_ MARINE_ TO_ MARGINAL_ MARINE_ (FAN-DELTA_ BRAIDPLAIN?)_ SETTING._ STRONG_ WAVE_ -ACTION_ REDISTRIBUTES_ HIGH_ INFLUX_ OF_ CLASTIC_ MATERIAL._ CYCLES_ SHOW_ A_ TENDENCY_ TOWARDS_ BECOME_ STEPWISE_ SLIGHTLY_ MORE_ DISTAL_ UPWARDS."
3660.70 "6407_1-3" 15.14000 "Sandstone" -999.25 -999.25 100.0000      0.0     0.0 "c"     "c"     "Fan-delta_ front,_ with_ strong_ deegree_ of_ both_ wave-reworking_ and_ fluvial_ input._ Increasingly_ more_ proximal_ upwards._ Large_ XB-interval_ may_ represent_ delta_ front_ mouthbar." "HIGH-ENERGY_ NEARSHORE_ MARINE_ TO_ MARGINAL_ MARINE_ (FAN-DELTA_ BRAIDPLAIN?)_ SETTING._ STRONG_ WAVE_ -ACTION_ REDISTRIBUTES_ HIGH_ INFLUX_ OF_ CLASTIC_ MATERIAL._ CYCLES_ SHOW_ A_ TENDENCY_ TOWARDS_ BECOME_ STEPWISE_ SLIGHTLY_ MORE_ DISTAL_ UPWARDS."
3660.80 "6407_1-3" 15.24000 "Sandstone" -999.25 -999.25 100.0000      0.0     0.0 "c"     "c"     "Fan-delta_ front,_ with_ strong_ deegree_ of_ both_ wave-reworking_ and_ fluvial_ input._ Increasingly_ more_ proximal_ upwards._ Large_ XB-interval_ may_ represent_ delta_ front_ mouthbar." "HIGH-ENERGY_ NEARSHORE_ MARINE_ TO_ MARGINAL_ MARINE_ (FAN-DELTA_ BRAIDPLAIN?)_ SETTING._ STRONG_ WAVE_ -ACTION_ REDISTRIBUTES_ HIGH_ INFLUX_ OF_ CLASTIC_ MATERIAL._ CYCLES_ SHOW_ A_ TENDENCY_ TOWARDS_ BECOME_ STEPWISE_ SLIGHTLY_ MORE_ DISTAL_ UPWARDS."
3660.90 "6407_1-3" 15.42000 "Sandstone" -999.25 -999.25 100.0000      0.0     0.0 "c"     "c"     "Fan-delta_ front,_ with_ strong_ deegree_ of_ both_ wave-reworking_ and_ fluvial_ input._ Increasingly_ more_ proximal_ upwards._ Large_ XB-interval_ may_ represent_ delta_ front_ mouthbar." "HIGH-ENERGY_ NEARSHORE_ MARINE_ TO_ MARGINAL_ MARINE_ (FAN-DELTA_ BRAIDPLAIN?)_ SETTING._ STRONG_ WAVE_ -ACTION_ REDISTRIBUTES_ HIGH_ INFLUX_ OF_ CLASTIC_ MATERIAL._ CYCLES_ SHOW_ A_ TENDENCY_ TOWARDS_ BECOME_ STEPWISE_ SLIGHTLY_ MORE_ DISTAL_ UPWARDS."
