~Version
VERS  .                                 3.0 : CWLS LAS ASCII Standard - Version 3.0
WRAP  . NO                                  : One line per depth step
DLM   . SPACE                               : Column data section delimiter
SOURCE. Converted to LAS by Log Studio 4.76 : GeoProvider

~Well
STRT.        3619.00 : Start depth
STOP.        3758.00 : Stop depth
STEP.              1 : Step
NULL.        -999.25 : No-value
COMP.                : Company
WELL. 6407/1-3       : Well
FLD .                : Field
LOC .                : Location
LATI.                : Latitude
LONG.                : Longitude
GDAT.                : Geodetic datum
CNTY.                : County
STAT.                : State
CTRY.                : Country
SRVC. GeoProvider AS : Service company
DATE.                : Date
API .                : API number
RUN .                : Run number

~Parameters
WellboreName.  : Wellbore name
RigName     .  : Rig name
StartDate   .  : Start date

~Curves
DEPTH.m            .  : null {F}Depth mMD
Hole_ID.-          .  : null {S}Hole ID
GR.API             .  : null {F}Gamma Ray
Lithology1.-       .  : null {S}Lithology 1
Lithology2.-       .  : null {S}Lithology 2
Lithology3.-       .  : null {S}Lithology 3
Lithology1.%       .  : null {F}Lithology 1 percentage
Lithology2.%       .  : null {F}Lithology 2 percentage
Lithology3.%       .  : null {F}Lithology 3 percentage
Grain_size_Top.-   .  : null {S}Grain size at the top 
Grain_size_Base.-  .  : null {S}Grain size at the bottom
Sub_Environment.-  .  : null {S}Sub Environment
Gross_Environment.-.  : null {S}Gross Environment

~Ascii
# ...
3751.00 "6407_1-3" 59.21000 "Sandstone" "Shale" -999.25  88.0000 12.00000     0.0 "f/m"   "f"     "Outer_ bay,_ influenced_ both_ by_ wave_ and_ tidal_ currents"                                                                                                                               "LOWER_ DELTA_ PLAIN"                                                                                                                                                                                                                                       
3751.10 "6407_1-3" 58.65000 "Sandstone" "Shale" -999.25  88.0000 12.00000     0.0 "f/m"   "f"     "Outer_ bay,_ influenced_ both_ by_ wave_ and_ tidal_ currents"                                                                                                                               "LOWER_ DELTA_ PLAIN"                                                                                                                                                                                                                                       
3751.20 "6407_1-3" 58.64000 "Sandstone" "Shale" -999.25  88.0000 12.00000     0.0 "f/m"   "f"     "Outer_ bay,_ influenced_ both_ by_ wave_ and_ tidal_ currents"                                                                                                                               "LOWER_ DELTA_ PLAIN"                                                                                                                                                                                                                                       
3751.30 "6407_1-3" 58.61000 "Sandstone" "Shale" -999.25  88.0000 12.00000     0.0 "f/m"   "f"     "Outer_ bay,_ influenced_ both_ by_ wave_ and_ tidal_ currents"                                                                                                                               "LOWER_ DELTA_ PLAIN"                                                                                                                                                                                                                                       
3751.40 "6407_1-3" 57.48000 "Sandstone" "Shale" -999.25  88.0000 12.00000     0.0 "f/m"   "f"     "Outer_ bay,_ influenced_ both_ by_ wave_ and_ tidal_ currents"                                                                                                                               "LOWER_ DELTA_ PLAIN"                                                                                                                                                                                                                                       
3751.50 "6407_1-3" 56.35000 "Sandstone" "Shale" -999.25  88.0000 12.00000     0.0 "f/m"   "f"     "Outer_ bay,_ influenced_ both_ by_ wave_ and_ tidal_ currents"                                                                                                                               "LOWER_ DELTA_ PLAIN"                                                                                                                                                                                                                                       
3751.60 "6407_1-3" 55.21000 "Sandstone" "Shale" -999.25  88.0000 12.00000     0.0 "f/m"   "f"     "Outer_ bay,_ influenced_ both_ by_ wave_ and_ tidal_ currents"                                                                                                                               "LOWER_ DELTA_ PLAIN"                                                                                                                                                                                                                                       
3751.70 "6407_1-3" 54.08000 "Sandstone" "Shale" -999.25  88.0000 12.00000     0.0 "f/m"   "f"     "Outer_ bay,_ influenced_ both_ by_ wave_ and_ tidal_ currents"                                                                                                                               "LOWER_ DELTA_ PLAIN"                                                                                                                                                                                                                                       
3751.80 "6407_1-3" 52.95000 "Sandstone" "Shale" -999.25  88.0000 12.00000     0.0 "f/m"   "f"     "Outer_ bay,_ influenced_ both_ by_ wave_ and_ tidal_ currents"                                                                                                                               "LOWER_ DELTA_ PLAIN"                                                                                                                                                                                                                                       
3751.90 "6407_1-3" 51.82000 "Sandstone" "Shale" -999.25  88.0000 12.00000     0.0 "f/m"   "f"     "Outer_ bay,_ influenced_ both_ by_ wave_ and_ tidal_ currents"                                                                                                                               "LOWER_ DELTA_ PLAIN"                                                                                                                                                                                                                                       
3752.00 "6407_1-3" 50.68000 "Sandstone" "Shale" -999.25  88.0000 12.00000     0.0 "f/m"   "f"     "Outer_ bay,_ influenced_ both_ by_ wave_ and_ tidal_ currents"                                                                                                                               "LOWER_ DELTA_ PLAIN"                                                                                                                                                                                                                                       
3752.10 "6407_1-3" 58.02000 "Sandstone" "Shale" -999.25  88.0000 12.00000     0.0 "f/m"   "f"     "Outer_ bay,_ influenced_ both_ by_ wave_ and_ tidal_ currents"                                                                                                                               "LOWER_ DELTA_ PLAIN"                                                                                                                                                                                                                                       
3752.20 "6407_1-3" 19.93000 "Sandstone" "Shale" -999.25  88.0000 12.00000     0.0 "f/m"   "f"     "Outer_ bay,_ influenced_ both_ by_ wave_ and_ tidal_ currents"                                                                                                                               "LOWER_ DELTA_ PLAIN"                                                                                                                                                                                                                                       
3752.30 "6407_1-3" 31.84000 "Sandstone" "Shale" -999.25  88.0000 12.00000     0.0 "f/m"   "f"     "Outer_ bay,_ influenced_ both_ by_ wave_ and_ tidal_ currents"                                                                                                                               "LOWER_ DELTA_ PLAIN"                                                                                                                                                                                                                                       
3752.40 "6407_1-3" 43.76000 "Sandstone" "Shale" -999.25  88.0000 12.00000     0.0 "f/m"   "f"     "Outer_ bay,_ influenced_ both_ by_ wave_ and_ tidal_ currents"                                                                                                                               "LOWER_ DELTA_ PLAIN"                                                                                                                                                                                                                                       
