~Version
VERS  .                                 3.0 : CWLS LAS ASCII Standard - Version 3.0
WRAP  . NO                                  : One line per depth step
DLM   . SPACE                               : Column data section delimiter
SOURCE. Converted to LAS by Log Studio 4.76 : GeoProvider

~Well
STRT.        3619.00 : Start depth
STOP.        3758.00 : Stop depth
STEP.              1 : Step
NULL.        -999.25 : No-value
COMP.                : Company
WELL. 6407/1-3       : Well
FLD .                : Field
LOC .                : Location
LATI.                : Latitude
LONG.                : Longitude
GDAT.                : Geodetic datum
CNTY.                : County
STAT.                : State
CTRY.                : Country
SRVC. GeoProvider AS : Service company
DATE.                : Date
API .                : API number
RUN .                : Run number

~Parameters
WellboreName.  : Wellbore name
RigName     .  : Rig name
StartDate   .  : Start date

~Curves
DEPTH.m            .  : null {F}Depth mMD
Hole_ID.-          .  : null {S}Hole ID
GR.API             .  : null {F}Gamma Ray
Lithology1.-       .  : null {S}Lithology 1
Lithology2.-       .  : null {S}Lithology 2
Lithology3.-       .  : null {S}Lithology 3
Lithology1.%       .  : null {F}Lithology 1 percentage
Lithology2.%       .  : null {F}Lithology 2 percentage
Lithology3.%       .  : null {F}Lithology 3 percentage
Grain_size_Top.-   .  : null {S}Grain size at the top 
Grain_size_Base.-  .  : null {S}Grain size at the bottom
Sub_Environment.-  .  : null {S}Sub Environment
Gross_Environment.-.  : null {S}Gross Environment

~Ascii
# ...
3665.50 "6407_1-3" 15.23000 "Sandstone" -999.25 -999.25 100.0000      0.0     0.0 "c"     "c"     "Fan-delta_ front,_ with_ strong_ deegree_ of_ both_ wave-reworking_ and_ fluvial_ input._ Increasingly_ more_ proximal_ upwards._ Large_ XB-interval_ may_ represent_ delta_ front_ mouthbar." "HIGH-ENERGY_ NEARSHORE_ MARINE_ TO_ MARGINAL_ MARINE_ (FAN-DELTA_ BRAIDPLAIN?)_ SETTING._ STRONG_ WAVE_ -ACTION_ REDISTRIBUTES_ HIGH_ INFLUX_ OF_ CLASTIC_ MATERIAL._ CYCLES_ SHOW_ A_ TENDENCY_ TOWARDS_ BECOME_ STEPWISE_ SLIGHTLY_ MORE_ DISTAL_ UPWARDS."
3665.60 "6407_1-3" 14.94000 "Sandstone" -999.25 -999.25 100.0000      0.0     0.0 "c"     "c"     "Fan-delta_ front,_ with_ strong_ deegree_ of_ both_ wave-reworking_ and_ fluvial_ input._ Increasingly_ more_ proximal_ upwards._ Large_ XB-interval_ may_ represent_ delta_ front_ mouthbar." "HIGH-ENERGY_ NEARSHORE_ MARINE_ TO_ MARGINAL_ MARINE_ (FAN-DELTA_ BRAIDPLAIN?)_ SETTING._ STRONG_ WAVE_ -ACTION_ REDISTRIBUTES_ HIGH_ INFLUX_ OF_ CLASTIC_ MATERIAL._ CYCLES_ SHOW_ A_ TENDENCY_ TOWARDS_ BECOME_ STEPWISE_ SLIGHTLY_ MORE_ DISTAL_ UPWARDS."
3665.70 "6407_1-3" 15.01000 "Sandstone" -999.25 -999.25 100.0000      0.0     0.0 "c"     "c"     "Fan-delta_ front,_ with_ strong_ deegree_ of_ both_ wave-reworking_ and_ fluvial_ input._ Increasingly_ more_ proximal_ upwards._ Large_ XB-interval_ may_ represent_ delta_ front_ mouthbar." "HIGH-ENERGY_ NEARSHORE_ MARINE_ TO_ MARGINAL_ MARINE_ (FAN-DELTA_ BRAIDPLAIN?)_ SETTING._ STRONG_ WAVE_ -ACTION_ REDISTRIBUTES_ HIGH_ INFLUX_ OF_ CLASTIC_ MATERIAL._ CYCLES_ SHOW_ A_ TENDENCY_ TOWARDS_ BECOME_ STEPWISE_ SLIGHTLY_ MORE_ DISTAL_ UPWARDS."
3665.80 "6407_1-3" 15.09000 "Sandstone" -999.25 -999.25 100.0000      0.0     0.0 "c"     "c"     "Fan-delta_ front,_ with_ strong_ deegree_ of_ both_ wave-reworking_ and_ fluvial_ input._ Increasingly_ more_ proximal_ upwards._ Large_ XB-interval_ may_ represent_ delta_ front_ mouthbar." "HIGH-ENERGY_ NEARSHORE_ MARINE_ TO_ MARGINAL_ MARINE_ (FAN-DELTA_ BRAIDPLAIN?)_ SETTING._ STRONG_ WAVE_ -ACTION_ REDISTRIBUTES_ HIGH_ INFLUX_ OF_ CLASTIC_ MATERIAL._ CYCLES_ SHOW_ A_ TENDENCY_ TOWARDS_ BECOME_ STEPWISE_ SLIGHTLY_ MORE_ DISTAL_ UPWARDS."
3665.90 "6407_1-3" 15.16000 "Sandstone" -999.25 -999.25 100.0000      0.0     0.0 "c"     "c"     "Fan-delta_ front,_ with_ strong_ deegree_ of_ both_ wave-reworking_ and_ fluvial_ input._ Increasingly_ more_ proximal_ upwards._ Large_ XB-interval_ may_ represent_ delta_ front_ mouthbar." "HIGH-ENERGY_ NEARSHORE_ MARINE_ TO_ MARGINAL_ MARINE_ (FAN-DELTA_ BRAIDPLAIN?)_ SETTING._ STRONG_ WAVE_ -ACTION_ REDISTRIBUTES_ HIGH_ INFLUX_ OF_ CLASTIC_ MATERIAL._ CYCLES_ SHOW_ A_ TENDENCY_ TOWARDS_ BECOME_ STEPWISE_ SLIGHTLY_ MORE_ DISTAL_ UPWARDS."
3666.00 "6407_1-3" 15.23000 "Sandstone" -999.25 -999.25 100.0000      0.0     0.0 "c"     "c"     "Fan-delta_ front,_ with_ strong_ deegree_ of_ both_ wave-reworking_ and_ fluvial_ input._ Increasingly_ more_ proximal_ upwards._ Large_ XB-interval_ may_ represent_ delta_ front_ mouthbar." "HIGH-ENERGY_ NEARSHORE_ MARINE_ TO_ MARGINAL_ MARINE_ (FAN-DELTA_ BRAIDPLAIN?)_ SETTING._ STRONG_ WAVE_ -ACTION_ REDISTRIBUTES_ HIGH_ INFLUX_ OF_ CLASTIC_ MATERIAL._ CYCLES_ SHOW_ A_ TENDENCY_ TOWARDS_ BECOME_ STEPWISE_ SLIGHTLY_ MORE_ DISTAL_ UPWARDS."
3666.10 "6407_1-3" 14.88000 "Sandstone" -999.25 -999.25 100.0000      0.0     0.0 "c"     "c"     "Fan-delta_ front,_ with_ strong_ deegree_ of_ both_ wave-reworking_ and_ fluvial_ input._ Increasingly_ more_ proximal_ upwards._ Large_ XB-interval_ may_ represent_ delta_ front_ mouthbar." "HIGH-ENERGY_ NEARSHORE_ MARINE_ TO_ MARGINAL_ MARINE_ (FAN-DELTA_ BRAIDPLAIN?)_ SETTING._ STRONG_ WAVE_ -ACTION_ REDISTRIBUTES_ HIGH_ INFLUX_ OF_ CLASTIC_ MATERIAL._ CYCLES_ SHOW_ A_ TENDENCY_ TOWARDS_ BECOME_ STEPWISE_ SLIGHTLY_ MORE_ DISTAL_ UPWARDS."
3666.20 "6407_1-3" 14.43000 "Sandstone" -999.25 -999.25 100.0000      0.0     0.0 "c"     "c"     "Fan-delta_ front,_ with_ strong_ deegree_ of_ both_ wave-reworking_ and_ fluvial_ input._ Increasingly_ more_ proximal_ upwards._ Large_ XB-interval_ may_ represent_ delta_ front_ mouthbar." "HIGH-ENERGY_ NEARSHORE_ MARINE_ TO_ MARGINAL_ MARINE_ (FAN-DELTA_ BRAIDPLAIN?)_ SETTING._ STRONG_ WAVE_ -ACTION_ REDISTRIBUTES_ HIGH_ INFLUX_ OF_ CLASTIC_ MATERIAL._ CYCLES_ SHOW_ A_ TENDENCY_ TOWARDS_ BECOME_ STEPWISE_ SLIGHTLY_ MORE_ DISTAL_ UPWARDS."
3666.30 "6407_1-3" 14.57000 "Sandstone" -999.25 -999.25 100.0000      0.0     0.0 "c"     "c"     "Fan-delta_ front,_ with_ strong_ deegree_ of_ both_ wave-reworking_ and_ fluvial_ input._ Increasingly_ more_ proximal_ upwards._ Large_ XB-interval_ may_ represent_ delta_ front_ mouthbar." "HIGH-ENERGY_ NEARSHORE_ MARINE_ TO_ MARGINAL_ MARINE_ (FAN-DELTA_ BRAIDPLAIN?)_ SETTING._ STRONG_ WAVE_ -ACTION_ REDISTRIBUTES_ HIGH_ INFLUX_ OF_ CLASTIC_ MATERIAL._ CYCLES_ SHOW_ A_ TENDENCY_ TOWARDS_ BECOME_ STEPWISE_ SLIGHTLY_ MORE_ DISTAL_ UPWARDS."
3666.40 "6407_1-3" 15.08000 "Sandstone" -999.25 -999.25 100.0000      0.0     0.0 "c"     "c"     "Fan-delta_ front,_ with_ strong_ deegree_ of_ both_ wave-reworking_ and_ fluvial_ input._ Increasingly_ more_ proximal_ upwards._ Large_ XB-interval_ may_ represent_ delta_ front_ mouthbar." "HIGH-ENERGY_ NEARSHORE_ MARINE_ TO_ MARGINAL_ MARINE_ (FAN-DELTA_ BRAIDPLAIN?)_ SETTING._ STRONG_ WAVE_ -ACTION_ REDISTRIBUTES_ HIGH_ INFLUX_ OF_ CLASTIC_ MATERIAL._ CYCLES_ SHOW_ A_ TENDENCY_ TOWARDS_ BECOME_ STEPWISE_ SLIGHTLY_ MORE_ DISTAL_ UPWARDS."
3666.50 "6407_1-3" 15.25000 "Sandstone" -999.25 -999.25 100.0000      0.0     0.0 "c"     "c"     "Fan-delta_ front,_ with_ strong_ deegree_ of_ both_ wave-reworking_ and_ fluvial_ input._ Increasingly_ more_ proximal_ upwards._ Large_ XB-interval_ may_ represent_ delta_ front_ mouthbar." "HIGH-ENERGY_ NEARSHORE_ MARINE_ TO_ MARGINAL_ MARINE_ (FAN-DELTA_ BRAIDPLAIN?)_ SETTING._ STRONG_ WAVE_ -ACTION_ REDISTRIBUTES_ HIGH_ INFLUX_ OF_ CLASTIC_ MATERIAL._ CYCLES_ SHOW_ A_ TENDENCY_ TOWARDS_ BECOME_ STEPWISE_ SLIGHTLY_ MORE_ DISTAL_ UPWARDS."
3666.60 "6407_1-3" 15.25000 "Sandstone" -999.25 -999.25 100.0000      0.0     0.0 "c"     "c"     "Fan-delta_ front,_ with_ strong_ deegree_ of_ both_ wave-reworking_ and_ fluvial_ input._ Increasingly_ more_ proximal_ upwards._ Large_ XB-interval_ may_ represent_ delta_ front_ mouthbar." "HIGH-ENERGY_ NEARSHORE_ MARINE_ TO_ MARGINAL_ MARINE_ (FAN-DELTA_ BRAIDPLAIN?)_ SETTING._ STRONG_ WAVE_ -ACTION_ REDISTRIBUTES_ HIGH_ INFLUX_ OF_ CLASTIC_ MATERIAL._ CYCLES_ SHOW_ A_ TENDENCY_ TOWARDS_ BECOME_ STEPWISE_ SLIGHTLY_ MORE_ DISTAL_ UPWARDS."
3666.70 "6407_1-3" 15.13000 "Sandstone" -999.25 -999.25 100.0000      0.0     0.0 "c"     "c"     "Fan-delta_ front,_ with_ strong_ deegree_ of_ both_ wave-reworking_ and_ fluvial_ input._ Increasingly_ more_ proximal_ upwards._ Large_ XB-interval_ may_ represent_ delta_ front_ mouthbar." "HIGH-ENERGY_ NEARSHORE_ MARINE_ TO_ MARGINAL_ MARINE_ (FAN-DELTA_ BRAIDPLAIN?)_ SETTING._ STRONG_ WAVE_ -ACTION_ REDISTRIBUTES_ HIGH_ INFLUX_ OF_ CLASTIC_ MATERIAL._ CYCLES_ SHOW_ A_ TENDENCY_ TOWARDS_ BECOME_ STEPWISE_ SLIGHTLY_ MORE_ DISTAL_ UPWARDS."
3666.80 "6407_1-3" 14.86000 "Sandstone" -999.25 -999.25 100.0000      0.0     0.0 "c"     "c"     "Fan-delta_ front,_ with_ strong_ deegree_ of_ both_ wave-reworking_ and_ fluvial_ input._ Increasingly_ more_ proximal_ upwards._ Large_ XB-interval_ may_ represent_ delta_ front_ mouthbar." "HIGH-ENERGY_ NEARSHORE_ MARINE_ TO_ MARGINAL_ MARINE_ (FAN-DELTA_ BRAIDPLAIN?)_ SETTING._ STRONG_ WAVE_ -ACTION_ REDISTRIBUTES_ HIGH_ INFLUX_ OF_ CLASTIC_ MATERIAL._ CYCLES_ SHOW_ A_ TENDENCY_ TOWARDS_ BECOME_ STEPWISE_ SLIGHTLY_ MORE_ DISTAL_ UPWARDS."
3666.90 "6407_1-3" 14.60000 "Sandstone" -999.25 -999.25 100.0000      0.0     0.0 "c"     "c"     "Fan-delta_ front,_ with_ strong_ deegree_ of_ both_ wave-reworking_ and_ fluvial_ input._ Increasingly_ more_ proximal_ upwards._ Large_ XB-interval_ may_ represent_ delta_ front_ mouthbar." "HIGH-ENERGY_ NEARSHORE_ MARINE_ TO_ MARGINAL_ MARINE_ (FAN-DELTA_ BRAIDPLAIN?)_ SETTING._ STRONG_ WAVE_ -ACTION_ REDISTRIBUTES_ HIGH_ INFLUX_ OF_ CLASTIC_ MATERIAL._ CYCLES_ SHOW_ A_ TENDENCY_ TOWARDS_ BECOME_ STEPWISE_ SLIGHTLY_ MORE_ DISTAL_ UPWARDS."
