~Version
VERS  .                                 3.0 : CWLS LAS ASCII Standard - Version 3.0
WRAP  . NO                                  : One line per depth step
DLM   . SPACE                               : Column data section delimiter
SOURCE. Converted to LAS by Log Studio 4.76 : GeoProvider

~Well
STRT.        3619.00 : Start depth
STOP.        3758.00 : Stop depth
STEP.              1 : Step
NULL.        -999.25 : No-value
COMP.                : Company
WELL. 6407/1-3       : Well
FLD .                : Field
LOC .                : Location
LATI.                : Latitude
LONG.                : Longitude
GDAT.                : Geodetic datum
CNTY.                : County
STAT.                : State
CTRY.                : Country
SRVC. GeoProvider AS : Service company
DATE.                : Date
API .                : API number
RUN .                : Run number

~Parameters
WellboreName.  : Wellbore name
RigName     .  : Rig name
StartDate   .  : Start date

~Curves
DEPTH.m            .  : null {F}Depth mMD
Hole_ID.-          .  : null {S}Hole ID
GR.API             .  : null {F}Gamma Ray
Lithology1.-       .  : null {S}Lithology 1
Lithology2.-       .  : null {S}Lithology 2
Lithology3.-       .  : null {S}Lithology 3
Lithology1.%       .  : null {F}Lithology 1 percentage
Lithology2.%       .  : null {F}Lithology 2 percentage
Lithology3.%       .  : null {F}Lithology 3 percentage
Grain_size_Top.-   .  : null {S}Grain size at the top 
Grain_size_Base.-  .  : null {S}Grain size at the bottom
Sub_Environment.-  .  : null {S}Sub Environment
Gross_Environment.-.  : null {S}Gross Environment

~Ascii
# ...
3632.50 "6407_1-3" 18.57000 "Sandstone" -999.25 -999.25 100.0000      0.0     0.0 "m"     "m/c"   "Minor_ cycle,_ middle_ to_ upper_ shoreface_ _ _ _ _ _ _ _ _ _ TRANSGRESSIVE_ PULSE"                                                                                                         "HIGH-ENERGY_ NEARSHORE_ MARINE_ TO_ MARGINAL_ MARINE_ (FAN-DELTA_ BRAIDPLAIN?)_ SETTING._ STRONG_ WAVE_ -ACTION_ REDISTRIBUTES_ HIGH_ INFLUX_ OF_ CLASTIC_ MATERIAL._ CYCLES_ SHOW_ A_ TENDENCY_ TOWARDS_ BECOME_ STEPWISE_ SLIGHTLY_ MORE_ DISTAL_ UPWARDS."
3632.60 "6407_1-3" 19.42000 "Sandstone" -999.25 -999.25 100.0000      0.0     0.0 "m"     "m/c"   "Minor_ cycle,_ middle_ to_ upper_ shoreface_ _ _ _ _ _ _ _ _ _ TRANSGRESSIVE_ PULSE"                                                                                                         "HIGH-ENERGY_ NEARSHORE_ MARINE_ TO_ MARGINAL_ MARINE_ (FAN-DELTA_ BRAIDPLAIN?)_ SETTING._ STRONG_ WAVE_ -ACTION_ REDISTRIBUTES_ HIGH_ INFLUX_ OF_ CLASTIC_ MATERIAL._ CYCLES_ SHOW_ A_ TENDENCY_ TOWARDS_ BECOME_ STEPWISE_ SLIGHTLY_ MORE_ DISTAL_ UPWARDS."
3632.70 "6407_1-3" 20.27000 "Sandstone" -999.25 -999.25 100.0000      0.0     0.0 "m"     "m/c"   "Minor_ cycle,_ middle_ to_ upper_ shoreface_ _ _ _ _ _ _ _ _ _ TRANSGRESSIVE_ PULSE"                                                                                                         "HIGH-ENERGY_ NEARSHORE_ MARINE_ TO_ MARGINAL_ MARINE_ (FAN-DELTA_ BRAIDPLAIN?)_ SETTING._ STRONG_ WAVE_ -ACTION_ REDISTRIBUTES_ HIGH_ INFLUX_ OF_ CLASTIC_ MATERIAL._ CYCLES_ SHOW_ A_ TENDENCY_ TOWARDS_ BECOME_ STEPWISE_ SLIGHTLY_ MORE_ DISTAL_ UPWARDS."
3632.80 "6407_1-3" 21.12000 "Sandstone" -999.25 -999.25 100.0000      0.0     0.0 "m"     "m/c"   "Minor_ cycle,_ middle_ to_ upper_ shoreface_ _ _ _ _ _ _ _ _ _ TRANSGRESSIVE_ PULSE"                                                                                                         "HIGH-ENERGY_ NEARSHORE_ MARINE_ TO_ MARGINAL_ MARINE_ (FAN-DELTA_ BRAIDPLAIN?)_ SETTING._ STRONG_ WAVE_ -ACTION_ REDISTRIBUTES_ HIGH_ INFLUX_ OF_ CLASTIC_ MATERIAL._ CYCLES_ SHOW_ A_ TENDENCY_ TOWARDS_ BECOME_ STEPWISE_ SLIGHTLY_ MORE_ DISTAL_ UPWARDS."
3632.90 "6407_1-3" 21.96000 "Sandstone" -999.25 -999.25 100.0000      0.0     0.0 "m"     "m/c"   "Minor_ cycle,_ middle_ to_ upper_ shoreface_ _ _ _ _ _ _ _ _ _ TRANSGRESSIVE_ PULSE"                                                                                                         "HIGH-ENERGY_ NEARSHORE_ MARINE_ TO_ MARGINAL_ MARINE_ (FAN-DELTA_ BRAIDPLAIN?)_ SETTING._ STRONG_ WAVE_ -ACTION_ REDISTRIBUTES_ HIGH_ INFLUX_ OF_ CLASTIC_ MATERIAL._ CYCLES_ SHOW_ A_ TENDENCY_ TOWARDS_ BECOME_ STEPWISE_ SLIGHTLY_ MORE_ DISTAL_ UPWARDS."
3633.00 "6407_1-3" 21.72000 "Sandstone" -999.25 -999.25 100.0000      0.0     0.0 "m"     "m/c"   "Minor_ cycle,_ middle_ to_ upper_ shoreface_ _ _ _ _ _ _ _ _ _ TRANSGRESSIVE_ PULSE"                                                                                                         "HIGH-ENERGY_ NEARSHORE_ MARINE_ TO_ MARGINAL_ MARINE_ (FAN-DELTA_ BRAIDPLAIN?)_ SETTING._ STRONG_ WAVE_ -ACTION_ REDISTRIBUTES_ HIGH_ INFLUX_ OF_ CLASTIC_ MATERIAL._ CYCLES_ SHOW_ A_ TENDENCY_ TOWARDS_ BECOME_ STEPWISE_ SLIGHTLY_ MORE_ DISTAL_ UPWARDS."
3633.10 "6407_1-3" 21.32000 "Sandstone" -999.25 -999.25 100.0000      0.0     0.0 "m"     "m/c"   "Minor_ cycle,_ middle_ to_ upper_ shoreface_ _ _ _ _ _ _ _ _ _ TRANSGRESSIVE_ PULSE"                                                                                                         "HIGH-ENERGY_ NEARSHORE_ MARINE_ TO_ MARGINAL_ MARINE_ (FAN-DELTA_ BRAIDPLAIN?)_ SETTING._ STRONG_ WAVE_ -ACTION_ REDISTRIBUTES_ HIGH_ INFLUX_ OF_ CLASTIC_ MATERIAL._ CYCLES_ SHOW_ A_ TENDENCY_ TOWARDS_ BECOME_ STEPWISE_ SLIGHTLY_ MORE_ DISTAL_ UPWARDS."
3633.20 "6407_1-3" 20.62000 "Sandstone" -999.25 -999.25 100.0000      0.0     0.0 "f/m"   "c/vc"  "Minor_ cycle,_ middle_ to_ upper_ shoreface_ _ _ _ _ _ _ _ _ _ TRANSGRESSIVE_ PULSE"                                                                                                         "HIGH-ENERGY_ NEARSHORE_ MARINE_ TO_ MARGINAL_ MARINE_ (FAN-DELTA_ BRAIDPLAIN?)_ SETTING._ STRONG_ WAVE_ -ACTION_ REDISTRIBUTES_ HIGH_ INFLUX_ OF_ CLASTIC_ MATERIAL._ CYCLES_ SHOW_ A_ TENDENCY_ TOWARDS_ BECOME_ STEPWISE_ SLIGHTLY_ MORE_ DISTAL_ UPWARDS."
3633.30 "6407_1-3" 19.89000 "Sandstone" -999.25 -999.25 100.0000      0.0     0.0 "f/m"   "c/vc"  "foreshore_ (wave-swash)_ upper/middle_ shoreface_ TRANSGRESSIVE_ PULSE"                                                                                                                      "HIGH-ENERGY_ NEARSHORE_ MARINE_ TO_ MARGINAL_ MARINE_ (FAN-DELTA_ BRAIDPLAIN?)_ SETTING._ STRONG_ WAVE_ -ACTION_ REDISTRIBUTES_ HIGH_ INFLUX_ OF_ CLASTIC_ MATERIAL._ CYCLES_ SHOW_ A_ TENDENCY_ TOWARDS_ BECOME_ STEPWISE_ SLIGHTLY_ MORE_ DISTAL_ UPWARDS."
3633.40 "6407_1-3" 19.17000 "Sandstone" -999.25 -999.25 100.0000      0.0     0.0 "f/m"   "c/vc"  "foreshore_ (wave-swash)_ upper/middle_ shoreface_ TRANSGRESSIVE_ PULSE"                                                                                                                      "HIGH-ENERGY_ NEARSHORE_ MARINE_ TO_ MARGINAL_ MARINE_ (FAN-DELTA_ BRAIDPLAIN?)_ SETTING._ STRONG_ WAVE_ -ACTION_ REDISTRIBUTES_ HIGH_ INFLUX_ OF_ CLASTIC_ MATERIAL._ CYCLES_ SHOW_ A_ TENDENCY_ TOWARDS_ BECOME_ STEPWISE_ SLIGHTLY_ MORE_ DISTAL_ UPWARDS."
3633.50 "6407_1-3" 18.45000 "Sandstone" -999.25 -999.25 100.0000      0.0     0.0 "f/m"   "c/vc"  "foreshore_ (wave-swash)_ upper/middle_ shoreface_ TRANSGRESSIVE_ PULSE"                                                                                                                      "HIGH-ENERGY_ NEARSHORE_ MARINE_ TO_ MARGINAL_ MARINE_ (FAN-DELTA_ BRAIDPLAIN?)_ SETTING._ STRONG_ WAVE_ -ACTION_ REDISTRIBUTES_ HIGH_ INFLUX_ OF_ CLASTIC_ MATERIAL._ CYCLES_ SHOW_ A_ TENDENCY_ TOWARDS_ BECOME_ STEPWISE_ SLIGHTLY_ MORE_ DISTAL_ UPWARDS."
3633.60 "6407_1-3" 17.88000 "Sandstone" -999.25 -999.25 100.0000      0.0     0.0 "f/m"   "c/vc"  "foreshore_ (wave-swash)_ upper/middle_ shoreface_ TRANSGRESSIVE_ PULSE"                                                                                                                      "HIGH-ENERGY_ NEARSHORE_ MARINE_ TO_ MARGINAL_ MARINE_ (FAN-DELTA_ BRAIDPLAIN?)_ SETTING._ STRONG_ WAVE_ -ACTION_ REDISTRIBUTES_ HIGH_ INFLUX_ OF_ CLASTIC_ MATERIAL._ CYCLES_ SHOW_ A_ TENDENCY_ TOWARDS_ BECOME_ STEPWISE_ SLIGHTLY_ MORE_ DISTAL_ UPWARDS."
3633.70 "6407_1-3" 17.83000 "Sandstone" -999.25 -999.25 100.0000      0.0     0.0 "f/m"   "c/vc"  "foreshore_ (wave-swash)_ upper/middle_ shoreface_ TRANSGRESSIVE_ PULSE"                                                                                                                      "HIGH-ENERGY_ NEARSHORE_ MARINE_ TO_ MARGINAL_ MARINE_ (FAN-DELTA_ BRAIDPLAIN?)_ SETTING._ STRONG_ WAVE_ -ACTION_ REDISTRIBUTES_ HIGH_ INFLUX_ OF_ CLASTIC_ MATERIAL._ CYCLES_ SHOW_ A_ TENDENCY_ TOWARDS_ BECOME_ STEPWISE_ SLIGHTLY_ MORE_ DISTAL_ UPWARDS."
3633.80 "6407_1-3" 17.78000 "Sandstone" -999.25 -999.25 100.0000      0.0     0.0 "f/m"   "c/vc"  "foreshore_ (wave-swash)_ upper/middle_ shoreface_ TRANSGRESSIVE_ PULSE"                                                                                                                      "HIGH-ENERGY_ NEARSHORE_ MARINE_ TO_ MARGINAL_ MARINE_ (FAN-DELTA_ BRAIDPLAIN?)_ SETTING._ STRONG_ WAVE_ -ACTION_ REDISTRIBUTES_ HIGH_ INFLUX_ OF_ CLASTIC_ MATERIAL._ CYCLES_ SHOW_ A_ TENDENCY_ TOWARDS_ BECOME_ STEPWISE_ SLIGHTLY_ MORE_ DISTAL_ UPWARDS."
3633.90 "6407_1-3" 18.13000 "Sandstone" -999.25 -999.25 100.0000      0.0     0.0 "f/m"   "c/vc"  "foreshore_ (wave-swash)_ upper/middle_ shoreface_ TRANSGRESSIVE_ PULSE"                                                                                                                      "HIGH-ENERGY_ NEARSHORE_ MARINE_ TO_ MARGINAL_ MARINE_ (FAN-DELTA_ BRAIDPLAIN?)_ SETTING._ STRONG_ WAVE_ -ACTION_ REDISTRIBUTES_ HIGH_ INFLUX_ OF_ CLASTIC_ MATERIAL._ CYCLES_ SHOW_ A_ TENDENCY_ TOWARDS_ BECOME_ STEPWISE_ SLIGHTLY_ MORE_ DISTAL_ UPWARDS."
