~Version
VERS  .                                 3.0 : CWLS LAS ASCII Standard - Version 3.0
WRAP  . NO                                  : One line per depth step
DLM   . SPACE                               : Column data section delimiter
SOURCE. Converted to LAS by Log Studio 4.76 : GeoProvider

~Well
STRT.         2713.0 : Start depth
STOP.         3118.0 : Stop depth
STEP.              1 : Step
NULL.        -999.25 : No-value
COMP.                : Company
WELL. 6407/7-1       : Well
FLD .                : Field
LOC .                : Location
LATI.                : Latitude
LONG.                : Longitude
GDAT.                : Geodetic datum
CNTY.                : County
STAT.                : State
CTRY.                : Country
SRVC. GeoProvider AS : Service company
DATE.                : Date
API .                : API number
RUN .                : Run number

~Parameters
WellboreName.  : Wellbore name
RigName     .  : Rig name
StartDate   .  : Start date

~Curves
DEPTH.m            .  : null {F}Depth mMD
Hole_ID.-          .  : null {S}Hole ID
GR.API             .  : null {F}Gamma Ray
Lithology1.-       .  : null {S}Lithology 1
Lithology2.-       .  : null {S}Lithology 2
Lithology3.-       .  : null {S}Lithology 3
Lithology1.%       .  : null {F}Lithology 1 percentage
Lithology2.%       .  : null {F}Lithology 2 percentage
Lithology3.%       .  : null {F}Lithology 3 percentage
Grain_size_Top.-   .  : null {S}Grain size at the top 
Grain_size_Base.-  .  : null {S}Grain size at the bottom
Sub_Environment.-  .  : null {S}Sub Environment
Gross_Environment.-.  : null {S}Gross Environment

~Ascii
# ...
2792.8 "6407_7-1" 100.4300 "Sandstone" "Claystone" -999.25  30.0000 70.00000 0.0 "silt/vf"  "f"        -999.25                                                                                                                 -999.25                                                                                                                                                                 
2792.9 "6407_7-1" 101.6300 "Sandstone" "Claystone" -999.25  30.0000 70.00000 0.0 "silt/vf"  "f"        -999.25                                                                                                                 -999.25                                                                                                                                                                 
2793.0 "6407_7-1" 102.8300 "Sandstone" "Claystone" -999.25  30.0000 70.00000 0.0 "silt/vf"  "f"        -999.25                                                                                                                 -999.25                                                                                                                                                                 
2793.1 "6407_7-1" 103.1700 "Sandstone" "Claystone" -999.25  30.0000 70.00000 0.0 "silt/vf"  "f"        -999.25                                                                                                                 -999.25                                                                                                                                                                 
2793.2 "6407_7-1" 103.1700 "Sandstone" "Claystone" -999.25  30.0000 70.00000 0.0 "silt/vf"  "f"        -999.25                                                                                                                 -999.25                                                                                                                                                                 
2793.3 "6407_7-1" 102.3500 "Sandstone" "Claystone" -999.25  30.0000 70.00000 0.0 "silt/vf"  "f"        -999.25                                                                                                                 -999.25                                                                                                                                                                 
2793.4 "6407_7-1" 100.1600 "Sandstone" "Claystone" -999.25  30.0000 70.00000 0.0 "silt/vf"  "f"        -999.25                                                                                                                 -999.25                                                                                                                                                                 
2793.5 "6407_7-1"  97.9700 "Sandstone" "Claystone" -999.25  30.0000 70.00000 0.0 "silt/vf"  "f"        -999.25                                                                                                                 -999.25                                                                                                                                                                 
2793.6 "6407_7-1"  95.7800 "Sandstone" "Claystone" -999.25  30.0000 70.00000 0.0 "silt/vf"  "f"        -999.25                                                                                                                 -999.25                                                                                                                                                                 
2793.7 "6407_7-1"  93.5900 "Sandstone" "Claystone" -999.25  30.0000 70.00000 0.0 "silt/vf"  "f"        -999.25                                                                                                                 -999.25                                                                                                                                                                 
2793.8 "6407_7-1"  91.4800 "Sandstone" "Claystone" -999.25  30.0000 70.00000 0.0 "silt/vf"  "f"        -999.25                                                                                                                 -999.25                                                                                                                                                                 
2793.9 "6407_7-1"  89.3600 "Sandstone" "Claystone" -999.25  30.0000 70.00000 0.0 "silt/vf"  "f"        -999.25                                                                                                                 -999.25                                                                                                                                                                 
2794.0 "6407_7-1"  87.8100 "Sandstone" "Claystone" -999.25  30.0000 70.00000 0.0 "silt/vf"  "f"        -999.25                                                                                                                 -999.25                                                                                                                                                                 
2794.1 "6407_7-1"  86.3400 "Sandstone" "Claystone" -999.25  30.0000 70.00000 0.0 "silt/vf"  "f"        -999.25                                                                                                                 -999.25                                                                                                                                                                 
2794.2 "6407_7-1"  86.0300 "Sandstone" "Claystone" -999.25  30.0000 70.00000 0.0 "silt/vf"  "f"        -999.25                                                                                                                 -999.25                                                                                                                                                                 
2794.3 "6407_7-1"  87.1800 "Sandstone" "Claystone" -999.25  30.0000 70.00000 0.0 "silt/vf"  "f"        -999.25                                                                                                                 -999.25                                                                                                                                                                 
2794.4 "6407_7-1"  89.9700 "Sandstone" "Claystone" -999.25  30.0000 70.00000 0.0 "silt/vf"  "f"        -999.25                                                                                                                 -999.25                                                                                                                                                                 
2794.5 "6407_7-1"  92.7600 "Sandstone" "Claystone" -999.25  30.0000 70.00000 0.0 "silt/vf"  "f"        -999.25                                                                                                                 -999.25                                                                                                                                                                 
2794.6 "6407_7-1"  95.5400 "Sandstone" "Claystone" -999.25  30.0000 70.00000 0.0 "silt/vf"  "f"        -999.25                                                                                                                 -999.25                                                                                                                                                                 
2794.7 "6407_7-1"  97.8300 "Sandstone" "Claystone" -999.25  30.0000 70.00000 0.0 "silt/vf"  "f"        -999.25                                                                                                                 -999.25                                                                                                                                                                 
2794.8 "6407_7-1"  97.7000 "Sandstone" "Claystone" -999.25  30.0000 70.00000 0.0 "silt/vf"  "f"        -999.25                                                                                                                 -999.25                                                                                                                                                                 
