~Version
VERS  .                                 3.0 : CWLS LAS ASCII Standard - Version 3.0
WRAP  . NO                                  : One line per depth step
DLM   . SPACE                               : Column data section delimiter
SOURCE. Converted to LAS by Log Studio 4.76 : GeoProvider

~Well
STRT.         2713.0 : Start depth
STOP.         3118.0 : Stop depth
STEP.              1 : Step
NULL.        -999.25 : No-value
COMP.                : Company
WELL. 6407/7-1       : Well
FLD .                : Field
LOC .                : Location
LATI.                : Latitude
LONG.                : Longitude
GDAT.                : Geodetic datum
CNTY.                : County
STAT.                : State
CTRY.                : Country
SRVC. GeoProvider AS : Service company
DATE.                : Date
API .                : API number
RUN .                : Run number

~Parameters
WellboreName.  : Wellbore name
RigName     .  : Rig name
StartDate   .  : Start date

~Curves
DEPTH.m            .  : null {F}Depth mMD
Hole_ID.-          .  : null {S}Hole ID
GR.API             .  : null {F}Gamma Ray
Lithology1.-       .  : null {S}Lithology 1
Lithology2.-       .  : null {S}Lithology 2
Lithology3.-       .  : null {S}Lithology 3
Lithology1.%       .  : null {F}Lithology 1 percentage
Lithology2.%       .  : null {F}Lithology 2 percentage
Lithology3.%       .  : null {F}Lithology 3 percentage
Grain_size_Top.-   .  : null {S}Grain size at the top 
Grain_size_Base.-  .  : null {S}Grain size at the bottom
Sub_Environment.-  .  : null {S}Sub Environment
Gross_Environment.-.  : null {S}Gross Environment

~Ascii
2713.0 "6407_7-1"  99.9100 "Sandstone" "Claystone" -999.25  40.0000 60.00000 0.0 "silt/vf"  "vf"       "Open_marine,_distal_sandbar,_Slow_sedimentation"                                                                       -999.25                                                                                                                                                                 
2713.1 "6407_7-1" 102.1200 "Sandstone" "Claystone" -999.25  40.0000 60.00000 0.0 "silt/vf"  "vf"       "Open_marine,_distal_sandbar,_Slow_sedimentation"                                                                       -999.25                                                                                                                                                                 
2713.2 "6407_7-1" 100.7200 "Sandstone" "Claystone" -999.25  40.0000 60.00000 0.0 "silt/vf"  "vf"       "Open_marine,_distal_sandbar,_Slow_sedimentation"                                                                       -999.25                                                                                                                                                                 
2713.3 "6407_7-1"  99.3200 "Sandstone" "Claystone" -999.25  40.0000 60.00000 0.0 "silt/vf"  "vf"       "Open_marine,_distal_sandbar,_Slow_sedimentation"                                                                       -999.25                                                                                                                                                                 
2713.4 "6407_7-1"  98.0100 "Sandstone" "Claystone" -999.25  40.0000 60.00000 0.0 "silt/vf"  "vf"       "Open_marine,_distal_sandbar,_Slow_sedimentation"                                                                       -999.25                                                                                                                                                                 
2713.5 "6407_7-1"  97.7400 "Sandstone" "Claystone" -999.25  40.0000 60.00000 0.0 "silt/vf"  "vf"       "Open_marine,_distal_sandbar,_Slow_sedimentation"                                                                       -999.25                                                                                                                                                                 
2713.6 "6407_7-1"  98.2500 "Sandstone" "Claystone" -999.25  40.0000 60.00000 0.0 "silt/vf"  "vf"       "Open_marine,_distal_sandbar,_Slow_sedimentation"                                                                       -999.25                                                                                                                                                                 
2713.7 "6407_7-1" 100.2600 "Sandstone" "Claystone" -999.25  40.0000 60.00000 0.0 "silt/vf"  "vf"       "Open_marine,_distal_sandbar,_Slow_sedimentation"                                                                       -999.25                                                                                                                                                                 
2713.8 "6407_7-1" 102.2600 "Sandstone" "Claystone" -999.25  40.0000 60.00000 0.0 "silt/vf"  "vf"       "Open_marine,_distal_sandbar,_Slow_sedimentation"                                                                       -999.25                                                                                                                                                                 
2713.9 "6407_7-1" 103.8100 "Sandstone" "Claystone" -999.25  40.0000 60.00000 0.0 "silt/vf"  "vf"       "Open_marine,_distal_sandbar,_Slow_sedimentation"                                                                       -999.25                                                                                                                                                                 
2714.0 "6407_7-1" 100.3100 "Sandstone" "Claystone" -999.25  40.0000 60.00000 0.0 "silt/vf"  "vf"       "Open_marine,_distal_sandbar,_Slow_sedimentation"                                                                       -999.25                                                                                                                                                                 
2714.1 "6407_7-1"  96.8000 "Sandstone" "Claystone" -999.25  40.0000 60.00000 0.0 "silt/vf"  "vf"       "Open_marine,_distal_sandbar,_Slow_sedimentation"                                                                       -999.25                                                                                                                                                                 
2714.2 "6407_7-1"  94.4500 "Sandstone" "Claystone" -999.25  40.0000 60.00000 0.0 "silt/vf"  "vf"       "Open_marine,_distal_sandbar,_Slow_sedimentation"                                                                       -999.25                                                                                                                                                                 
2714.3 "6407_7-1"  93.5800 "Sandstone" "Claystone" -999.25  40.0000 60.00000 0.0 "silt/vf"  "vf"       "Open_marine,_distal_sandbar,_Slow_sedimentation"                                                                       -999.25                                                                                                                                                                 
2714.4 "6407_7-1"  93.6600 "Sandstone" "Claystone" -999.25  40.0000 60.00000 0.0 "silt/vf"  "vf"       "Open_marine,_distal_sandbar,_Slow_sedimentation"                                                                       -999.25                                                                                                                                                                 
2714.5 "6407_7-1"  97.4900 "Sandstone" "Claystone" -999.25  40.0000 60.00000 0.0 "silt/vf"  "vf"       "Open_marine,_distal_sandbar,_Slow_sedimentation"                                                                       -999.25                                                                                                                                                                 
2714.6 "6407_7-1" 101.3500 "Sandstone" "Claystone" -999.25  40.0000 60.00000 0.0 "silt/vf"  "vf"       "Open_marine,_distal_sandbar,_Slow_sedimentation"                                                                       -999.25                                                                                                                                                                 
2714.7 "6407_7-1" 103.1600 "Sandstone" "Claystone" -999.25  40.0000 60.00000 0.0 "silt/vf"  "vf"       "Open_marine,_distal_sandbar,_Slow_sedimentation"                                                                       -999.25                                                                                                                                                                 
2714.8 "6407_7-1" 103.2800 "Sandstone" "Claystone" -999.25  40.0000 60.00000 0.0 "silt/vf"  "vf"       "Open_marine,_distal_sandbar,_Slow_sedimentation"                                                                       -999.25                                                                                                                                                                 
2714.9 "6407_7-1" 101.3000 "Sandstone" "Claystone" -999.25  40.0000 60.00000 0.0 "silt/vf"  "vf"       "Open_marine,_distal_sandbar,_Slow_sedimentation"                                                                       -999.25                                                                                                                                                                 
2715.0 "6407_7-1"  98.0000 "Sandstone" "Claystone" -999.25  40.0000 60.00000 0.0 "silt/vf"  "vf"       "Open_marine,_distal_sandbar,_Slow_sedimentation"                                                                       -999.25                                                                                                                                                                 
