~Version
VERS  .                                 3.0 : CWLS LAS ASCII Standard - Version 3.0
WRAP  . NO                                  : One line per depth step
DLM   . SPACE                               : Column data section delimiter
SOURCE. Converted to LAS by Log Studio 4.76 : GeoProvider

~Well
STRT.         2713.0 : Start depth
STOP.         3118.0 : Stop depth
STEP.              1 : Step
NULL.        -999.25 : No-value
COMP.                : Company
WELL. 6407/7-1       : Well
FLD .                : Field
LOC .                : Location
LATI.                : Latitude
LONG.                : Longitude
GDAT.                : Geodetic datum
CNTY.                : County
STAT.                : State
CTRY.                : Country
SRVC. GeoProvider AS : Service company
DATE.                : Date
API .                : API number
RUN .                : Run number

~Parameters
WellboreName.  : Wellbore name
RigName     .  : Rig name
StartDate   .  : Start date

~Curves
DEPTH.m            .  : null {F}Depth mMD
Hole_ID.-          .  : null {S}Hole ID
GR.API             .  : null {F}Gamma Ray
Lithology1.-       .  : null {S}Lithology 1
Lithology2.-       .  : null {S}Lithology 2
Lithology3.-       .  : null {S}Lithology 3
Lithology1.%       .  : null {F}Lithology 1 percentage
Lithology2.%       .  : null {F}Lithology 2 percentage
Lithology3.%       .  : null {F}Lithology 3 percentage
Grain_size_Top.-   .  : null {S}Grain size at the top 
Grain_size_Base.-  .  : null {S}Grain size at the bottom
Sub_Environment.-  .  : null {S}Sub Environment
Gross_Environment.-.  : null {S}Gross Environment

~Ascii
# ...
2767.6 "6407_7-1"  97.1600 "Sandstone" "Claystone" -999.25  50.0000 50.00000 0.0 "silt/vf"  "vf/f"     "Low_energy"                                                                                                            -999.25                                                                                                                                                                 
2767.7 "6407_7-1"  97.1300 "Sandstone" "Claystone" -999.25  50.0000 50.00000 0.0 "silt/vf"  "vf/f"     "Low_energy"                                                                                                            -999.25                                                                                                                                                                 
2767.8 "6407_7-1"  97.1000 "Sandstone" "Claystone" -999.25  50.0000 50.00000 0.0 "silt/vf"  "vf/f"     "Low_energy"                                                                                                            -999.25                                                                                                                                                                 
2767.9 "6407_7-1"  95.7300 "Sandstone" "Claystone" -999.25  50.0000 50.00000 0.0 "silt/vf"  "vf/f"     "Low_energy"                                                                                                            -999.25                                                                                                                                                                 
2768.0 "6407_7-1"  90.5000 "Sandstone" "Claystone" -999.25  50.0000 50.00000 0.0 "silt/vf"  "vf/f"     "Low_energy"                                                                                                            -999.25                                                                                                                                                                 
2768.1 "6407_7-1"  90.2500 "Sandstone" "Claystone" -999.25  50.0000 50.00000 0.0 "silt/vf"  "vf/f"     "Low_energy"                                                                                                            -999.25                                                                                                                                                                 
2768.2 "6407_7-1"  90.6800 "Sandstone" "Claystone" -999.25  50.0000 50.00000 0.0 "silt/vf"  "vf/f"     "Low_energy"                                                                                                            -999.25                                                                                                                                                                 
2768.3 "6407_7-1"  90.0700 "Sandstone" "Claystone" -999.25  50.0000 50.00000 0.0 "silt/vf"  "vf/f"     "Low_energy"                                                                                                            -999.25                                                                                                                                                                 
2768.4 "6407_7-1"  95.9800 "Sandstone" "Claystone" -999.25  50.0000 50.00000 0.0 "silt/vf"  "vf/f"     "Low_energy"                                                                                                            -999.25                                                                                                                                                                 
2768.5 "6407_7-1"  95.8800 "Sandstone" "Claystone" -999.25  50.0000 50.00000 0.0 "silt/vf"  "vf/f"     "Low_energy"                                                                                                            -999.25                                                                                                                                                                 
2768.6 "6407_7-1"  95.7800 "Sandstone" "Claystone" -999.25  50.0000 50.00000 0.0 "silt/vf"  "vf/f"     "Low_energy"                                                                                                            -999.25                                                                                                                                                                 
2768.7 "6407_7-1"  97.2100 "Sandstone" "Claystone" -999.25  50.0000 50.00000 0.0 "silt/vf"  "vf/f"     "Low_energy"                                                                                                            -999.25                                                                                                                                                                 
2768.8 "6407_7-1"  98.0100 "Sandstone" "Claystone" -999.25  50.0000 50.00000 0.0 "silt/vf"  "vf/f"     "Low_energy"                                                                                                            -999.25                                                                                                                                                                 
2768.9 "6407_7-1"  97.3100 "Sandstone" "Claystone" -999.25  50.0000 50.00000 0.0 "silt/vf"  "vf/f"     "Low_energy"                                                                                                            -999.25                                                                                                                                                                 
2769.0 "6407_7-1"  96.5600 "Sandstone" "Claystone" -999.25  50.0000 50.00000 0.0 "silt/vf"  "vf/f"     "Low_energy"                                                                                                            -999.25                                                                                                                                                                 
2769.1 "6407_7-1"  93.3500 "Sandstone" "Claystone" -999.25  50.0000 50.00000 0.0 "silt/vf"  "vf/f"     "Low_energy"                                                                                                            -999.25                                                                                                                                                                 
2769.2 "6407_7-1"  88.2600 "Sandstone" "Claystone" -999.25  50.0000 50.00000 0.0 "silt/vf"  "vf/f"     "Low_energy"                                                                                                            -999.25                                                                                                                                                                 
2769.3 "6407_7-1"  78.7200 "Sandstone" "Claystone" -999.25  50.0000 50.00000 0.0 "silt/vf"  "vf/f"     "Low_energy"                                                                                                            -999.25                                                                                                                                                                 
2769.4 "6407_7-1"  75.4700 "Sandstone" "Claystone" -999.25  50.0000 50.00000 0.0 "silt/vf"  "vf/f"     "Low_energy"                                                                                                            -999.25                                                                                                                                                                 
2769.5 "6407_7-1"  75.9500 "Sandstone" "Claystone" -999.25  50.0000 50.00000 0.0 "silt/vf"  "vf/f"     "Low_energy"                                                                                                            -999.25                                                                                                                                                                 
2769.6 "6407_7-1"  75.8300 "Sandstone" "Claystone" -999.25  50.0000 50.00000 0.0 "silt/vf"  "vf/f"     "Low_energy"                                                                                                            -999.25                                                                                                                                                                 
