~Version
VERS  .                                 3.0 : CWLS LAS ASCII Standard - Version 3.0
WRAP  . NO                                  : One line per depth step
DLM   . SPACE                               : Column data section delimiter
SOURCE. Converted to LAS by Log Studio 4.76 : GeoProvider

~Well
STRT.         2713.0 : Start depth
STOP.         3118.0 : Stop depth
STEP.              1 : Step
NULL.        -999.25 : No-value
COMP.                : Company
WELL. 6407/7-1       : Well
FLD .                : Field
LOC .                : Location
LATI.                : Latitude
LONG.                : Longitude
GDAT.                : Geodetic datum
CNTY.                : County
STAT.                : State
CTRY.                : Country
SRVC. GeoProvider AS : Service company
DATE.                : Date
API .                : API number
RUN .                : Run number

~Parameters
WellboreName.  : Wellbore name
RigName     .  : Rig name
StartDate   .  : Start date

~Curves
DEPTH.m            .  : null {F}Depth mMD
Hole_ID.-          .  : null {S}Hole ID
GR.API             .  : null {F}Gamma Ray
Lithology1.-       .  : null {S}Lithology 1
Lithology2.-       .  : null {S}Lithology 2
Lithology3.-       .  : null {S}Lithology 3
Lithology1.%       .  : null {F}Lithology 1 percentage
Lithology2.%       .  : null {F}Lithology 2 percentage
Lithology3.%       .  : null {F}Lithology 3 percentage
Grain_size_Top.-   .  : null {S}Grain size at the top 
Grain_size_Base.-  .  : null {S}Grain size at the bottom
Sub_Environment.-  .  : null {S}Sub Environment
Gross_Environment.-.  : null {S}Gross Environment

~Ascii
# ...
2904.1 "6407_7-1"  50.7600 "Sandstone" "Claystone" -999.25  95.0000  5.00000 0.0 "vf"       "f/m"      "Proximal_delta_front_deposits._Mainly_prograding_mouth_bars._Som_bay_deposits._Strongly_fluvial_dominated_delta_system." "Strongly_fluvial_dominated_delta_front_deposits,_freshwater_dominated._Most_proximal_in_lower_parts,_fluvial_dominated_delta_front/bay._Delta_front_deposits_at_the_top."
2904.2 "6407_7-1"  53.2700 "Sandstone" "Claystone" -999.25  95.0000  5.00000 0.0 "vf"       "f/m"      "Proximal_delta_front_deposits._Mainly_prograding_mouth_bars._Som_bay_deposits._Strongly_fluvial_dominated_delta_system." "Strongly_fluvial_dominated_delta_front_deposits,_freshwater_dominated._Most_proximal_in_lower_parts,_fluvial_dominated_delta_front/bay._Delta_front_deposits_at_the_top."
2904.3 "6407_7-1"  55.8500 "Sandstone" "Claystone" -999.25  95.0000  5.00000 0.0 "vf"       "f/m"      "Proximal_delta_front_deposits._Mainly_prograding_mouth_bars._Som_bay_deposits._Strongly_fluvial_dominated_delta_system." "Strongly_fluvial_dominated_delta_front_deposits,_freshwater_dominated._Most_proximal_in_lower_parts,_fluvial_dominated_delta_front/bay._Delta_front_deposits_at_the_top."
2904.4 "6407_7-1"  57.3100 "Sandstone" "Claystone" -999.25  95.0000  5.00000 0.0 "vf"       "f/m"      "Proximal_delta_front_deposits._Mainly_prograding_mouth_bars._Som_bay_deposits._Strongly_fluvial_dominated_delta_system." "Strongly_fluvial_dominated_delta_front_deposits,_freshwater_dominated._Most_proximal_in_lower_parts,_fluvial_dominated_delta_front/bay._Delta_front_deposits_at_the_top."
2904.5 "6407_7-1"  56.1800 "Sandstone" "Claystone" -999.25  95.0000  5.00000 0.0 "vf"       "f/m"      "Proximal_delta_front_deposits._Mainly_prograding_mouth_bars._Som_bay_deposits._Strongly_fluvial_dominated_delta_system." "Strongly_fluvial_dominated_delta_front_deposits,_freshwater_dominated._Most_proximal_in_lower_parts,_fluvial_dominated_delta_front/bay._Delta_front_deposits_at_the_top."
2904.6 "6407_7-1"  54.7800 "Sandstone" "Claystone" -999.25  95.0000  5.00000 0.0 "vf"       "f/m"      "Proximal_delta_front_deposits._Mainly_prograding_mouth_bars._Som_bay_deposits._Strongly_fluvial_dominated_delta_system." "Strongly_fluvial_dominated_delta_front_deposits,_freshwater_dominated._Most_proximal_in_lower_parts,_fluvial_dominated_delta_front/bay._Delta_front_deposits_at_the_top."
2904.7 "6407_7-1"  53.0600 "Sandstone" "Claystone" -999.25  95.0000  5.00000 0.0 "vf"       "f/m"      "Proximal_delta_front_deposits._Mainly_prograding_mouth_bars._Som_bay_deposits._Strongly_fluvial_dominated_delta_system." "Strongly_fluvial_dominated_delta_front_deposits,_freshwater_dominated._Most_proximal_in_lower_parts,_fluvial_dominated_delta_front/bay._Delta_front_deposits_at_the_top."
2904.8 "6407_7-1"  50.9500 "Sandstone" "Claystone" -999.25  95.0000  5.00000 0.0 "vf"       "f/m"      "Proximal_delta_front_deposits._Mainly_prograding_mouth_bars._Som_bay_deposits._Strongly_fluvial_dominated_delta_system." "Strongly_fluvial_dominated_delta_front_deposits,_freshwater_dominated._Most_proximal_in_lower_parts,_fluvial_dominated_delta_front/bay._Delta_front_deposits_at_the_top."
2904.9 "6407_7-1"  50.1400 "Sandstone" "Claystone" -999.25  95.0000  5.00000 0.0 "vf"       "f/m"      "Proximal_delta_front_deposits._Mainly_prograding_mouth_bars._Som_bay_deposits._Strongly_fluvial_dominated_delta_system." "Strongly_fluvial_dominated_delta_front_deposits,_freshwater_dominated._Most_proximal_in_lower_parts,_fluvial_dominated_delta_front/bay._Delta_front_deposits_at_the_top."
2905.0 "6407_7-1"  52.6700 "Sandstone" "Claystone" -999.25  95.0000  5.00000 0.0 "vf"       "f/m"      "Proximal_delta_front_deposits._Mainly_prograding_mouth_bars._Som_bay_deposits._Strongly_fluvial_dominated_delta_system." "Strongly_fluvial_dominated_delta_front_deposits,_freshwater_dominated._Most_proximal_in_lower_parts,_fluvial_dominated_delta_front/bay._Delta_front_deposits_at_the_top."
2905.1 "6407_7-1"  55.2000 "Sandstone" "Claystone" -999.25  95.0000  5.00000 0.0 "vf"       "f/m"      "Proximal_delta_front_deposits._Mainly_prograding_mouth_bars._Som_bay_deposits._Strongly_fluvial_dominated_delta_system." "Strongly_fluvial_dominated_delta_front_deposits,_freshwater_dominated._Most_proximal_in_lower_parts,_fluvial_dominated_delta_front/bay._Delta_front_deposits_at_the_top."
2905.2 "6407_7-1"  57.1200 "Sandstone" "Claystone" -999.25  95.0000  5.00000 0.0 "vf"       "f/m"      "Proximal_delta_front_deposits._Mainly_prograding_mouth_bars._Som_bay_deposits._Strongly_fluvial_dominated_delta_system." "Strongly_fluvial_dominated_delta_front_deposits,_freshwater_dominated._Most_proximal_in_lower_parts,_fluvial_dominated_delta_front/bay._Delta_front_deposits_at_the_top."
2905.3 "6407_7-1"  59.0400 "Sandstone" "Claystone" -999.25  95.0000  5.00000 0.0 "vf"       "f/m"      "Proximal_delta_front_deposits._Mainly_prograding_mouth_bars._Som_bay_deposits._Strongly_fluvial_dominated_delta_system." "Strongly_fluvial_dominated_delta_front_deposits,_freshwater_dominated._Most_proximal_in_lower_parts,_fluvial_dominated_delta_front/bay._Delta_front_deposits_at_the_top."
2905.4 "6407_7-1"  62.4800 "Sandstone" "Claystone" -999.25  95.0000  5.00000 0.0 "vf"       "f/m"      "Proximal_delta_front_deposits._Mainly_prograding_mouth_bars._Som_bay_deposits._Strongly_fluvial_dominated_delta_system." "Strongly_fluvial_dominated_delta_front_deposits,_freshwater_dominated._Most_proximal_in_lower_parts,_fluvial_dominated_delta_front/bay._Delta_front_deposits_at_the_top."
2905.5 "6407_7-1"  64.3400 "Sandstone" "Claystone" -999.25  95.0000  5.00000 0.0 "vf"       "f/m"      "Proximal_delta_front_deposits._Mainly_prograding_mouth_bars._Som_bay_deposits._Strongly_fluvial_dominated_delta_system." "Strongly_fluvial_dominated_delta_front_deposits,_freshwater_dominated._Most_proximal_in_lower_parts,_fluvial_dominated_delta_front/bay._Delta_front_deposits_at_the_top."
2905.6 "6407_7-1"  66.0900 "Sandstone" "Claystone" -999.25  95.0000  5.00000 0.0 "vf"       "f/m"      "Proximal_delta_front_deposits._Mainly_prograding_mouth_bars._Som_bay_deposits._Strongly_fluvial_dominated_delta_system." "Strongly_fluvial_dominated_delta_front_deposits,_freshwater_dominated._Most_proximal_in_lower_parts,_fluvial_dominated_delta_front/bay._Delta_front_deposits_at_the_top."
2905.7 "6407_7-1"  66.1400 "Sandstone" "Claystone" -999.25  95.0000  5.00000 0.0 "vf"       "f/m"      "Proximal_delta_front_deposits._Mainly_prograding_mouth_bars._Som_bay_deposits._Strongly_fluvial_dominated_delta_system." "Strongly_fluvial_dominated_delta_front_deposits,_freshwater_dominated._Most_proximal_in_lower_parts,_fluvial_dominated_delta_front/bay._Delta_front_deposits_at_the_top."
2905.8 "6407_7-1"  64.9700 "Sandstone" "Claystone" -999.25  95.0000  5.00000 0.0 "vf"       "f/m"      "Proximal_delta_front_deposits._Mainly_prograding_mouth_bars._Som_bay_deposits._Strongly_fluvial_dominated_delta_system." "Strongly_fluvial_dominated_delta_front_deposits,_freshwater_dominated._Most_proximal_in_lower_parts,_fluvial_dominated_delta_front/bay._Delta_front_deposits_at_the_top."
2905.9 "6407_7-1"  63.3200 "Sandstone" "Claystone" -999.25  95.0000  5.00000 0.0 "vf"       "f/m"      "Proximal_delta_front_deposits._Mainly_prograding_mouth_bars._Som_bay_deposits._Strongly_fluvial_dominated_delta_system." "Strongly_fluvial_dominated_delta_front_deposits,_freshwater_dominated._Most_proximal_in_lower_parts,_fluvial_dominated_delta_front/bay._Delta_front_deposits_at_the_top."
2906.0 "6407_7-1"  59.9000 "Sandstone" "Claystone" -999.25  95.0000  5.00000 0.0 "vf"       "f/m"      "Proximal_delta_front_deposits._Mainly_prograding_mouth_bars._Som_bay_deposits._Strongly_fluvial_dominated_delta_system." "Strongly_fluvial_dominated_delta_front_deposits,_freshwater_dominated._Most_proximal_in_lower_parts,_fluvial_dominated_delta_front/bay._Delta_front_deposits_at_the_top."
2906.1 "6407_7-1"  55.4600 "Sandstone" "Claystone" -999.25  95.0000  5.00000 0.0 "vf"       "f/m"      "Proximal_delta_front_deposits._Mainly_prograding_mouth_bars._Som_bay_deposits._Strongly_fluvial_dominated_delta_system." "Strongly_fluvial_dominated_delta_front_deposits,_freshwater_dominated._Most_proximal_in_lower_parts,_fluvial_dominated_delta_front/bay._Delta_front_deposits_at_the_top."
