~Version
VERS  .                                 3.0 : CWLS LAS ASCII Standard - Version 3.0
WRAP  . NO                                  : One line per depth step
DLM   . SPACE                               : Column data section delimiter
SOURCE. Converted to LAS by Log Studio 4.76 : GeoProvider

~Well
STRT.         2713.0 : Start depth
STOP.         3118.0 : Stop depth
STEP.              1 : Step
NULL.        -999.25 : No-value
COMP.                : Company
WELL. 6407/7-1       : Well
FLD .                : Field
LOC .                : Location
LATI.                : Latitude
LONG.                : Longitude
GDAT.                : Geodetic datum
CNTY.                : County
STAT.                : State
CTRY.                : Country
SRVC. GeoProvider AS : Service company
DATE.                : Date
API .                : API number
RUN .                : Run number

~Parameters
WellboreName.  : Wellbore name
RigName     .  : Rig name
StartDate   .  : Start date

~Curves
DEPTH.m            .  : null {F}Depth mMD
Hole_ID.-          .  : null {S}Hole ID
GR.API             .  : null {F}Gamma Ray
Lithology1.-       .  : null {S}Lithology 1
Lithology2.-       .  : null {S}Lithology 2
Lithology3.-       .  : null {S}Lithology 3
Lithology1.%       .  : null {F}Lithology 1 percentage
Lithology2.%       .  : null {F}Lithology 2 percentage
Lithology3.%       .  : null {F}Lithology 3 percentage
Grain_size_Top.-   .  : null {S}Grain size at the top 
Grain_size_Base.-  .  : null {S}Grain size at the bottom
Sub_Environment.-  .  : null {S}Sub Environment
Gross_Environment.-.  : null {S}Gross Environment

~Ascii
# ...
3116.2 "6407_7-1"  75.3200 "Sandstone" "Claystone" -999.25  65.0000 35.00000 0.0 "c/vc"     "vc"       "Flood_plain_with_crevasse_splays"                                                                                      "Upper_delta_plain"                                                                                                                                                     
3116.3 "6407_7-1"  83.7500 "Sandstone" "Claystone" -999.25  65.0000 35.00000 0.0 "c/vc"     "vc"       "Flood_plain_with_crevasse_splays"                                                                                      "Upper_delta_plain"                                                                                                                                                     
3116.4 "6407_7-1"  86.5800 "Sandstone" "Claystone" -999.25  65.0000 35.00000 0.0 "c/vc"     "vc"       "Flood_plain_with_crevasse_splays"                                                                                      "Upper_delta_plain"                                                                                                                                                     
3116.5 "6407_7-1"  84.4600 "Sandstone" "Claystone" -999.25  65.0000 35.00000 0.0 "c/vc"     "vc"       "Flood_plain_with_crevasse_splays"                                                                                      "Upper_delta_plain"                                                                                                                                                     
3116.6 "6407_7-1"  82.9300 "Sandstone" "Claystone" -999.25  65.0000 35.00000 0.0 "c/vc"     "vc"       "Flood_plain_with_crevasse_splays"                                                                                      "Upper_delta_plain"                                                                                                                                                     
3116.7 "6407_7-1"  86.6100 "Sandstone" "Claystone" -999.25  65.0000 35.00000 0.0 "c/vc"     "vc"       "Flood_plain_with_crevasse_splays"                                                                                      "Upper_delta_plain"                                                                                                                                                     
3116.8 "6407_7-1"  84.4000 "Sandstone" "Claystone" -999.25  65.0000 35.00000 0.0 "c/vc"     "vc"       "Flood_plain_with_crevasse_splays"                                                                                      "Upper_delta_plain"                                                                                                                                                     
3116.9 "6407_7-1"  83.6800 "Sandstone" "Claystone" -999.25  65.0000 35.00000 0.0 "c/vc"     "vc"       "Flood_plain_with_crevasse_splays"                                                                                      "Upper_delta_plain"                                                                                                                                                     
3117.0 "6407_7-1"  86.0600 "Sandstone" "Claystone" -999.25  65.0000 35.00000 0.0 "c/vc"     "vc"       "Flood_plain_with_crevasse_splays"                                                                                      "Upper_delta_plain"                                                                                                                                                     
3117.1 "6407_7-1"  83.3700 "Sandstone" "Claystone" -999.25  65.0000 35.00000 0.0 "c/vc"     "vc"       "Flood_plain_with_crevasse_splays"                                                                                      "Upper_delta_plain"                                                                                                                                                     
3117.2 "6407_7-1"  80.6700 "Sandstone" "Claystone" -999.25  65.0000 35.00000 0.0 "c/vc"     "vc"       "Flood_plain_with_crevasse_splays"                                                                                      "Upper_delta_plain"                                                                                                                                                     
3117.3 "6407_7-1"  83.7800 "Sandstone" "Claystone" -999.25  65.0000 35.00000 0.0 "c/vc"     "vc"       "Flood_plain_with_crevasse_splays"                                                                                      "Upper_delta_plain"                                                                                                                                                     
3117.4 "6407_7-1"  89.0400 "Sandstone" "Claystone" -999.25  65.0000 35.00000 0.0 "c/vc"     "vc"       "Flood_plain_with_crevasse_splays"                                                                                      "Upper_delta_plain"                                                                                                                                                     
3117.5 "6407_7-1"  94.1900 "Sandstone" "Claystone" -999.25  65.0000 35.00000 0.0 "c/vc"     "vc"       "Flood_plain_with_crevasse_splays"                                                                                      "Upper_delta_plain"                                                                                                                                                     
3117.6 "6407_7-1"  95.3300 "Sandstone" "Claystone" -999.25  65.0000 35.00000 0.0 "c/vc"     "vc"       "Flood_plain_with_crevasse_splays"                                                                                      "Upper_delta_plain"                                                                                                                                                     
3117.7 "6407_7-1"  91.9400 "Sandstone" "Claystone" -999.25  65.0000 35.00000 0.0 "c/vc"     "vc"       "Flood_plain_with_crevasse_splays"                                                                                      "Upper_delta_plain"                                                                                                                                                     
3117.8 "6407_7-1"  88.3400 "Sandstone" "Claystone" -999.25  65.0000 35.00000 0.0 "c/vc"     "vc"       "Flood_plain_with_crevasse_splays"                                                                                      "Upper_delta_plain"                                                                                                                                                     
3117.9 "6407_7-1"  88.7200 "Sandstone" "Claystone" -999.25  65.0000 35.00000 0.0 "c/vc"     "vc"       "Flood_plain_with_crevasse_splays"                                                                                      "Upper_delta_plain"                                                                                                                                                     
3118.0 "6407_7-1"  90.3100 "Sandstone" "Claystone" -999.25  65.0000 35.00000 0.0 "c/vc"     "vc"       "Flood_plain_with_crevasse_splays"                                                                                      "Upper_delta_plain"                                                                                                                                                     
