~Version
VERS  .                                 3.0 : CWLS LAS ASCII Standard - Version 3.0
WRAP  . NO                                  : One line per depth step
DLM   . SPACE                               : Column data section delimiter
SOURCE. Converted to LAS by Log Studio 4.76 : GeoProvider

~Well
STRT.         2713.0 : Start depth
STOP.         3118.0 : Stop depth
STEP.              1 : Step
NULL.        -999.25 : No-value
COMP.                : Company
WELL. 6407/7-1       : Well
FLD .                : Field
LOC .                : Location
LATI.                : Latitude
LONG.                : Longitude
GDAT.                : Geodetic datum
CNTY.                : County
STAT.                : State
CTRY.                : Country
SRVC. GeoProvider AS : Service company
DATE.                : Date
API .                : API number
RUN .                : Run number

~Parameters
WellboreName.  : Wellbore name
RigName     .  : Rig name
StartDate   .  : Start date

~Curves
DEPTH.m            .  : null {F}Depth mMD
Hole_ID.-          .  : null {S}Hole ID
GR.API             .  : null {F}Gamma Ray
Lithology1.-       .  : null {S}Lithology 1
Lithology2.-       .  : null {S}Lithology 2
Lithology3.-       .  : null {S}Lithology 3
Lithology1.%       .  : null {F}Lithology 1 percentage
Lithology2.%       .  : null {F}Lithology 2 percentage
Lithology3.%       .  : null {F}Lithology 3 percentage
Grain_size_Top.-   .  : null {S}Grain size at the top 
Grain_size_Base.-  .  : null {S}Grain size at the bottom
Sub_Environment.-  .  : null {S}Sub Environment
Gross_Environment.-.  : null {S}Gross Environment

~Ascii
# ...
3067.9 "6407_7-1"  65.8400 "Sandstone" -999.25   -999.25 100.0000      0.0 0.0 "m"        "m"        "Channel_dep."                                                                                                          "Upper_delta_plain"                                                                                                                                                     
3068.0 "6407_7-1"  68.0400 "Sandstone" -999.25   -999.25 100.0000      0.0 0.0 "m"        "m"        "Channel_dep."                                                                                                          "Upper_delta_plain"                                                                                                                                                     
3068.1 "6407_7-1"  66.8900 "Sandstone" -999.25   -999.25 100.0000      0.0 0.0 "m"        "m"        "Channel_dep."                                                                                                          "Upper_delta_plain"                                                                                                                                                     
3068.2 "6407_7-1"  65.6700 "Sandstone" -999.25   -999.25 100.0000      0.0 0.0 "m"        "m"        "Channel_dep."                                                                                                          "Upper_delta_plain"                                                                                                                                                     
3068.3 "6407_7-1"  61.5000 "Sandstone" -999.25   -999.25 100.0000      0.0 0.0 "m"        "m"        "Channel_dep."                                                                                                          "Upper_delta_plain"                                                                                                                                                     
3068.4 "6407_7-1"  59.9200 "Sandstone" -999.25   -999.25 100.0000      0.0 0.0 "m"        "m"        "Channel_dep."                                                                                                          "Upper_delta_plain"                                                                                                                                                     
3068.5 "6407_7-1"  61.6400 "Sandstone" -999.25   -999.25 100.0000      0.0 0.0 "m"        "m"        "Channel_dep."                                                                                                          "Upper_delta_plain"                                                                                                                                                     
3068.6 "6407_7-1"  63.6400 "Sandstone" -999.25   -999.25 100.0000      0.0 0.0 "m"        "m"        "Channel_dep."                                                                                                          "Upper_delta_plain"                                                                                                                                                     
3068.7 "6407_7-1"  62.5000 "Sandstone" -999.25   -999.25 100.0000      0.0 0.0 "m"        "m"        "Channel_dep."                                                                                                          "Upper_delta_plain"                                                                                                                                                     
3068.8 "6407_7-1"  61.3100 "Sandstone" -999.25   -999.25 100.0000      0.0 0.0 "m"        "m"        "Channel_dep."                                                                                                          "Upper_delta_plain"                                                                                                                                                     
3068.9 "6407_7-1"  64.7900 "Sandstone" -999.25   -999.25 100.0000      0.0 0.0 "m"        "m"        "Channel_dep."                                                                                                          "Upper_delta_plain"                                                                                                                                                     
3069.0 "6407_7-1"  72.9700 "Sandstone" -999.25   -999.25 100.0000      0.0 0.0 "m"        "m"        "Channel_dep."                                                                                                          "Upper_delta_plain"                                                                                                                                                     
3069.1 "6407_7-1"  78.6900 "Sandstone" -999.25   -999.25 100.0000      0.0 0.0 "m"        "m"        "Channel_dep."                                                                                                          "Upper_delta_plain"                                                                                                                                                     
3069.2 "6407_7-1"  89.5000 "Sandstone" -999.25   -999.25 100.0000      0.0 0.0 "m"        "m"        "Channel_dep."                                                                                                          "Upper_delta_plain"                                                                                                                                                     
3069.3 "6407_7-1"  97.4400 "Sandstone" -999.25   -999.25 100.0000      0.0 0.0 "m"        "m"        "Channel_dep."                                                                                                          "Upper_delta_plain"                                                                                                                                                     
3069.4 "6407_7-1" 104.2200 "Sandstone" -999.25   -999.25 100.0000      0.0 0.0 "granule"  "granule"  "Channel_dep."                                                                                                          "Upper_delta_plain"                                                                                                                                                     
3069.5 "6407_7-1" 104.7400 "Sandstone" -999.25   -999.25 100.0000      0.0 0.0 "granule"  "granule"  "Channel_dep."                                                                                                          "Upper_delta_plain"                                                                                                                                                     
3069.6 "6407_7-1"  99.7800 "Sandstone" -999.25   -999.25 100.0000      0.0 0.0 "granule"  "granule"  "Channel_dep."                                                                                                          "Upper_delta_plain"                                                                                                                                                     
3069.7 "6407_7-1"  85.8800 "Sandstone" -999.25   -999.25 100.0000      0.0 0.0 "granule"  "granule"  "Channel_dep."                                                                                                          "Upper_delta_plain"                                                                                                                                                     
3069.8 "6407_7-1"  84.8400 "Sandstone" -999.25   -999.25 100.0000      0.0 0.0 "granule"  "granule"  "Channel_dep."                                                                                                          "Upper_delta_plain"                                                                                                                                                     
3069.9 "6407_7-1"  83.9300 "Sandstone" -999.25   -999.25 100.0000      0.0 0.0 "granule"  "granule"  "Poorly_dominated_drained_floodplain"                                                                                   "Upper_delta_plain"                                                                                                                                                     
