~Version
VERS  .                                 3.0 : CWLS LAS ASCII Standard - Version 3.0
WRAP  . NO                                  : One line per depth step
DLM   . SPACE                               : Column data section delimiter
SOURCE. Converted to LAS by Log Studio 4.76 : GeoProvider

~Well
STRT.         2713.0 : Start depth
STOP.         3118.0 : Stop depth
STEP.              1 : Step
NULL.        -999.25 : No-value
COMP.                : Company
WELL. 6407/7-1       : Well
FLD .                : Field
LOC .                : Location
LATI.                : Latitude
LONG.                : Longitude
GDAT.                : Geodetic datum
CNTY.                : County
STAT.                : State
CTRY.                : Country
SRVC. GeoProvider AS : Service company
DATE.                : Date
API .                : API number
RUN .                : Run number

~Parameters
WellboreName.  : Wellbore name
RigName     .  : Rig name
StartDate   .  : Start date

~Curves
DEPTH.m            .  : null {F}Depth mMD
Hole_ID.-          .  : null {S}Hole ID
GR.API             .  : null {F}Gamma Ray
Lithology1.-       .  : null {S}Lithology 1
Lithology2.-       .  : null {S}Lithology 2
Lithology3.-       .  : null {S}Lithology 3
Lithology1.%       .  : null {F}Lithology 1 percentage
Lithology2.%       .  : null {F}Lithology 2 percentage
Lithology3.%       .  : null {F}Lithology 3 percentage
Grain_size_Top.-   .  : null {S}Grain size at the top 
Grain_size_Base.-  .  : null {S}Grain size at the bottom
Sub_Environment.-  .  : null {S}Sub Environment
Gross_Environment.-.  : null {S}Gross Environment

~Ascii
# ...
3093.1 "6407_7-1"  47.0300 "Sandstone" "Claystone" -999.25  35.0000 65.00000 0.0 "silt"     "vc"       "Mainly_stacked_fluvial_channel_deposits_probably_of_braided_character"                                                 "Upper_delta_plain"                                                                                                                                                     
3093.2 "6407_7-1"  49.9000 "Sandstone" -999.25   -999.25 100.0000      0.0 0.0 "vc"       "vc"       "Mainly_stacked_fluvial_channel_deposits_probably_of_braided_character"                                                 "Upper_delta_plain"                                                                                                                                                     
3093.3 "6407_7-1"  54.3400 "Sandstone" -999.25   -999.25 100.0000      0.0 0.0 "vc"       "vc"       "Mainly_stacked_fluvial_channel_deposits_probably_of_braided_character"                                                 "Upper_delta_plain"                                                                                                                                                     
3093.4 "6407_7-1"  62.6800 "Sandstone" -999.25   -999.25 100.0000      0.0 0.0 "vc"       "vc"       "Mainly_stacked_fluvial_channel_deposits_probably_of_braided_character"                                                 "Upper_delta_plain"                                                                                                                                                     
3093.5 "6407_7-1"  67.9600 "Sandstone" -999.25   -999.25 100.0000      0.0 0.0 "vc"       "vc"       "Mainly_stacked_fluvial_channel_deposits_probably_of_braided_character"                                                 "Upper_delta_plain"                                                                                                                                                     
3093.6 "6407_7-1"  64.8900 "Sandstone" -999.25   -999.25 100.0000      0.0 0.0 "vc"       "vc"       "Mainly_stacked_fluvial_channel_deposits_probably_of_braided_character"                                                 "Upper_delta_plain"                                                                                                                                                     
3093.7 "6407_7-1"  58.7100 "Sandstone" -999.25   -999.25 100.0000      0.0 0.0 "vc"       "vc"       "Mainly_stacked_fluvial_channel_deposits_probably_of_braided_character"                                                 "Upper_delta_plain"                                                                                                                                                     
3093.8 "6407_7-1"  53.7900 "Sandstone" -999.25   -999.25 100.0000      0.0 0.0 "vc"       "vc"       "Mainly_stacked_fluvial_channel_deposits_probably_of_braided_character"                                                 "Upper_delta_plain"                                                                                                                                                     
3093.9 "6407_7-1"  47.8100 "Sandstone" -999.25   -999.25 100.0000      0.0 0.0 "vc"       "vc"       "Mainly_stacked_fluvial_channel_deposits_probably_of_braided_character"                                                 "Upper_delta_plain"                                                                                                                                                     
3094.0 "6407_7-1"  44.8800 "Sandstone" -999.25   -999.25 100.0000      0.0 0.0 "vc"       "vc"       "Mainly_stacked_fluvial_channel_deposits_probably_of_braided_character"                                                 "Upper_delta_plain"                                                                                                                                                     
3094.1 "6407_7-1"  45.3100 "Sandstone" -999.25   -999.25 100.0000      0.0 0.0 "vc"       "vc"       "Mainly_stacked_fluvial_channel_deposits_probably_of_braided_character"                                                 "Upper_delta_plain"                                                                                                                                                     
3094.2 "6407_7-1"  46.0000 "Sandstone" -999.25   -999.25 100.0000      0.0 0.0 "vc"       "vc"       "Mainly_stacked_fluvial_channel_deposits_probably_of_braided_character"                                                 "Upper_delta_plain"                                                                                                                                                     
3094.3 "6407_7-1"  50.0800 "Sandstone" -999.25   -999.25 100.0000      0.0 0.0 "vc"       "vc"       "Mainly_stacked_fluvial_channel_deposits_probably_of_braided_character"                                                 "Upper_delta_plain"                                                                                                                                                     
3094.4 "6407_7-1"  56.5500 "Sandstone" -999.25   -999.25 100.0000      0.0 0.0 "vc"       "vc"       "Mainly_stacked_fluvial_channel_deposits_probably_of_braided_character"                                                 "Upper_delta_plain"                                                                                                                                                     
3094.5 "6407_7-1"  60.6100 "Sandstone" -999.25   -999.25 100.0000      0.0 0.0 "vc"       "vc"       "Mainly_stacked_fluvial_channel_deposits_probably_of_braided_character"                                                 "Upper_delta_plain"                                                                                                                                                     
3094.6 "6407_7-1"  62.1400 "Sandstone" -999.25   -999.25 100.0000      0.0 0.0 "vc"       "vc"       "Mainly_stacked_fluvial_channel_deposits_probably_of_braided_character"                                                 "Upper_delta_plain"                                                                                                                                                     
3094.7 "6407_7-1"  63.9100 "Sandstone" -999.25   -999.25 100.0000      0.0 0.0 "vc"       "vc"       "Mainly_stacked_fluvial_channel_deposits_probably_of_braided_character"                                                 "Upper_delta_plain"                                                                                                                                                     
3094.8 "6407_7-1"  67.9600 "Sandstone" -999.25   -999.25 100.0000      0.0 0.0 "vc"       "vc"       "Mainly_stacked_fluvial_channel_deposits_probably_of_braided_character"                                                 "Upper_delta_plain"                                                                                                                                                     
3094.9 "6407_7-1"  65.7700 "Sandstone" -999.25   -999.25 100.0000      0.0 0.0 "vc"       "vc"       "Mainly_stacked_fluvial_channel_deposits_probably_of_braided_character"                                                 "Upper_delta_plain"                                                                                                                                                     
3095.0 "6407_7-1"  60.3000 "Sandstone" -999.25   -999.25 100.0000      0.0 0.0 "vc"       "vc"       "Mainly_stacked_fluvial_channel_deposits_probably_of_braided_character"                                                 "Upper_delta_plain"                                                                                                                                                     
3095.1 "6407_7-1"  47.9400 "Sandstone" -999.25   -999.25 100.0000      0.0 0.0 "vc"       "vc"       "Mainly_stacked_fluvial_channel_deposits_probably_of_braided_character"                                                 "Upper_delta_plain"                                                                                                                                                     
