~Version
VERS  .                                 3.0 : CWLS LAS ASCII Standard - Version 3.0
WRAP  . NO                                  : One line per depth step
DLM   . SPACE                               : Column data section delimiter
SOURCE. Converted to LAS by Log Studio 4.76 : GeoProvider

~Well
STRT.         2713.0 : Start depth
STOP.         3118.0 : Stop depth
STEP.              1 : Step
NULL.        -999.25 : No-value
COMP.                : Company
WELL. 6407/7-1       : Well
FLD .                : Field
LOC .                : Location
LATI.                : Latitude
LONG.                : Longitude
GDAT.                : Geodetic datum
CNTY.                : County
STAT.                : State
CTRY.                : Country
SRVC. GeoProvider AS : Service company
DATE.                : Date
API .                : API number
RUN .                : Run number

~Parameters
WellboreName.  : Wellbore name
RigName     .  : Rig name
StartDate   .  : Start date

~Curves
DEPTH.m            .  : null {F}Depth mMD
Hole_ID.-          .  : null {S}Hole ID
GR.API             .  : null {F}Gamma Ray
Lithology1.-       .  : null {S}Lithology 1
Lithology2.-       .  : null {S}Lithology 2
Lithology3.-       .  : null {S}Lithology 3
Lithology1.%       .  : null {F}Lithology 1 percentage
Lithology2.%       .  : null {F}Lithology 2 percentage
Lithology3.%       .  : null {F}Lithology 3 percentage
Grain_size_Top.-   .  : null {S}Grain size at the top 
Grain_size_Base.-  .  : null {S}Grain size at the bottom
Sub_Environment.-  .  : null {S}Sub Environment
Gross_Environment.-.  : null {S}Gross Environment

~Ascii
# ...
2878.9 "6407_7-1"  91.0800 "Sandstone" "Claystone" -999.25  30.0000 70.00000 0.0 "f"        "f/m"      "Mainly_fluvial_influenced_(some_wave_reworking)"                                                                       "Strongly_fluvial_dominated_delta_front_deposits,_freshwater_dominated._Most_proximal_in_lower_parts,_fluvial_dominated_delta_front/bay._Delta_front_deposits_at_the_top."
2879.0 "6407_7-1"  88.6100 "Sandstone" "Claystone" -999.25  30.0000 70.00000 0.0 "f"        "f/m"      "Mainly_fluvial_influenced_(some_wave_reworking)"                                                                       "Strongly_fluvial_dominated_delta_front_deposits,_freshwater_dominated._Most_proximal_in_lower_parts,_fluvial_dominated_delta_front/bay._Delta_front_deposits_at_the_top."
2879.1 "6407_7-1"  87.5800 "Sandstone" "Claystone" -999.25  30.0000 70.00000 0.0 "f"        "f/m"      "Mainly_fluvial_influenced_(some_wave_reworking)"                                                                       "Strongly_fluvial_dominated_delta_front_deposits,_freshwater_dominated._Most_proximal_in_lower_parts,_fluvial_dominated_delta_front/bay._Delta_front_deposits_at_the_top."
2879.2 "6407_7-1"  87.4500 "Sandstone" "Claystone" -999.25  30.0000 70.00000 0.0 "f"        "f/m"      "Mainly_fluvial_influenced_(some_wave_reworking)"                                                                       "Strongly_fluvial_dominated_delta_front_deposits,_freshwater_dominated._Most_proximal_in_lower_parts,_fluvial_dominated_delta_front/bay._Delta_front_deposits_at_the_top."
2879.3 "6407_7-1"  82.5500 "Sandstone" "Claystone" -999.25  30.0000 70.00000 0.0 "f"        "f/m"      "Mainly_fluvial_influenced_(some_wave_reworking)"                                                                       "Strongly_fluvial_dominated_delta_front_deposits,_freshwater_dominated._Most_proximal_in_lower_parts,_fluvial_dominated_delta_front/bay._Delta_front_deposits_at_the_top."
2879.4 "6407_7-1"  77.2500 "Sandstone" "Claystone" -999.25  30.0000 70.00000 0.0 "f"        "f/m"      "Mainly_fluvial_influenced_(some_wave_reworking)"                                                                       "Strongly_fluvial_dominated_delta_front_deposits,_freshwater_dominated._Most_proximal_in_lower_parts,_fluvial_dominated_delta_front/bay._Delta_front_deposits_at_the_top."
2879.5 "6407_7-1"  75.1000 "Sandstone" "Claystone" -999.25  30.0000 70.00000 0.0 "f"        "f/m"      "Mainly_fluvial_influenced_(some_wave_reworking)"                                                                       "Strongly_fluvial_dominated_delta_front_deposits,_freshwater_dominated._Most_proximal_in_lower_parts,_fluvial_dominated_delta_front/bay._Delta_front_deposits_at_the_top."
2879.6 "6407_7-1"  73.9800 "Sandstone" "Claystone" -999.25  30.0000 70.00000 0.0 "f"        "f/m"      "Mainly_fluvial_influenced_(some_wave_reworking)"                                                                       "Strongly_fluvial_dominated_delta_front_deposits,_freshwater_dominated._Most_proximal_in_lower_parts,_fluvial_dominated_delta_front/bay._Delta_front_deposits_at_the_top."
2879.7 "6407_7-1"  73.6400 "Sandstone" "Claystone" -999.25  30.0000 70.00000 0.0 "f"        "f/m"      "Mainly_fluvial_influenced_(some_wave_reworking)"                                                                       "Strongly_fluvial_dominated_delta_front_deposits,_freshwater_dominated._Most_proximal_in_lower_parts,_fluvial_dominated_delta_front/bay._Delta_front_deposits_at_the_top."
2879.8 "6407_7-1"  73.3300 "Sandstone" "Claystone" -999.25  30.0000 70.00000 0.0 "f"        "f/m"      "Mainly_fluvial_influenced_(some_wave_reworking)"                                                                       "Strongly_fluvial_dominated_delta_front_deposits,_freshwater_dominated._Most_proximal_in_lower_parts,_fluvial_dominated_delta_front/bay._Delta_front_deposits_at_the_top."
2879.9 "6407_7-1"  73.4200 "Sandstone" "Claystone" -999.25  30.0000 70.00000 0.0 "f"        "f/m"      "Mainly_fluvial_influenced_(some_wave_reworking)"                                                                       "Strongly_fluvial_dominated_delta_front_deposits,_freshwater_dominated._Most_proximal_in_lower_parts,_fluvial_dominated_delta_front/bay._Delta_front_deposits_at_the_top."
2880.0 "6407_7-1"  72.6200 "Sandstone" "Claystone" -999.25  30.0000 70.00000 0.0 "f"        "f/m"      "Mainly_fluvial_influenced_(some_wave_reworking)"                                                                       "Strongly_fluvial_dominated_delta_front_deposits,_freshwater_dominated._Most_proximal_in_lower_parts,_fluvial_dominated_delta_front/bay._Delta_front_deposits_at_the_top."
2880.1 "6407_7-1"  70.1800 "Sandstone" "Claystone" -999.25  30.0000 70.00000 0.0 "f"        "f/m"      "Mainly_fluvial_influenced_(some_wave_reworking)"                                                                       "Strongly_fluvial_dominated_delta_front_deposits,_freshwater_dominated._Most_proximal_in_lower_parts,_fluvial_dominated_delta_front/bay._Delta_front_deposits_at_the_top."
2880.2 "6407_7-1"  68.2600 "Sandstone" "Claystone" -999.25  30.0000 70.00000 0.0 "f"        "f/m"      "Mainly_fluvial_influenced_(some_wave_reworking)"                                                                       "Strongly_fluvial_dominated_delta_front_deposits,_freshwater_dominated._Most_proximal_in_lower_parts,_fluvial_dominated_delta_front/bay._Delta_front_deposits_at_the_top."
2880.3 "6407_7-1"  66.5400 "Sandstone" "Claystone" -999.25  30.0000 70.00000 0.0 "f"        "f/m"      "Mainly_fluvial_influenced_(some_wave_reworking)"                                                                       "Strongly_fluvial_dominated_delta_front_deposits,_freshwater_dominated._Most_proximal_in_lower_parts,_fluvial_dominated_delta_front/bay._Delta_front_deposits_at_the_top."
2880.4 "6407_7-1"  66.8700 "Sandstone" "Claystone" -999.25  30.0000 70.00000 0.0 "f"        "f/m"      "Mainly_fluvial_influenced_(some_wave_reworking)"                                                                       "Strongly_fluvial_dominated_delta_front_deposits,_freshwater_dominated._Most_proximal_in_lower_parts,_fluvial_dominated_delta_front/bay._Delta_front_deposits_at_the_top."
2880.5 "6407_7-1"  68.1500 "Sandstone" "Claystone" -999.25  30.0000 70.00000 0.0 "f"        "f/m"      "Mainly_fluvial_influenced_(some_wave_reworking)"                                                                       "Strongly_fluvial_dominated_delta_front_deposits,_freshwater_dominated._Most_proximal_in_lower_parts,_fluvial_dominated_delta_front/bay._Delta_front_deposits_at_the_top."
2880.6 "6407_7-1"  69.4200 "Sandstone" "Claystone" -999.25  30.0000 70.00000 0.0 "f"        "f/m"      "Mainly_fluvial_influenced_(some_wave_reworking)"                                                                       "Strongly_fluvial_dominated_delta_front_deposits,_freshwater_dominated._Most_proximal_in_lower_parts,_fluvial_dominated_delta_front/bay._Delta_front_deposits_at_the_top."
2880.7 "6407_7-1"  70.7000 "Sandstone" "Claystone" -999.25  30.0000 70.00000 0.0 "f"        "f/m"      "Mainly_fluvial_influenced_(some_wave_reworking)"                                                                       "Strongly_fluvial_dominated_delta_front_deposits,_freshwater_dominated._Most_proximal_in_lower_parts,_fluvial_dominated_delta_front/bay._Delta_front_deposits_at_the_top."
2880.8 "6407_7-1"  71.5600 "Sandstone" "Claystone" -999.25  30.0000 70.00000 0.0 "f"        "f/m"      "Mainly_fluvial_influenced_(some_wave_reworking)"                                                                       "Strongly_fluvial_dominated_delta_front_deposits,_freshwater_dominated._Most_proximal_in_lower_parts,_fluvial_dominated_delta_front/bay._Delta_front_deposits_at_the_top."
2880.9 "6407_7-1"  71.6900 "Sandstone" "Claystone" -999.25  30.0000 70.00000 0.0 "f"        "f/m"      "Mainly_fluvial_influenced_(some_wave_reworking)"                                                                       "Strongly_fluvial_dominated_delta_front_deposits,_freshwater_dominated._Most_proximal_in_lower_parts,_fluvial_dominated_delta_front/bay._Delta_front_deposits_at_the_top."
