~Version
VERS  .                                 3.0 : CWLS LAS ASCII Standard - Version 3.0
WRAP  . NO                                  : One line per depth step
DLM   . SPACE                               : Column data section delimiter
SOURCE. Converted to LAS by Log Studio 4.76 : GeoProvider

~Well
STRT.         2713.0 : Start depth
STOP.         3118.0 : Stop depth
STEP.              1 : Step
NULL.        -999.25 : No-value
COMP.                : Company
WELL. 6407/7-1       : Well
FLD .                : Field
LOC .                : Location
LATI.                : Latitude
LONG.                : Longitude
GDAT.                : Geodetic datum
CNTY.                : County
STAT.                : State
CTRY.                : Country
SRVC. GeoProvider AS : Service company
DATE.                : Date
API .                : API number
RUN .                : Run number

~Parameters
WellboreName.  : Wellbore name
RigName     .  : Rig name
StartDate   .  : Start date

~Curves
DEPTH.m            .  : null {F}Depth mMD
Hole_ID.-          .  : null {S}Hole ID
GR.API             .  : null {F}Gamma Ray
Lithology1.-       .  : null {S}Lithology 1
Lithology2.-       .  : null {S}Lithology 2
Lithology3.-       .  : null {S}Lithology 3
Lithology1.%       .  : null {F}Lithology 1 percentage
Lithology2.%       .  : null {F}Lithology 2 percentage
Lithology3.%       .  : null {F}Lithology 3 percentage
Grain_size_Top.-   .  : null {S}Grain size at the top 
Grain_size_Base.-  .  : null {S}Grain size at the bottom
Sub_Environment.-  .  : null {S}Sub Environment
Gross_Environment.-.  : null {S}Gross Environment

~Ascii
# ...
2950.3 "6407_7-1"  56.2700 "Sandstone" "Claystone" -999.25  80.0000 20.00000 0.0 "m/c"      "silt/vf"  "Mouth_bar,_closely_related_to_fluvial_distributaries._Moderate_to_low_energy._Restricted_marine."                      "Fluvial_dominated_delta_front_capped_by_bay-fill_strong_component_of_vertical_aggradation."                                                                            
2950.4 "6407_7-1"  57.6700 "Sandstone" "Claystone" -999.25  80.0000 20.00000 0.0 "m/c"      "silt/vf"  "Mouth_bar,_closely_related_to_fluvial_distributaries._Moderate_to_low_energy._Restricted_marine."                      "Fluvial_dominated_delta_front_capped_by_bay-fill_strong_component_of_vertical_aggradation."                                                                            
2950.5 "6407_7-1"  57.4600 "Sandstone" "Claystone" -999.25  80.0000 20.00000 0.0 "m/c"      "silt/vf"  "Mouth_bar,_closely_related_to_fluvial_distributaries._Moderate_to_low_energy._Restricted_marine."                      "Fluvial_dominated_delta_front_capped_by_bay-fill_strong_component_of_vertical_aggradation."                                                                            
2950.6 "6407_7-1"  57.2600 "Sandstone" "Claystone" -999.25  80.0000 20.00000 0.0 "m/c"      "silt/vf"  "Mouth_bar,_closely_related_to_fluvial_distributaries._Moderate_to_low_energy._Restricted_marine."                      "Fluvial_dominated_delta_front_capped_by_bay-fill_strong_component_of_vertical_aggradation."                                                                            
2950.7 "6407_7-1"  57.4100 "Sandstone" "Claystone" -999.25  80.0000 20.00000 0.0 "m/c"      "silt/vf"  "Mouth_bar,_closely_related_to_fluvial_distributaries._Moderate_to_low_energy._Restricted_marine."                      "Fluvial_dominated_delta_front_capped_by_bay-fill_strong_component_of_vertical_aggradation."                                                                            
2950.8 "6407_7-1"  58.4300 "Sandstone" "Claystone" -999.25  80.0000 20.00000 0.0 "m/c"      "silt/vf"  "Mouth_bar,_closely_related_to_fluvial_distributaries._Moderate_to_low_energy._Restricted_marine."                      "Fluvial_dominated_delta_front_capped_by_bay-fill_strong_component_of_vertical_aggradation."                                                                            
2950.9 "6407_7-1"  59.0000 "Sandstone" "Claystone" -999.25  80.0000 20.00000 0.0 "m/c"      "silt/vf"  "Mouth_bar,_closely_related_to_fluvial_distributaries._Moderate_to_low_energy._Restricted_marine."                      "Fluvial_dominated_delta_front_capped_by_bay-fill_strong_component_of_vertical_aggradation."                                                                            
2951.0 "6407_7-1"  59.4300 "Sandstone" "Claystone" -999.25  80.0000 20.00000 0.0 "m/c"      "silt/vf"  "Mouth_bar,_closely_related_to_fluvial_distributaries._Moderate_to_low_energy._Restricted_marine."                      "Fluvial_dominated_delta_front_capped_by_bay-fill_strong_component_of_vertical_aggradation."                                                                            
2951.1 "6407_7-1"  60.0200 "Sandstone" "Claystone" -999.25  80.0000 20.00000 0.0 "m/c"      "silt/vf"  "Mouth_bar,_closely_related_to_fluvial_distributaries._Moderate_to_low_energy._Restricted_marine."                      "Fluvial_dominated_delta_front_capped_by_bay-fill_strong_component_of_vertical_aggradation."                                                                            
2951.2 "6407_7-1"  61.1900 "Sandstone" "Claystone" -999.25  80.0000 20.00000 0.0 "m/c"      "silt/vf"  "Mouth_bar,_closely_related_to_fluvial_distributaries._Moderate_to_low_energy._Restricted_marine."                      "Fluvial_dominated_delta_front_capped_by_bay-fill_strong_component_of_vertical_aggradation."                                                                            
2951.3 "6407_7-1"  59.8800 "Sandstone" "Claystone" -999.25  80.0000 20.00000 0.0 "m/c"      "silt/vf"  "Mouth_bar,_closely_related_to_fluvial_distributaries._Moderate_to_low_energy._Restricted_marine."                      "Fluvial_dominated_delta_front_capped_by_bay-fill_strong_component_of_vertical_aggradation."                                                                            
2951.4 "6407_7-1"  57.6300 "Sandstone" "Claystone" -999.25  80.0000 20.00000 0.0 "m/c"      "silt/vf"  "Mouth_bar,_closely_related_to_fluvial_distributaries._Moderate_to_low_energy._Restricted_marine."                      "Fluvial_dominated_delta_front_capped_by_bay-fill_strong_component_of_vertical_aggradation."                                                                            
2951.5 "6407_7-1"  55.6500 "Sandstone" "Claystone" -999.25  80.0000 20.00000 0.0 "m/c"      "silt/vf"  "Mouth_bar,_closely_related_to_fluvial_distributaries._Moderate_to_low_energy._Restricted_marine."                      "Fluvial_dominated_delta_front_capped_by_bay-fill_strong_component_of_vertical_aggradation."                                                                            
2951.6 "6407_7-1"  53.6600 "Sandstone" "Claystone" -999.25  80.0000 20.00000 0.0 "m/c"      "silt/vf"  "Mouth_bar,_closely_related_to_fluvial_distributaries._Moderate_to_low_energy._Restricted_marine."                      "Fluvial_dominated_delta_front_capped_by_bay-fill_strong_component_of_vertical_aggradation."                                                                            
2951.7 "6407_7-1"  53.4000 "Sandstone" "Claystone" -999.25  80.0000 20.00000 0.0 "m/c"      "silt/vf"  "Mouth_bar,_closely_related_to_fluvial_distributaries._Moderate_to_low_energy._Restricted_marine."                      "Fluvial_dominated_delta_front_capped_by_bay-fill_strong_component_of_vertical_aggradation."                                                                            
2951.8 "6407_7-1"  54.2100 "Sandstone" "Claystone" -999.25  80.0000 20.00000 0.0 "m/c"      "silt/vf"  "Mouth_bar,_closely_related_to_fluvial_distributaries._Moderate_to_low_energy._Restricted_marine."                      "Fluvial_dominated_delta_front_capped_by_bay-fill_strong_component_of_vertical_aggradation."                                                                            
2951.9 "6407_7-1"  54.4500 "Sandstone" "Claystone" -999.25  80.0000 20.00000 0.0 "m/c"      "silt/vf"  "Mouth_bar,_closely_related_to_fluvial_distributaries._Moderate_to_low_energy._Restricted_marine."                      "Fluvial_dominated_delta_front_capped_by_bay-fill_strong_component_of_vertical_aggradation."                                                                            
2952.0 "6407_7-1"  54.3500 "Sandstone" "Claystone" -999.25  80.0000 20.00000 0.0 "m/c"      "silt/vf"  "Mouth_bar,_closely_related_to_fluvial_distributaries._Moderate_to_low_energy._Restricted_marine."                      "Fluvial_dominated_delta_front_capped_by_bay-fill_strong_component_of_vertical_aggradation."                                                                            
2952.1 "6407_7-1"  55.1200 "Sandstone" "Claystone" -999.25  80.0000 20.00000 0.0 "m/c"      "silt/vf"  "Mouth_bar,_closely_related_to_fluvial_distributaries._Moderate_to_low_energy._Restricted_marine."                      "Fluvial_dominated_delta_front_capped_by_bay-fill_strong_component_of_vertical_aggradation."                                                                            
2952.2 "6407_7-1"  55.4000 "Sandstone" "Claystone" -999.25  80.0000 20.00000 0.0 "m/c"      "silt/vf"  "Mouth_bar,_closely_related_to_fluvial_distributaries._Moderate_to_low_energy._Restricted_marine."                      "Fluvial_dominated_delta_front_capped_by_bay-fill_strong_component_of_vertical_aggradation."                                                                            
2952.3 "6407_7-1"  54.0100 "Sandstone" "Claystone" -999.25  80.0000 20.00000 0.0 "m/c"      "silt/vf"  "Mouth_bar,_closely_related_to_fluvial_distributaries._Moderate_to_low_energy._Restricted_marine."                      "Fluvial_dominated_delta_front_capped_by_bay-fill_strong_component_of_vertical_aggradation."                                                                            
