~Version
VERS  .                                 3.0 : CWLS LAS ASCII Standard - Version 3.0
WRAP  . NO                                  : One line per depth step
DLM   . SPACE                               : Column data section delimiter
SOURCE. Converted to LAS by Log Studio 4.76 : GeoProvider

~Well
STRT.         2713.0 : Start depth
STOP.         3118.0 : Stop depth
STEP.              1 : Step
NULL.        -999.25 : No-value
COMP.                : Company
WELL. 6407/7-1       : Well
FLD .                : Field
LOC .                : Location
LATI.                : Latitude
LONG.                : Longitude
GDAT.                : Geodetic datum
CNTY.                : County
STAT.                : State
CTRY.                : Country
SRVC. GeoProvider AS : Service company
DATE.                : Date
API .                : API number
RUN .                : Run number

~Parameters
WellboreName.  : Wellbore name
RigName     .  : Rig name
StartDate   .  : Start date

~Curves
DEPTH.m            .  : null {F}Depth mMD
Hole_ID.-          .  : null {S}Hole ID
GR.API             .  : null {F}Gamma Ray
Lithology1.-       .  : null {S}Lithology 1
Lithology2.-       .  : null {S}Lithology 2
Lithology3.-       .  : null {S}Lithology 3
Lithology1.%       .  : null {F}Lithology 1 percentage
Lithology2.%       .  : null {F}Lithology 2 percentage
Lithology3.%       .  : null {F}Lithology 3 percentage
Grain_size_Top.-   .  : null {S}Grain size at the top 
Grain_size_Base.-  .  : null {S}Grain size at the bottom
Sub_Environment.-  .  : null {S}Sub Environment
Gross_Environment.-.  : null {S}Gross Environment

~Ascii
# ...
2818.0 "6407_7-1" 100.0000 "Sandstone" "Claystone" -999.25   5.0000 95.00000 0.0 "silt/vf"  "clay/silt" -999.25                                                                                                                 -999.25                                                                                                                                                                 
2818.1 "6407_7-1" 102.1900 "Sandstone" "Claystone" -999.25   5.0000 95.00000 0.0 "silt/vf"  "clay/silt" -999.25                                                                                                                 -999.25                                                                                                                                                                 
2818.2 "6407_7-1" 105.1100 "Sandstone" "Claystone" -999.25   5.0000 95.00000 0.0 "silt/vf"  "clay/silt" -999.25                                                                                                                 -999.25                                                                                                                                                                 
2818.3 "6407_7-1" 108.1900 "Sandstone" "Claystone" -999.25   5.0000 95.00000 0.0 "silt/vf"  "clay/silt" -999.25                                                                                                                 -999.25                                                                                                                                                                 
2818.4 "6407_7-1" 108.5400 "Sandstone" "Claystone" -999.25   5.0000 95.00000 0.0 "silt/vf"  "clay/silt" -999.25                                                                                                                 -999.25                                                                                                                                                                 
2818.5 "6407_7-1" 105.8600 "Sandstone" "Claystone" -999.25   5.0000 95.00000 0.0 "silt/vf"  "clay/silt" -999.25                                                                                                                 -999.25                                                                                                                                                                 
2818.6 "6407_7-1" 104.1300 "Sandstone" "Claystone" -999.25   5.0000 95.00000 0.0 "silt/vf"  "clay/silt" -999.25                                                                                                                 -999.25                                                                                                                                                                 
2818.7 "6407_7-1" 103.5700 "Sandstone" "Claystone" -999.25   5.0000 95.00000 0.0 "silt/vf"  "clay/silt" -999.25                                                                                                                 -999.25                                                                                                                                                                 
2818.8 "6407_7-1" 104.4900 "Sandstone" "Claystone" -999.25   5.0000 95.00000 0.0 "silt/vf"  "clay/silt" -999.25                                                                                                                 -999.25                                                                                                                                                                 
2818.9 "6407_7-1" 105.4200 "Sandstone" "Claystone" -999.25   5.0000 95.00000 0.0 "silt/vf"  "clay/silt" -999.25                                                                                                                 -999.25                                                                                                                                                                 
2819.0 "6407_7-1" 106.2400 "Sandstone" "Claystone" -999.25   5.0000 95.00000 0.0 "silt/vf"  "clay/silt" -999.25                                                                                                                 -999.25                                                                                                                                                                 
2819.1 "6407_7-1" 105.5500 "Sandstone" "Claystone" -999.25   5.0000 95.00000 0.0 "silt/vf"  "clay/silt" -999.25                                                                                                                 -999.25                                                                                                                                                                 
2819.2 "6407_7-1" 104.8500 "Sandstone" "Claystone" -999.25   5.0000 95.00000 0.0 "silt/vf"  "clay/silt" -999.25                                                                                                                 -999.25                                                                                                                                                                 
2819.3 "6407_7-1" 105.4500 "Sandstone" "Claystone" -999.25   5.0000 95.00000 0.0 "silt/vf"  "clay/silt" -999.25                                                                                                                 -999.25                                                                                                                                                                 
2819.4 "6407_7-1" 105.2900 "Sandstone" "Claystone" -999.25   5.0000 95.00000 0.0 "silt/vf"  "clay/silt" -999.25                                                                                                                 -999.25                                                                                                                                                                 
2819.5 "6407_7-1" 106.1500 "Sandstone" "Claystone" -999.25   5.0000 95.00000 0.0 "silt/vf"  "clay/silt" -999.25                                                                                                                 -999.25                                                                                                                                                                 
2819.6 "6407_7-1" 107.7800 "Sandstone" "Claystone" -999.25   5.0000 95.00000 0.0 "silt/vf"  "clay/silt" -999.25                                                                                                                 -999.25                                                                                                                                                                 
2819.7 "6407_7-1" 109.0200 "Sandstone" "Claystone" -999.25   5.0000 95.00000 0.0 "silt/vf"  "clay/silt" -999.25                                                                                                                 -999.25                                                                                                                                                                 
2819.8 "6407_7-1" 108.0200 "Sandstone" "Claystone" -999.25   5.0000 95.00000 0.0 "silt/vf"  "clay/silt" -999.25                                                                                                                 -999.25                                                                                                                                                                 
2819.9 "6407_7-1" 107.4400 "Sandstone" "Claystone" -999.25   5.0000 95.00000 0.0 "silt/vf"  "clay/silt" -999.25                                                                                                                 -999.25                                                                                                                                                                 
2820.0 "6407_7-1" 107.2700 "Sandstone" "Claystone" -999.25   5.0000 95.00000 0.0 "silt/vf"  "clay/silt" -999.25                                                                                                                 -999.25                                                                                                                                                                 
