~Version
VERS  .                                 3.0 : CWLS LAS ASCII Standard - Version 3.0
WRAP  . NO                                  : One line per depth step
DLM   . SPACE                               : Column data section delimiter
SOURCE. Converted to LAS by Log Studio 4.76 : GeoProvider

~Well
STRT.         2713.0 : Start depth
STOP.         3118.0 : Stop depth
STEP.              1 : Step
NULL.        -999.25 : No-value
COMP.                : Company
WELL. 6407/7-1       : Well
FLD .                : Field
LOC .                : Location
LATI.                : Latitude
LONG.                : Longitude
GDAT.                : Geodetic datum
CNTY.                : County
STAT.                : State
CTRY.                : Country
SRVC. GeoProvider AS : Service company
DATE.                : Date
API .                : API number
RUN .                : Run number

~Parameters
WellboreName.  : Wellbore name
RigName     .  : Rig name
StartDate   .  : Start date

~Curves
DEPTH.m            .  : null {F}Depth mMD
Hole_ID.-          .  : null {S}Hole ID
GR.API             .  : null {F}Gamma Ray
Lithology1.-       .  : null {S}Lithology 1
Lithology2.-       .  : null {S}Lithology 2
Lithology3.-       .  : null {S}Lithology 3
Lithology1.%       .  : null {F}Lithology 1 percentage
Lithology2.%       .  : null {F}Lithology 2 percentage
Lithology3.%       .  : null {F}Lithology 3 percentage
Grain_size_Top.-   .  : null {S}Grain size at the top 
Grain_size_Base.-  .  : null {S}Grain size at the bottom
Sub_Environment.-  .  : null {S}Sub Environment
Gross_Environment.-.  : null {S}Gross Environment

~Ascii
# ...
3021.7 "6407_7-1"  58.3900 "Sandstone" "Claystone" -999.25  92.0000  8.00000 0.0 "m"        "m/c"      "Bay/Floodplain_deposits_dominated_by_crevasse_splays"                                                                  "Lower_delta_plain/costal_plain"                                                                                                                                        
3021.8 "6407_7-1"  62.8800 "Sandstone" "Claystone" -999.25  92.0000  8.00000 0.0 "m"        "m/c"      "Bay/Floodplain_deposits_dominated_by_crevasse_splays"                                                                  "Lower_delta_plain/costal_plain"                                                                                                                                        
3021.9 "6407_7-1"  67.3000 "Sandstone" "Claystone" -999.25  92.0000  8.00000 0.0 "m"        "m/c"      "Bay/Floodplain_deposits_dominated_by_crevasse_splays"                                                                  "Lower_delta_plain/costal_plain"                                                                                                                                        
3022.0 "6407_7-1"  71.6900 "Sandstone" "Claystone" -999.25  92.0000  8.00000 0.0 "m"        "m/c"      "Bay/Floodplain_deposits_dominated_by_crevasse_splays"                                                                  "Lower_delta_plain/costal_plain"                                                                                                                                        
3022.1 "6407_7-1"  73.6700 "Sandstone" "Claystone" -999.25  92.0000  8.00000 0.0 "m"        "m/c"      "Bay/Floodplain_deposits_dominated_by_crevasse_splays"                                                                  "Lower_delta_plain/costal_plain"                                                                                                                                        
3022.2 "6407_7-1"  74.0300 "Sandstone" "Claystone" -999.25  92.0000  8.00000 0.0 "m"        "m/c"      "Bay/Floodplain_deposits_dominated_by_crevasse_splays"                                                                  "Lower_delta_plain/costal_plain"                                                                                                                                        
3022.3 "6407_7-1"  74.3800 "Sandstone" "Claystone" -999.25  92.0000  8.00000 0.0 "m"        "m/c"      "Bay/Floodplain_deposits_dominated_by_crevasse_splays"                                                                  "Lower_delta_plain/costal_plain"                                                                                                                                        
3022.4 "6407_7-1"  73.9100 "Sandstone" "Claystone" -999.25  92.0000  8.00000 0.0 "m"        "m/c"      "Bay/Floodplain_deposits_dominated_by_crevasse_splays"                                                                  "Lower_delta_plain/costal_plain"                                                                                                                                        
3022.5 "6407_7-1"  65.7600 "Sandstone" "Claystone" -999.25  92.0000  8.00000 0.0 "m"        "m/c"      "Bay/Floodplain_deposits_dominated_by_crevasse_splays"                                                                  "Lower_delta_plain/costal_plain"                                                                                                                                        
3022.6 "6407_7-1"  65.7600 "Sandstone" "Claystone" -999.25  92.0000  8.00000 0.0 "m"        "m/c"      "Bay/Floodplain_deposits_dominated_by_crevasse_splays"                                                                  "Lower_delta_plain/costal_plain"                                                                                                                                        
3022.7 "6407_7-1"  64.5600 "Sandstone" "Claystone" -999.25  92.0000  8.00000 0.0 "m"        "m/c"      "Bay/Floodplain_deposits_dominated_by_crevasse_splays"                                                                  "Lower_delta_plain/costal_plain"                                                                                                                                        
3022.8 "6407_7-1"  60.6800 "Sandstone" "Claystone" -999.25  92.0000  8.00000 0.0 "m"        "m/c"      "Bay/Floodplain_deposits_dominated_by_crevasse_splays"                                                                  "Lower_delta_plain/costal_plain"                                                                                                                                        
3022.9 "6407_7-1"  55.0000 "Sandstone" "Claystone" -999.25  92.0000  8.00000 0.0 "m"        "m/c"      "Bay/Floodplain_deposits_dominated_by_crevasse_splays"                                                                  "Lower_delta_plain/costal_plain"                                                                                                                                        
3023.0 "6407_7-1"  48.8600 "Sandstone" "Claystone" -999.25  92.0000  8.00000 0.0 "m"        "m/c"      "Bay/Floodplain_deposits_dominated_by_crevasse_splays"                                                                  "Lower_delta_plain/costal_plain"                                                                                                                                        
3023.1 "6407_7-1"  46.2000 "Sandstone" "Claystone" -999.25  92.0000  8.00000 0.0 "m"        "m/c"      "Bay/Floodplain_deposits_dominated_by_crevasse_splays"                                                                  "Lower_delta_plain/costal_plain"                                                                                                                                        
3023.2 "6407_7-1"  45.5800 "Sandstone" "Claystone" -999.25  92.0000  8.00000 0.0 "m"        "m/c"      "Bay/Floodplain_deposits_dominated_by_crevasse_splays"                                                                  "Lower_delta_plain/costal_plain"                                                                                                                                        
3023.3 "6407_7-1"  47.8200 "Sandstone" "Claystone" -999.25  92.0000  8.00000 0.0 "m"        "m/c"      "Bay/Floodplain_deposits_dominated_by_crevasse_splays"                                                                  "Lower_delta_plain/costal_plain"                                                                                                                                        
3023.4 "6407_7-1"  46.4700 "Sandstone" "Claystone" -999.25  92.0000  8.00000 0.0 "m"        "m/c"      "Bay/Floodplain_deposits_dominated_by_crevasse_splays"                                                                  "Lower_delta_plain/costal_plain"                                                                                                                                        
3023.5 "6407_7-1"  44.6600 "Sandstone" "Claystone" -999.25  92.0000  8.00000 0.0 "m"        "m/c"      "Bay/Floodplain_deposits_dominated_by_crevasse_splays"                                                                  "Lower_delta_plain/costal_plain"                                                                                                                                        
3023.6 "6407_7-1"  45.3600 "Sandstone" "Claystone" -999.25  92.0000  8.00000 0.0 "m"        "m/c"      "Bay/Floodplain_deposits_dominated_by_crevasse_splays"                                                                  "Lower_delta_plain/costal_plain"                                                                                                                                        
3023.7 "6407_7-1"  47.4200 "Sandstone" "Claystone" -999.25  92.0000  8.00000 0.0 "m"        "m/c"      "Bay/Floodplain_deposits_dominated_by_crevasse_splays"                                                                  "Lower_delta_plain/costal_plain"                                                                                                                                        
