~Version
VERS  .                                 3.0 : CWLS LAS ASCII Standard - Version 3.0
WRAP  . NO                                  : One line per depth step
DLM   . SPACE                               : Column data section delimiter
SOURCE. Converted to LAS by Log Studio 4.76 : GeoProvider

~Well
STRT.         2713.0 : Start depth
STOP.         3118.0 : Stop depth
STEP.              1 : Step
NULL.        -999.25 : No-value
COMP.                : Company
WELL. 6407/7-1       : Well
FLD .                : Field
LOC .                : Location
LATI.                : Latitude
LONG.                : Longitude
GDAT.                : Geodetic datum
CNTY.                : County
STAT.                : State
CTRY.                : Country
SRVC. GeoProvider AS : Service company
DATE.                : Date
API .                : API number
RUN .                : Run number

~Parameters
WellboreName.  : Wellbore name
RigName     .  : Rig name
StartDate   .  : Start date

~Curves
DEPTH.m            .  : null {F}Depth mMD
Hole_ID.-          .  : null {S}Hole ID
GR.API             .  : null {F}Gamma Ray
Lithology1.-       .  : null {S}Lithology 1
Lithology2.-       .  : null {S}Lithology 2
Lithology3.-       .  : null {S}Lithology 3
Lithology1.%       .  : null {F}Lithology 1 percentage
Lithology2.%       .  : null {F}Lithology 2 percentage
Lithology3.%       .  : null {F}Lithology 3 percentage
Grain_size_Top.-   .  : null {S}Grain size at the top 
Grain_size_Base.-  .  : null {S}Grain size at the bottom
Sub_Environment.-  .  : null {S}Sub Environment
Gross_Environment.-.  : null {S}Gross Environment

~Ascii
# ...
2927.2 "6407_7-1"  60.2500 "Sandstone" "Claystone" -999.25  65.0000 35.00000 0.0 "silt/vf"  "silt/vf"  "Proximal_delta_front_deposits._Mainly_prograding_mouth_bars._Som_bay_deposits._Strongly_fluvial_dominated_delta_system." "Strongly_fluvial_dominated_delta_front_deposits,_freshwater_dominated._Most_proximal_in_lower_parts,_fluvial_dominated_delta_front/bay._Delta_front_deposits_at_the_top."
2927.3 "6407_7-1"  62.1200 "Sandstone" "Claystone" -999.25  65.0000 35.00000 0.0 "silt/vf"  "silt/vf"  "Proximal_delta_front_deposits._Mainly_prograding_mouth_bars._Som_bay_deposits._Strongly_fluvial_dominated_delta_system." "Strongly_fluvial_dominated_delta_front_deposits,_freshwater_dominated._Most_proximal_in_lower_parts,_fluvial_dominated_delta_front/bay._Delta_front_deposits_at_the_top."
2927.4 "6407_7-1"  63.8800 "Sandstone" "Claystone" -999.25  65.0000 35.00000 0.0 "silt/vf"  "silt/vf"  "Proximal_delta_front_deposits._Mainly_prograding_mouth_bars._Som_bay_deposits._Strongly_fluvial_dominated_delta_system." "Strongly_fluvial_dominated_delta_front_deposits,_freshwater_dominated._Most_proximal_in_lower_parts,_fluvial_dominated_delta_front/bay._Delta_front_deposits_at_the_top."
2927.5 "6407_7-1"  68.7800 "Sandstone" "Claystone" -999.25  65.0000 35.00000 0.0 "silt/vf"  "silt/vf"  "Proximal_delta_front_deposits._Mainly_prograding_mouth_bars._Som_bay_deposits._Strongly_fluvial_dominated_delta_system." "Strongly_fluvial_dominated_delta_front_deposits,_freshwater_dominated._Most_proximal_in_lower_parts,_fluvial_dominated_delta_front/bay._Delta_front_deposits_at_the_top."
2927.6 "6407_7-1"  69.6600 "Sandstone" "Claystone" -999.25  65.0000 35.00000 0.0 "silt/vf"  "silt/vf"  "Proximal_delta_front_deposits._Mainly_prograding_mouth_bars._Som_bay_deposits._Strongly_fluvial_dominated_delta_system." "Strongly_fluvial_dominated_delta_front_deposits,_freshwater_dominated._Most_proximal_in_lower_parts,_fluvial_dominated_delta_front/bay._Delta_front_deposits_at_the_top."
2927.7 "6407_7-1"  69.8000 "Sandstone" "Claystone" -999.25  65.0000 35.00000 0.0 "silt/vf"  "silt/vf"  "Proximal_delta_front_deposits._Mainly_prograding_mouth_bars._Som_bay_deposits._Strongly_fluvial_dominated_delta_system." "Strongly_fluvial_dominated_delta_front_deposits,_freshwater_dominated._Most_proximal_in_lower_parts,_fluvial_dominated_delta_front/bay._Delta_front_deposits_at_the_top."
2927.8 "6407_7-1"  66.5100 "Sandstone" "Claystone" -999.25  65.0000 35.00000 0.0 "silt/vf"  "silt/vf"  "Proximal_delta_front_deposits._Mainly_prograding_mouth_bars._Som_bay_deposits._Strongly_fluvial_dominated_delta_system." "Strongly_fluvial_dominated_delta_front_deposits,_freshwater_dominated._Most_proximal_in_lower_parts,_fluvial_dominated_delta_front/bay._Delta_front_deposits_at_the_top."
2927.9 "6407_7-1"  63.2400 "Sandstone" "Claystone" -999.25  65.0000 35.00000 0.0 "silt/vf"  "silt/vf"  "Proximal_delta_front_deposits._Mainly_prograding_mouth_bars._Som_bay_deposits._Strongly_fluvial_dominated_delta_system." "Strongly_fluvial_dominated_delta_front_deposits,_freshwater_dominated._Most_proximal_in_lower_parts,_fluvial_dominated_delta_front/bay._Delta_front_deposits_at_the_top."
2928.0 "6407_7-1"  64.2000 "Sandstone" "Claystone" -999.25  65.0000 35.00000 0.0 "silt/vf"  "silt/vf"  "Proximal_delta_front_deposits._Mainly_prograding_mouth_bars._Som_bay_deposits._Strongly_fluvial_dominated_delta_system." "Strongly_fluvial_dominated_delta_front_deposits,_freshwater_dominated._Most_proximal_in_lower_parts,_fluvial_dominated_delta_front/bay._Delta_front_deposits_at_the_top."
2928.1 "6407_7-1"  63.8700 "Sandstone" "Claystone" -999.25  65.0000 35.00000 0.0 "silt/vf"  "silt/vf"  "Proximal_delta_front_deposits._Mainly_prograding_mouth_bars._Som_bay_deposits._Strongly_fluvial_dominated_delta_system." "Strongly_fluvial_dominated_delta_front_deposits,_freshwater_dominated._Most_proximal_in_lower_parts,_fluvial_dominated_delta_front/bay._Delta_front_deposits_at_the_top."
2928.2 "6407_7-1"  63.1000 "Sandstone" "Claystone" -999.25  65.0000 35.00000 0.0 "silt/vf"  "silt/vf"  "Proximal_delta_front_deposits._Mainly_prograding_mouth_bars._Som_bay_deposits._Strongly_fluvial_dominated_delta_system." "Strongly_fluvial_dominated_delta_front_deposits,_freshwater_dominated._Most_proximal_in_lower_parts,_fluvial_dominated_delta_front/bay._Delta_front_deposits_at_the_top."
2928.3 "6407_7-1"  62.7700 "Sandstone" "Claystone" -999.25  65.0000 35.00000 0.0 "silt/vf"  "silt/vf"  "Proximal_delta_front_deposits._Mainly_prograding_mouth_bars._Som_bay_deposits._Strongly_fluvial_dominated_delta_system." "Strongly_fluvial_dominated_delta_front_deposits,_freshwater_dominated._Most_proximal_in_lower_parts,_fluvial_dominated_delta_front/bay._Delta_front_deposits_at_the_top."
2928.4 "6407_7-1"  62.6100 "Sandstone" "Claystone" -999.25  65.0000 35.00000 0.0 "silt/vf"  "silt/vf"  "Proximal_delta_front_deposits._Mainly_prograding_mouth_bars._Som_bay_deposits._Strongly_fluvial_dominated_delta_system." "Strongly_fluvial_dominated_delta_front_deposits,_freshwater_dominated._Most_proximal_in_lower_parts,_fluvial_dominated_delta_front/bay._Delta_front_deposits_at_the_top."
2928.5 "6407_7-1"  61.9600 "Sandstone" "Claystone" -999.25  65.0000 35.00000 0.0 "silt/vf"  "silt/vf"  "Proximal_delta_front_deposits._Mainly_prograding_mouth_bars._Som_bay_deposits._Strongly_fluvial_dominated_delta_system." "Strongly_fluvial_dominated_delta_front_deposits,_freshwater_dominated._Most_proximal_in_lower_parts,_fluvial_dominated_delta_front/bay._Delta_front_deposits_at_the_top."
2928.6 "6407_7-1"  63.3100 "Sandstone" "Claystone" -999.25  65.0000 35.00000 0.0 "silt/vf"  "silt/vf"  "Proximal_delta_front_deposits._Mainly_prograding_mouth_bars._Som_bay_deposits._Strongly_fluvial_dominated_delta_system." "Strongly_fluvial_dominated_delta_front_deposits,_freshwater_dominated._Most_proximal_in_lower_parts,_fluvial_dominated_delta_front/bay._Delta_front_deposits_at_the_top."
2928.7 "6407_7-1"  65.7400 "Sandstone" "Claystone" -999.25  65.0000 35.00000 0.0 "silt/vf"  "silt/vf"  "Proximal_delta_front_deposits._Mainly_prograding_mouth_bars._Som_bay_deposits._Strongly_fluvial_dominated_delta_system." "Strongly_fluvial_dominated_delta_front_deposits,_freshwater_dominated._Most_proximal_in_lower_parts,_fluvial_dominated_delta_front/bay._Delta_front_deposits_at_the_top."
2928.8 "6407_7-1"  67.1300 "Sandstone" "Claystone" -999.25  65.0000 35.00000 0.0 "silt/vf"  "silt/vf"  "Proximal_delta_front_deposits._Mainly_prograding_mouth_bars._Som_bay_deposits._Strongly_fluvial_dominated_delta_system." "Strongly_fluvial_dominated_delta_front_deposits,_freshwater_dominated._Most_proximal_in_lower_parts,_fluvial_dominated_delta_front/bay._Delta_front_deposits_at_the_top."
2928.9 "6407_7-1"  66.2600 "Sandstone" "Claystone" -999.25  65.0000 35.00000 0.0 "silt/vf"  "silt/vf"  "Proximal_delta_front_deposits._Mainly_prograding_mouth_bars._Som_bay_deposits._Strongly_fluvial_dominated_delta_system." "Strongly_fluvial_dominated_delta_front_deposits,_freshwater_dominated._Most_proximal_in_lower_parts,_fluvial_dominated_delta_front/bay._Delta_front_deposits_at_the_top."
2929.0 "6407_7-1"  65.4000 "Sandstone" "Claystone" -999.25  65.0000 35.00000 0.0 "silt/vf"  "silt/vf"  "Proximal_delta_front_deposits._Mainly_prograding_mouth_bars._Som_bay_deposits._Strongly_fluvial_dominated_delta_system." "Strongly_fluvial_dominated_delta_front_deposits,_freshwater_dominated._Most_proximal_in_lower_parts,_fluvial_dominated_delta_front/bay._Delta_front_deposits_at_the_top."
2929.1 "6407_7-1"  61.4100 "Sandstone" "Claystone" -999.25  65.0000 35.00000 0.0 "silt/vf"  "silt/vf"  "Proximal_delta_front_deposits._Mainly_prograding_mouth_bars._Som_bay_deposits._Strongly_fluvial_dominated_delta_system." "Strongly_fluvial_dominated_delta_front_deposits,_freshwater_dominated._Most_proximal_in_lower_parts,_fluvial_dominated_delta_front/bay._Delta_front_deposits_at_the_top."
2929.2 "6407_7-1"  58.2500 "Sandstone" "Claystone" -999.25  65.0000 35.00000 0.0 "silt/vf"  "silt/vf"  "Proximal_delta_front_deposits._Mainly_prograding_mouth_bars._Som_bay_deposits._Strongly_fluvial_dominated_delta_system." "Strongly_fluvial_dominated_delta_front_deposits,_freshwater_dominated._Most_proximal_in_lower_parts,_fluvial_dominated_delta_front/bay._Delta_front_deposits_at_the_top."
