~Version
VERS  .                                 3.0 : CWLS LAS ASCII Standard - Version 3.0
WRAP  . NO                                  : One line per depth step
DLM   . SPACE                               : Column data section delimiter
SOURCE. Converted to LAS by Log Studio 4.76 : GeoProvider

~Well
STRT.         2713.0 : Start depth
STOP.         3118.0 : Stop depth
STEP.              1 : Step
NULL.        -999.25 : No-value
COMP.                : Company
WELL. 6407/7-1       : Well
FLD .                : Field
LOC .                : Location
LATI.                : Latitude
LONG.                : Longitude
GDAT.                : Geodetic datum
CNTY.                : County
STAT.                : State
CTRY.                : Country
SRVC. GeoProvider AS : Service company
DATE.                : Date
API .                : API number
RUN .                : Run number

~Parameters
WellboreName.  : Wellbore name
RigName     .  : Rig name
StartDate   .  : Start date

~Curves
DEPTH.m            .  : null {F}Depth mMD
Hole_ID.-          .  : null {S}Hole ID
GR.API             .  : null {F}Gamma Ray
Lithology1.-       .  : null {S}Lithology 1
Lithology2.-       .  : null {S}Lithology 2
Lithology3.-       .  : null {S}Lithology 3
Lithology1.%       .  : null {F}Lithology 1 percentage
Lithology2.%       .  : null {F}Lithology 2 percentage
Lithology3.%       .  : null {F}Lithology 3 percentage
Grain_size_Top.-   .  : null {S}Grain size at the top 
Grain_size_Base.-  .  : null {S}Grain size at the bottom
Sub_Environment.-  .  : null {S}Sub Environment
Gross_Environment.-.  : null {S}Gross Environment

~Ascii
# ...
2998.6 "6407_7-1"  66.8400 "Sandstone" "Claystone" -999.25  35.0000 65.00000 0.0 "silt/vf"  "f/m"      "Bay/Floodplain_with_occasional_development_of_micro_delta_(minor_mouth_bars)"                                          "Lower_delta_plain/costal_plain"                                                                                                                                        
2998.7 "6407_7-1"  70.8700 "Sandstone" "Claystone" -999.25  35.0000 65.00000 0.0 "silt/vf"  "f/m"      "Bay/Floodplain_with_occasional_development_of_micro_delta_(minor_mouth_bars)"                                          "Lower_delta_plain/costal_plain"                                                                                                                                        
2998.8 "6407_7-1"  75.1600 "Sandstone" "Claystone" -999.25  35.0000 65.00000 0.0 "silt/vf"  "f/m"      "Bay/Floodplain_with_occasional_development_of_micro_delta_(minor_mouth_bars)"                                          "Lower_delta_plain/costal_plain"                                                                                                                                        
2998.9 "6407_7-1"  71.0500 "Sandstone" "Claystone" -999.25  35.0000 65.00000 0.0 "silt/vf"  "f/m"      "Bay/Floodplain_with_occasional_development_of_micro_delta_(minor_mouth_bars)"                                          "Lower_delta_plain/costal_plain"                                                                                                                                        
2999.0 "6407_7-1"  67.3800 "Sandstone" "Claystone" -999.25  35.0000 65.00000 0.0 "silt/vf"  "f/m"      "Bay/Floodplain_with_occasional_development_of_micro_delta_(minor_mouth_bars)"                                          "Lower_delta_plain/costal_plain"                                                                                                                                        
2999.1 "6407_7-1"  69.4400 "Sandstone" "Claystone" -999.25  35.0000 65.00000 0.0 "silt/vf"  "f/m"      "Bay/Floodplain_with_occasional_development_of_micro_delta_(minor_mouth_bars)"                                          "Lower_delta_plain/costal_plain"                                                                                                                                        
2999.2 "6407_7-1"  69.4400 "Sandstone" "Claystone" -999.25  35.0000 65.00000 0.0 "silt/vf"  "f/m"      "Bay/Floodplain_with_occasional_development_of_micro_delta_(minor_mouth_bars)"                                          "Lower_delta_plain/costal_plain"                                                                                                                                        
2999.3 "6407_7-1"  68.0300 "Sandstone" "Claystone" -999.25  35.0000 65.00000 0.0 "silt/vf"  "f/m"      "Bay/Floodplain_with_occasional_development_of_micro_delta_(minor_mouth_bars)"                                          "Lower_delta_plain/costal_plain"                                                                                                                                        
2999.4 "6407_7-1"  66.6300 "Sandstone" "Claystone" -999.25  35.0000 65.00000 0.0 "silt/vf"  "f/m"      "Bay/Floodplain_with_occasional_development_of_micro_delta_(minor_mouth_bars)"                                          "Lower_delta_plain/costal_plain"                                                                                                                                        
2999.5 "6407_7-1"  65.2300 "Sandstone" "Claystone" -999.25  35.0000 65.00000 0.0 "silt/vf"  "f/m"      "Bay/Floodplain_with_occasional_development_of_micro_delta_(minor_mouth_bars)"                                          "Lower_delta_plain/costal_plain"                                                                                                                                        
2999.6 "6407_7-1"  63.8300 "Sandstone" "Claystone" -999.25  35.0000 65.00000 0.0 "silt/vf"  "f/m"      "Bay/Floodplain_with_occasional_development_of_micro_delta_(minor_mouth_bars)"                                          "Lower_delta_plain/costal_plain"                                                                                                                                        
2999.7 "6407_7-1"  62.1100 "Sandstone" "Claystone" -999.25  35.0000 65.00000 0.0 "silt/vf"  "f/m"      "Bay/Floodplain_with_occasional_development_of_micro_delta_(minor_mouth_bars)"                                          "Lower_delta_plain/costal_plain"                                                                                                                                        
2999.8 "6407_7-1"  59.7100 "Sandstone" "Claystone" -999.25  35.0000 65.00000 0.0 "silt/vf"  "f/m"      "Bay/Floodplain_with_occasional_development_of_micro_delta_(minor_mouth_bars)"                                          "Lower_delta_plain/costal_plain"                                                                                                                                        
2999.9 "6407_7-1"  61.6500 "Sandstone" "Claystone" -999.25  35.0000 65.00000 0.0 "silt/vf"  "f/m"      "Bay/Floodplain_with_occasional_development_of_micro_delta_(minor_mouth_bars)"                                          "Lower_delta_plain/costal_plain"                                                                                                                                        
3000.0 "6407_7-1"  62.9800 "Sandstone" "Claystone" -999.25  35.0000 65.00000 0.0 "silt/vf"  "f/m"      "Bay/Floodplain_with_occasional_development_of_micro_delta_(minor_mouth_bars)"                                          "Lower_delta_plain/costal_plain"                                                                                                                                        
3000.1 "6407_7-1"  63.4700 "Sandstone" "Claystone" -999.25  35.0000 65.00000 0.0 "silt/vf"  "f/m"      "Bay/Floodplain_with_occasional_development_of_micro_delta_(minor_mouth_bars)"                                          "Lower_delta_plain/costal_plain"                                                                                                                                        
3000.2 "6407_7-1"  63.9700 "Sandstone" "Claystone" -999.25  35.0000 65.00000 0.0 "silt/vf"  "f/m"      "Bay/Floodplain_with_occasional_development_of_micro_delta_(minor_mouth_bars)"                                          "Lower_delta_plain/costal_plain"                                                                                                                                        
3000.3 "6407_7-1"  64.1800 "Sandstone" "Claystone" -999.25  35.0000 65.00000 0.0 "silt/vf"  "f/m"      "Bay/Floodplain_with_occasional_development_of_micro_delta_(minor_mouth_bars)"                                          "Lower_delta_plain/costal_plain"                                                                                                                                        
3000.4 "6407_7-1"  64.3900 "Sandstone" "Claystone" -999.25  35.0000 65.00000 0.0 "silt/vf"  "f/m"      "Bay/Floodplain_with_occasional_development_of_micro_delta_(minor_mouth_bars)"                                          "Lower_delta_plain/costal_plain"                                                                                                                                        
3000.5 "6407_7-1"  64.5600 "Sandstone" "Claystone" -999.25  35.0000 65.00000 0.0 "silt/vf"  "f/m"      "Bay/Floodplain_with_occasional_development_of_micro_delta_(minor_mouth_bars)"                                          "Lower_delta_plain/costal_plain"                                                                                                                                        
3000.6 "6407_7-1"  62.7700 "Sandstone" "Claystone" -999.25  35.0000 65.00000 0.0 "silt/vf"  "f/m"      "Bay/Floodplain_with_occasional_development_of_micro_delta_(minor_mouth_bars)"                                          "Lower_delta_plain/costal_plain"                                                                                                                                        
