~Version
VERS  .                                 3.0 : CWLS LAS ASCII Standard - Version 3.0
WRAP  . NO                                  : One line per depth step
DLM   . SPACE                               : Column data section delimiter
SOURCE. Converted to LAS by Log Studio 4.76 : GeoProvider

~Well
STRT.         2713.0 : Start depth
STOP.         3118.0 : Stop depth
STEP.              1 : Step
NULL.        -999.25 : No-value
COMP.                : Company
WELL. 6407/7-1       : Well
FLD .                : Field
LOC .                : Location
LATI.                : Latitude
LONG.                : Longitude
GDAT.                : Geodetic datum
CNTY.                : County
STAT.                : State
CTRY.                : Country
SRVC. GeoProvider AS : Service company
DATE.                : Date
API .                : API number
RUN .                : Run number

~Parameters
WellboreName.  : Wellbore name
RigName     .  : Rig name
StartDate   .  : Start date

~Curves
DEPTH.m            .  : null {F}Depth mMD
Hole_ID.-          .  : null {S}Hole ID
GR.API             .  : null {F}Gamma Ray
Lithology1.-       .  : null {S}Lithology 1
Lithology2.-       .  : null {S}Lithology 2
Lithology3.-       .  : null {S}Lithology 3
Lithology1.%       .  : null {F}Lithology 1 percentage
Lithology2.%       .  : null {F}Lithology 2 percentage
Lithology3.%       .  : null {F}Lithology 3 percentage
Grain_size_Top.-   .  : null {S}Grain size at the top 
Grain_size_Base.-  .  : null {S}Grain size at the bottom
Sub_Environment.-  .  : null {S}Sub Environment
Gross_Environment.-.  : null {S}Gross Environment

~Ascii
# ...
2973.4 "6407_7-1"  53.7700 "Sandstone" -999.25   -999.25 100.0000      0.0 0.0 "f/m"      "f/m"      "Mouth_bar,_closely_related_to_fluvial_distributaries._Moderate_to_low_energy._Restricted_marine."                      "Fluvial_dominated_delta_front_capped_by_bay-fill_strong_component_of_vertical_aggradation."                                                                            
2973.5 "6407_7-1"  51.7700 "Sandstone" -999.25   -999.25 100.0000      0.0 0.0 "f/m"      "f/m"      "Mouth_bar,_closely_related_to_fluvial_distributaries._Moderate_to_low_energy._Restricted_marine."                      "Fluvial_dominated_delta_front_capped_by_bay-fill_strong_component_of_vertical_aggradation."                                                                            
2973.6 "6407_7-1"  51.6400 "Sandstone" -999.25   -999.25 100.0000      0.0 0.0 "f/m"      "f/m"      "Mouth_bar,_closely_related_to_fluvial_distributaries._Moderate_to_low_energy._Restricted_marine."                      "Fluvial_dominated_delta_front_capped_by_bay-fill_strong_component_of_vertical_aggradation."                                                                            
2973.7 "6407_7-1"  50.5900 "Sandstone" -999.25   -999.25 100.0000      0.0 0.0 "f/m"      "f/m"      "Mouth_bar,_closely_related_to_fluvial_distributaries._Moderate_to_low_energy._Restricted_marine."                      "Fluvial_dominated_delta_front_capped_by_bay-fill_strong_component_of_vertical_aggradation."                                                                            
2973.8 "6407_7-1"  49.2000 "Sandstone" -999.25   -999.25 100.0000      0.0 0.0 "f/m"      "f/m"      "Mouth_bar,_closely_related_to_fluvial_distributaries._Moderate_to_low_energy._Restricted_marine."                      "Fluvial_dominated_delta_front_capped_by_bay-fill_strong_component_of_vertical_aggradation."                                                                            
2973.9 "6407_7-1"  48.7400 "Sandstone" -999.25   -999.25 100.0000      0.0 0.0 "f/m"      "f/m"      "Mouth_bar,_closely_related_to_fluvial_distributaries._Moderate_to_low_energy._Restricted_marine."                      "Fluvial_dominated_delta_front_capped_by_bay-fill_strong_component_of_vertical_aggradation."                                                                            
2974.0 "6407_7-1"  48.2700 "Sandstone" -999.25   -999.25 100.0000      0.0 0.0 "f/m"      "f/m"      "Mouth_bar,_closely_related_to_fluvial_distributaries._Moderate_to_low_energy._Restricted_marine."                      "Fluvial_dominated_delta_front_capped_by_bay-fill_strong_component_of_vertical_aggradation."                                                                            
2974.1 "6407_7-1"  45.1400 "Sandstone" -999.25   -999.25 100.0000      0.0 0.0 "f/m"      "f/m"      "Mouth_bar,_closely_related_to_fluvial_distributaries._Moderate_to_low_energy._Restricted_marine."                      "Fluvial_dominated_delta_front_capped_by_bay-fill_strong_component_of_vertical_aggradation."                                                                            
2974.2 "6407_7-1"  45.0700 "Sandstone" -999.25   -999.25 100.0000      0.0 0.0 "f/m"      "f/m"      "Mouth_bar,_closely_related_to_fluvial_distributaries._Moderate_to_low_energy._Restricted_marine."                      "Fluvial_dominated_delta_front_capped_by_bay-fill_strong_component_of_vertical_aggradation."                                                                            
2974.3 "6407_7-1"  45.0100 "Sandstone" -999.25   -999.25 100.0000      0.0 0.0 "f/m"      "f/m"      "Mouth_bar,_closely_related_to_fluvial_distributaries._Moderate_to_low_energy._Restricted_marine."                      "Fluvial_dominated_delta_front_capped_by_bay-fill_strong_component_of_vertical_aggradation."                                                                            
2974.4 "6407_7-1"  45.7400 "Sandstone" -999.25   -999.25 100.0000      0.0 0.0 "m"        "m"        "Mouth_bar,_closely_related_to_fluvial_distributaries._Moderate_to_low_energy._Restricted_marine."                      "Fluvial_dominated_delta_front_capped_by_bay-fill_strong_component_of_vertical_aggradation."                                                                            
2974.5 "6407_7-1"  48.6400 "Sandstone" -999.25   -999.25 100.0000      0.0 0.0 "m"        "m"        "Mouth_bar,_closely_related_to_fluvial_distributaries._Moderate_to_low_energy._Restricted_marine."                      "Fluvial_dominated_delta_front_capped_by_bay-fill_strong_component_of_vertical_aggradation."                                                                            
2974.6 "6407_7-1"  51.0300 "Sandstone" -999.25   -999.25 100.0000      0.0 0.0 "m"        "m"        "Mouth_bar,_closely_related_to_fluvial_distributaries._Moderate_to_low_energy._Restricted_marine."                      "Fluvial_dominated_delta_front_capped_by_bay-fill_strong_component_of_vertical_aggradation."                                                                            
2974.7 "6407_7-1"  52.5700 "Sandstone" -999.25   -999.25 100.0000      0.0 0.0 "m"        "m"        "Mouth_bar,_closely_related_to_fluvial_distributaries._Moderate_to_low_energy._Restricted_marine."                      "Fluvial_dominated_delta_front_capped_by_bay-fill_strong_component_of_vertical_aggradation."                                                                            
2974.8 "6407_7-1"  53.3700 "Sandstone" -999.25   -999.25 100.0000      0.0 0.0 "m"        "m"        "Mouth_bar,_closely_related_to_fluvial_distributaries._Moderate_to_low_energy._Restricted_marine."                      "Fluvial_dominated_delta_front_capped_by_bay-fill_strong_component_of_vertical_aggradation."                                                                            
2974.9 "6407_7-1"  53.9000 "Sandstone" -999.25   -999.25 100.0000      0.0 0.0 "m"        "m"        "Mouth_bar,_closely_related_to_fluvial_distributaries._Moderate_to_low_energy._Restricted_marine."                      "Fluvial_dominated_delta_front_capped_by_bay-fill_strong_component_of_vertical_aggradation."                                                                            
2975.0 "6407_7-1"  54.4300 "Sandstone" -999.25   -999.25 100.0000      0.0 0.0 "f/m"      "f/m"      "Mouth_bar,_closely_related_to_fluvial_distributaries._Moderate_to_low_energy._Restricted_marine."                      "Fluvial_dominated_delta_front_capped_by_bay-fill_strong_component_of_vertical_aggradation."                                                                            
2975.1 "6407_7-1"  50.7100 "Sandstone" -999.25   -999.25 100.0000      0.0 0.0 "f/m"      "f/m"      "Mouth_bar,_closely_related_to_fluvial_distributaries._Moderate_to_low_energy._Restricted_marine."                      "Fluvial_dominated_delta_front_capped_by_bay-fill_strong_component_of_vertical_aggradation."                                                                            
2975.2 "6407_7-1"  50.1200 "Sandstone" -999.25   -999.25 100.0000      0.0 0.0 "f/m"      "f/m"      "Mouth_bar,_closely_related_to_fluvial_distributaries._Moderate_to_low_energy._Restricted_marine."                      "Fluvial_dominated_delta_front_capped_by_bay-fill_strong_component_of_vertical_aggradation."                                                                            
2975.3 "6407_7-1"  49.7400 "Sandstone" -999.25   -999.25 100.0000      0.0 0.0 "f/m"      "f/m"      "Mouth_bar,_closely_related_to_fluvial_distributaries._Moderate_to_low_energy._Restricted_marine."                      "Fluvial_dominated_delta_front_capped_by_bay-fill_strong_component_of_vertical_aggradation."                                                                            
2975.4 "6407_7-1"  48.8400 "Sandstone" -999.25   -999.25 100.0000      0.0 0.0 "f/m"      "f/m"      "Mouth_bar,_closely_related_to_fluvial_distributaries._Moderate_to_low_energy._Restricted_marine."                      "Fluvial_dominated_delta_front_capped_by_bay-fill_strong_component_of_vertical_aggradation."                                                                            
