~Version
VERS  .                                 3.0 : CWLS LAS ASCII Standard - Version 3.0
WRAP  . NO                                  : One line per depth step
DLM   . SPACE                               : Column data section delimiter
SOURCE. Converted to LAS by Log Studio 4.76 : GeoProvider

~Well
STRT.         2713.0 : Start depth
STOP.         3118.0 : Stop depth
STEP.              1 : Step
NULL.        -999.25 : No-value
COMP.                : Company
WELL. 6407/7-1       : Well
FLD .                : Field
LOC .                : Location
LATI.                : Latitude
LONG.                : Longitude
GDAT.                : Geodetic datum
CNTY.                : County
STAT.                : State
CTRY.                : Country
SRVC. GeoProvider AS : Service company
DATE.                : Date
API .                : API number
RUN .                : Run number

~Parameters
WellboreName.  : Wellbore name
RigName     .  : Rig name
StartDate   .  : Start date

~Curves
DEPTH.m            .  : null {F}Depth mMD
Hole_ID.-          .  : null {S}Hole ID
GR.API             .  : null {F}Gamma Ray
Lithology1.-       .  : null {S}Lithology 1
Lithology2.-       .  : null {S}Lithology 2
Lithology3.-       .  : null {S}Lithology 3
Lithology1.%       .  : null {F}Lithology 1 percentage
Lithology2.%       .  : null {F}Lithology 2 percentage
Lithology3.%       .  : null {F}Lithology 3 percentage
Grain_size_Top.-   .  : null {S}Grain size at the top 
Grain_size_Base.-  .  : null {S}Grain size at the bottom
Sub_Environment.-  .  : null {S}Sub Environment
Gross_Environment.-.  : null {S}Gross Environment

~Ascii
# ...
2841.1 "6407_7-1"  70.5700 -999.25   -999.25   -999.25 100.0000      0.0 0.0 -999.25    -999.25    "Transgression"                                                                                                         -999.25                                                                                                                                                                 
2841.2 "6407_7-1"  70.3900 -999.25   -999.25   -999.25 100.0000      0.0 0.0 -999.25    -999.25    "Transgression"                                                                                                         -999.25                                                                                                                                                                 
2841.3 "6407_7-1"  69.9000 -999.25   -999.25   -999.25 100.0000      0.0 0.0 -999.25    -999.25    "Transgression"                                                                                                         -999.25                                                                                                                                                                 
2841.4 "6407_7-1"  69.8200 -999.25   -999.25   -999.25 100.0000      0.0 0.0 -999.25    -999.25    "Transgression"                                                                                                         -999.25                                                                                                                                                                 
2841.5 "6407_7-1"  73.0900 -999.25   -999.25   -999.25 100.0000      0.0 0.0 -999.25    -999.25    "Transgression"                                                                                                         -999.25                                                                                                                                                                 
2841.6 "6407_7-1"  76.1000 -999.25   -999.25   -999.25 100.0000      0.0 0.0 -999.25    -999.25    "Transgression"                                                                                                         -999.25                                                                                                                                                                 
2841.7 "6407_7-1"  77.2200 -999.25   -999.25   -999.25 100.0000      0.0 0.0 -999.25    -999.25    "Transgression"                                                                                                         -999.25                                                                                                                                                                 
2841.8 "6407_7-1"  78.3400 -999.25   -999.25   -999.25 100.0000      0.0 0.0 -999.25    -999.25    "Transgression"                                                                                                         -999.25                                                                                                                                                                 
2841.9 "6407_7-1"  79.4600 -999.25   -999.25   -999.25 100.0000      0.0 0.0 -999.25    -999.25    "Transgression"                                                                                                         -999.25                                                                                                                                                                 
2842.0 "6407_7-1"  80.2000 -999.25   -999.25   -999.25 100.0000      0.0 0.0 -999.25    -999.25    "Transgression"                                                                                                         -999.25                                                                                                                                                                 
2842.1 "6407_7-1"  77.9700 -999.25   -999.25   -999.25 100.0000      0.0 0.0 -999.25    -999.25    "Transgression"                                                                                                         -999.25                                                                                                                                                                 
2842.2 "6407_7-1"  75.0200 -999.25   -999.25   -999.25 100.0000      0.0 0.0 -999.25    -999.25    "Transgression"                                                                                                         -999.25                                                                                                                                                                 
2842.3 "6407_7-1"  72.0800 -999.25   -999.25   -999.25 100.0000      0.0 0.0 -999.25    -999.25    "Transgression"                                                                                                         -999.25                                                                                                                                                                 
2842.4 "6407_7-1"  69.1400 -999.25   -999.25   -999.25 100.0000      0.0 0.0 -999.25    -999.25    "Transgression"                                                                                                         -999.25                                                                                                                                                                 
2842.5 "6407_7-1"  66.1900 -999.25   -999.25   -999.25 100.0000      0.0 0.0 -999.25    -999.25    "Transgression"                                                                                                         -999.25                                                                                                                                                                 
2842.6 "6407_7-1"  63.2500 -999.25   -999.25   -999.25 100.0000      0.0 0.0 -999.25    -999.25    "Transgression"                                                                                                         -999.25                                                                                                                                                                 
2842.7 "6407_7-1"  60.3100 -999.25   -999.25   -999.25 100.0000      0.0 0.0 -999.25    -999.25    "Transgression"                                                                                                         -999.25                                                                                                                                                                 
2842.8 "6407_7-1"  61.2300 -999.25   -999.25   -999.25 100.0000      0.0 0.0 -999.25    -999.25    "Transgression"                                                                                                         -999.25                                                                                                                                                                 
2842.9 "6407_7-1"  62.4700 -999.25   -999.25   -999.25 100.0000      0.0 0.0 -999.25    -999.25    "Transgression"                                                                                                         -999.25                                                                                                                                                                 
2843.0 "6407_7-1"  63.6500 -999.25   -999.25   -999.25 100.0000      0.0 0.0 -999.25    -999.25    "Transgression"                                                                                                         -999.25                                                                                                                                                                 
2843.1 "6407_7-1"  63.2600 -999.25   -999.25   -999.25 100.0000      0.0 0.0 -999.25    -999.25    "Transgression"                                                                                                         -999.25                                                                                                                                                                 
