~Version
VERS  .                                 3.0 : CWLS LAS ASCII Standard - Version 3.0
WRAP  . NO                                  : One line per depth step
DLM   . SPACE                               : Column data section delimiter
SOURCE. Converted to LAS by Log Studio 4.76 : GeoProvider

~Well
STRT.         2713.0 : Start depth
STOP.         3118.0 : Stop depth
STEP.              1 : Step
NULL.        -999.25 : No-value
COMP.                : Company
WELL. 6407/7-1       : Well
FLD .                : Field
LOC .                : Location
LATI.                : Latitude
LONG.                : Longitude
GDAT.                : Geodetic datum
CNTY.                : County
STAT.                : State
CTRY.                : Country
SRVC. GeoProvider AS : Service company
DATE.                : Date
API .                : API number
RUN .                : Run number

~Parameters
WellboreName.  : Wellbore name
RigName     .  : Rig name
StartDate   .  : Start date

~Curves
DEPTH.m            .  : null {F}Depth mMD
Hole_ID.-          .  : null {S}Hole ID
GR.API             .  : null {F}Gamma Ray
Lithology1.-       .  : null {S}Lithology 1
Lithology2.-       .  : null {S}Lithology 2
Lithology3.-       .  : null {S}Lithology 3
Lithology1.%       .  : null {F}Lithology 1 percentage
Lithology2.%       .  : null {F}Lithology 2 percentage
Lithology3.%       .  : null {F}Lithology 3 percentage
Grain_size_Top.-   .  : null {S}Grain size at the top 
Grain_size_Base.-  .  : null {S}Grain size at the bottom
Sub_Environment.-  .  : null {S}Sub Environment
Gross_Environment.-.  : null {S}Gross Environment

~Ascii
# ...
3044.8 "6407_7-1"  93.0200 -999.25   -999.25   -999.25 100.0000      0.0 0.0 -999.25    -999.25    -999.25                                                                                                                 "Lower_delta_plain/costal_plain"                                                                                                                                        
3044.9 "6407_7-1"  92.6100 -999.25   -999.25   -999.25 100.0000      0.0 0.0 -999.25    -999.25    -999.25                                                                                                                 "Lower_delta_plain/costal_plain"                                                                                                                                        
3045.0 "6407_7-1"  92.8700 -999.25   -999.25   -999.25 100.0000      0.0 0.0 -999.25    -999.25    -999.25                                                                                                                 "Lower_delta_plain/costal_plain"                                                                                                                                        
3045.1 "6407_7-1"  93.3900 -999.25   -999.25   -999.25 100.0000      0.0 0.0 -999.25    -999.25    -999.25                                                                                                                 "Lower_delta_plain/costal_plain"                                                                                                                                        
3045.2 "6407_7-1"  99.2800 -999.25   -999.25   -999.25 100.0000      0.0 0.0 -999.25    -999.25    -999.25                                                                                                                 "Lower_delta_plain/costal_plain"                                                                                                                                        
3045.3 "6407_7-1" 103.8100 -999.25   -999.25   -999.25 100.0000      0.0 0.0 -999.25    -999.25    -999.25                                                                                                                 "Lower_delta_plain/costal_plain"                                                                                                                                        
3045.4 "6407_7-1" 100.5400 -999.25   -999.25   -999.25 100.0000      0.0 0.0 -999.25    -999.25    -999.25                                                                                                                 "Lower_delta_plain/costal_plain"                                                                                                                                        
3045.5 "6407_7-1"  89.2900 -999.25   -999.25   -999.25 100.0000      0.0 0.0 -999.25    -999.25    -999.25                                                                                                                 "Lower_delta_plain/costal_plain"                                                                                                                                        
3045.6 "6407_7-1"  82.6200 -999.25   -999.25   -999.25 100.0000      0.0 0.0 -999.25    -999.25    -999.25                                                                                                                 "Lower_delta_plain/costal_plain"                                                                                                                                        
3045.7 "6407_7-1"  76.1800 -999.25   -999.25   -999.25 100.0000      0.0 0.0 -999.25    -999.25    -999.25                                                                                                                 "Lower_delta_plain/costal_plain"                                                                                                                                        
3045.8 "6407_7-1"  72.7800 -999.25   -999.25   -999.25 100.0000      0.0 0.0 -999.25    -999.25    -999.25                                                                                                                 "Lower_delta_plain/costal_plain"                                                                                                                                        
3045.9 "6407_7-1"  74.9700 -999.25   -999.25   -999.25 100.0000      0.0 0.0 -999.25    -999.25    -999.25                                                                                                                 "Lower_delta_plain/costal_plain"                                                                                                                                        
3046.0 "6407_7-1"  80.4700 -999.25   -999.25   -999.25 100.0000      0.0 0.0 -999.25    -999.25    -999.25                                                                                                                 "Lower_delta_plain/costal_plain"                                                                                                                                        
3046.1 "6407_7-1"  81.0800 -999.25   -999.25   -999.25 100.0000      0.0 0.0 -999.25    -999.25    -999.25                                                                                                                 "Lower_delta_plain/costal_plain"                                                                                                                                        
3046.2 "6407_7-1"  80.6100 -999.25   -999.25   -999.25 100.0000      0.0 0.0 -999.25    -999.25    -999.25                                                                                                                 "Lower_delta_plain/costal_plain"                                                                                                                                        
3046.3 "6407_7-1"  77.7200 -999.25   -999.25   -999.25 100.0000      0.0 0.0 -999.25    -999.25    -999.25                                                                                                                 "Lower_delta_plain/costal_plain"                                                                                                                                        
3046.4 "6407_7-1"  72.7700 -999.25   -999.25   -999.25 100.0000      0.0 0.0 -999.25    -999.25    -999.25                                                                                                                 "Lower_delta_plain/costal_plain"                                                                                                                                        
3046.5 "6407_7-1"  67.8100 -999.25   -999.25   -999.25 100.0000      0.0 0.0 -999.25    -999.25    -999.25                                                                                                                 "Lower_delta_plain/costal_plain"                                                                                                                                        
3046.6 "6407_7-1"  62.8600 -999.25   -999.25   -999.25 100.0000      0.0 0.0 -999.25    -999.25    -999.25                                                                                                                 "Lower_delta_plain/costal_plain"                                                                                                                                        
3046.7 "6407_7-1"  60.8500 -999.25   -999.25   -999.25 100.0000      0.0 0.0 -999.25    -999.25    -999.25                                                                                                                 "Lower_delta_plain/costal_plain"                                                                                                                                        
3046.8 "6407_7-1"  64.2900 -999.25   -999.25   -999.25 100.0000      0.0 0.0 -999.25    -999.25    -999.25                                                                                                                 "Lower_delta_plain/costal_plain"                                                                                                                                        
