~Version
VERS  .                                 3.0 : CWLS LAS ASCII Standard - Version 3.0
WRAP  . NO                                  : One line per depth step
DLM   . SPACE                               : Column data section delimiter
SOURCE. Converted to LAS by Log Studio 4.76 : GeoProvider

~Well
STRT.         2877.0 : Start depth
STOP.         3139.9 : Stop depth
STEP.              1 : Step
NULL.        -999.25 : No-value
COMP.                : Company
WELL. 6407/7-4       : Well
FLD .                : Field
LOC .                : Location
LATI.                : Latitude
LONG.                : Longitude
GDAT.                : Geodetic datum
CNTY.                : County
STAT.                : State
CTRY.                : Country
SRVC. GeoProvider AS : Service company
DATE.                : Date
API .                : API number
RUN .                : Run number

~Parameters
WellboreName.  : Wellbore name
RigName     .  : Rig name
StartDate   .  : Start date

~Curves
DEPTH.m            .  : null {F}Depth mMD
Hole_ID.-          .  : null {S}Hole ID
GR.API             .  : null {F}Gamma Ray
Lithology1.-       .  : null {S}Lithology 1
Lithology2.-       .  : null {S}Lithology 2
Lithology3.-       .  : null {S}Lithology 3
Lithology1.%       .  : null {F}Lithology 1 percentage
Lithology2.%       .  : null {F}Lithology 2 percentage
Lithology3.%       .  : null {F}Lithology 3 percentage
Grain_size_Top.-   .  : null {S}Grain size at the top 
Grain_size_Base.-  .  : null {S}Grain size at the bottom
Sub_Environment.-  .  : null {S}Sub Environment
Gross_Environment.-.  : null {S}Gross Environment

~Ascii
# ...
3089.1 "6407_7-4"  64.3700 "Sandstone" "Limestone" -999.25  64.0000 36.00000     0.0 "f/m"      "vf/f"    "Medial_parts_of_fluvial/tide-infl._mouthbar-system"                                                                                                                     "Stacked_sub-mouthbar_lobes_deposited_in_intermediate_water-depths_in_a_fan-delta_front_system._Fluvial_dominated"
3089.2 "6407_7-4"  67.0900 "Sandstone" "Limestone" -999.25  64.0000 36.00000     0.0 "f/m"      "vf/f"    "Medial_parts_of_fluvial/tide-infl._mouthbar-system"                                                                                                                     "Stacked_sub-mouthbar_lobes_deposited_in_intermediate_water-depths_in_a_fan-delta_front_system._Fluvial_dominated"
3089.3 "6407_7-4"  77.0200 "Sandstone" "Limestone" -999.25  64.0000 36.00000     0.0 "f/m"      "vf/f"    "Medial_parts_of_fluvial/tide-infl._mouthbar-system"                                                                                                                     "Stacked_sub-mouthbar_lobes_deposited_in_intermediate_water-depths_in_a_fan-delta_front_system._Fluvial_dominated"
3089.4 "6407_7-4"  77.9100 "Sandstone" "Limestone" -999.25  64.0000 36.00000     0.0 "f/m"      "vf/f"    "Medial_parts_of_fluvial/tide-infl._mouthbar-system"                                                                                                                     "Stacked_sub-mouthbar_lobes_deposited_in_intermediate_water-depths_in_a_fan-delta_front_system._Fluvial_dominated"
3089.5 "6407_7-4"  78.8000 "Sandstone" "Limestone" -999.25  64.0000 36.00000     0.0 "f/m"      "vf/f"    "Medial_parts_of_fluvial/tide-infl._mouthbar-system"                                                                                                                     "Stacked_sub-mouthbar_lobes_deposited_in_intermediate_water-depths_in_a_fan-delta_front_system._Fluvial_dominated"
3089.6 "6407_7-4"  79.9800 "Sandstone" "Limestone" -999.25  64.0000 36.00000     0.0 "f/m"      "vf/f"    "Medial_parts_of_fluvial/tide-infl._mouthbar-system"                                                                                                                     "Stacked_sub-mouthbar_lobes_deposited_in_intermediate_water-depths_in_a_fan-delta_front_system._Fluvial_dominated"
3089.7 "6407_7-4"  82.2200 "Sandstone" "Limestone" -999.25  64.0000 36.00000     0.0 "f/m"      "vf/f"    "Medial_parts_of_fluvial/tide-infl._mouthbar-system"                                                                                                                     "Stacked_sub-mouthbar_lobes_deposited_in_intermediate_water-depths_in_a_fan-delta_front_system._Fluvial_dominated"
3089.8 "6407_7-4"  83.4300 "Sandstone" "Limestone" -999.25  64.0000 36.00000     0.0 "f/m"      "vf/f"    "Medial_parts_of_fluvial/tide-infl._mouthbar-system"                                                                                                                     "Stacked_sub-mouthbar_lobes_deposited_in_intermediate_water-depths_in_a_fan-delta_front_system._Fluvial_dominated"
3089.9 "6407_7-4"  82.9100 "Sandstone" "Limestone" -999.25  64.0000 36.00000     0.0 "f/m"      "vf/f"    "Medial_parts_of_fluvial/tide-infl._mouthbar-system"                                                                                                                     "Stacked_sub-mouthbar_lobes_deposited_in_intermediate_water-depths_in_a_fan-delta_front_system._Fluvial_dominated"
3090.0 "6407_7-4"  81.7300 "Sandstone" -999.25   -999.25 100.0000      0.0     0.0 "silt/vf"  "silt/vf" "Distal_delta_front_or_interlobe_sediments"                                                                                                                              "Stacked_sub-mouthbar_lobes_deposited_in_intermediate_water-depths_in_a_fan-delta_front_system._Fluvial_dominated"
3090.1 "6407_7-4"  80.5600 "Sandstone" -999.25   -999.25 100.0000      0.0     0.0 "silt/vf"  "silt/vf" "Distal_delta_front_or_interlobe_sediments"                                                                                                                              "Stacked_sub-mouthbar_lobes_deposited_in_intermediate_water-depths_in_a_fan-delta_front_system._Fluvial_dominated"
3090.2 "6407_7-4"  79.7800 "Sandstone" -999.25   -999.25 100.0000      0.0     0.0 "silt/vf"  "silt/vf" "Distal_delta_front_or_interlobe_sediments"                                                                                                                              "Stacked_sub-mouthbar_lobes_deposited_in_intermediate_water-depths_in_a_fan-delta_front_system._Fluvial_dominated"
3090.3 "6407_7-4"  79.2900 "Sandstone" -999.25   -999.25 100.0000      0.0     0.0 "silt/vf"  "silt/vf" "Distal_delta_front_or_interlobe_sediments"                                                                                                                              "Stacked_sub-mouthbar_lobes_deposited_in_intermediate_water-depths_in_a_fan-delta_front_system._Fluvial_dominated"
3090.4 "6407_7-4"  79.3600 -999.25   -999.25   -999.25 100.0000      0.0     0.0 -999.25    -999.25   "Distal_delta_front_or_interlobe_sediments"                                                                                                                              "Stacked_sub-mouthbar_lobes_deposited_in_intermediate_water-depths_in_a_fan-delta_front_system._Fluvial_dominated"
3090.5 "6407_7-4"  79.7500 -999.25   -999.25   -999.25 100.0000      0.0     0.0 -999.25    -999.25   "Distal_delta_front_or_interlobe_sediments"                                                                                                                              "Stacked_sub-mouthbar_lobes_deposited_in_intermediate_water-depths_in_a_fan-delta_front_system._Fluvial_dominated"
3090.6 "6407_7-4"  79.4100 -999.25   -999.25   -999.25 100.0000      0.0     0.0 -999.25    -999.25   "Distal_delta_front_or_interlobe_sediments"                                                                                                                              "Stacked_sub-mouthbar_lobes_deposited_in_intermediate_water-depths_in_a_fan-delta_front_system._Fluvial_dominated"
3090.7 "6407_7-4"  78.7100 -999.25   -999.25   -999.25 100.0000      0.0     0.0 -999.25    -999.25   "Distal_delta_front_or_interlobe_sediments"                                                                                                                              "Stacked_sub-mouthbar_lobes_deposited_in_intermediate_water-depths_in_a_fan-delta_front_system._Fluvial_dominated"
3090.8 "6407_7-4"  78.0300 -999.25   -999.25   -999.25 100.0000      0.0     0.0 -999.25    -999.25   "Distal_delta_front_or_interlobe_sediments"                                                                                                                              "Stacked_sub-mouthbar_lobes_deposited_in_intermediate_water-depths_in_a_fan-delta_front_system._Fluvial_dominated"
3090.9 "6407_7-4"  77.3500 -999.25   -999.25   -999.25 100.0000      0.0     0.0 -999.25    -999.25   "Distal_delta_front_or_interlobe_sediments"                                                                                                                              "Stacked_sub-mouthbar_lobes_deposited_in_intermediate_water-depths_in_a_fan-delta_front_system._Fluvial_dominated"
3091.0 "6407_7-4"  78.2100 -999.25   -999.25   -999.25 100.0000      0.0     0.0 -999.25    -999.25   "Distal_delta_front_or_interlobe_sediments"                                                                                                                              "Stacked_sub-mouthbar_lobes_deposited_in_intermediate_water-depths_in_a_fan-delta_front_system._Fluvial_dominated"
3091.1 "6407_7-4"  79.5700 -999.25   -999.25   -999.25 100.0000      0.0     0.0 -999.25    -999.25   "Distal_delta_front_or_interlobe_sediments"                                                                                                                              "Stacked_sub-mouthbar_lobes_deposited_in_intermediate_water-depths_in_a_fan-delta_front_system._Fluvial_dominated"
