~Version
VERS  .                                 3.0 : CWLS LAS ASCII Standard - Version 3.0
WRAP  . NO                                  : One line per depth step
DLM   . SPACE                               : Column data section delimiter
SOURCE. Converted to LAS by Log Studio 4.76 : GeoProvider

~Well
STRT.         2877.0 : Start depth
STOP.         3139.9 : Stop depth
STEP.              1 : Step
NULL.        -999.25 : No-value
COMP.                : Company
WELL. 6407/7-4       : Well
FLD .                : Field
LOC .                : Location
LATI.                : Latitude
LONG.                : Longitude
GDAT.                : Geodetic datum
CNTY.                : County
STAT.                : State
CTRY.                : Country
SRVC. GeoProvider AS : Service company
DATE.                : Date
API .                : API number
RUN .                : Run number

~Parameters
WellboreName.  : Wellbore name
RigName     .  : Rig name
StartDate   .  : Start date

~Curves
DEPTH.m            .  : null {F}Depth mMD
Hole_ID.-          .  : null {S}Hole ID
GR.API             .  : null {F}Gamma Ray
Lithology1.-       .  : null {S}Lithology 1
Lithology2.-       .  : null {S}Lithology 2
Lithology3.-       .  : null {S}Lithology 3
Lithology1.%       .  : null {F}Lithology 1 percentage
Lithology2.%       .  : null {F}Lithology 2 percentage
Lithology3.%       .  : null {F}Lithology 3 percentage
Grain_size_Top.-   .  : null {S}Grain size at the top 
Grain_size_Base.-  .  : null {S}Grain size at the bottom
Sub_Environment.-  .  : null {S}Sub Environment
Gross_Environment.-.  : null {S}Gross Environment

~Ascii
# ...
3076.5 "6407_7-4"  85.2900 "Sandstone" "Clay"    -999.25  40.0000 60.00000     0.0 "vf"       "vf/f"    "Sedimentation_dominated_by_suspension_fallout._Low_rate_of_sediment_supply._Some_wave_influence."                                                                       "Distal_marine/_delta_front._Low_energy"                                                                        
3076.6 "6407_7-4"  84.1500 "Sandstone" "Clay"    -999.25  40.0000 60.00000     0.0 "vf"       "vf/f"    "Sedimentation_dominated_by_suspension_fallout._Low_rate_of_sediment_supply._Some_wave_influence."                                                                       "Distal_marine/_delta_front._Low_energy"                                                                        
3076.7 "6407_7-4"  83.3800 "Sandstone" "Clay"    -999.25  40.0000 60.00000     0.0 "vf"       "vf/f"    "Sedimentation_dominated_by_suspension_fallout._Low_rate_of_sediment_supply._Some_wave_influence."                                                                       "Distal_marine/_delta_front._Low_energy"                                                                        
3076.8 "6407_7-4"  83.0600 "Sandstone" "Clay"    -999.25  40.0000 60.00000     0.0 "vf"       "vf/f"    "Sedimentation_dominated_by_suspension_fallout._Low_rate_of_sediment_supply._Some_wave_influence."                                                                       "Distal_marine/_delta_front._Low_energy"                                                                        
3076.9 "6407_7-4"  82.7300 "Sandstone" "Clay"    -999.25  40.0000 60.00000     0.0 "vf"       "vf/f"    "Sedimentation_dominated_by_suspension_fallout._Low_rate_of_sediment_supply._Some_wave_influence."                                                                       "Distal_marine/_delta_front._Low_energy"                                                                        
3077.0 "6407_7-4"  82.4100 "Sandstone" "Clay"    -999.25  40.0000 60.00000     0.0 "vf"       "vf/f"    "Sedimentation_dominated_by_suspension_fallout._Low_rate_of_sediment_supply._Some_wave_influence."                                                                       "Distal_marine/_delta_front._Low_energy"                                                                        
3077.1 "6407_7-4"  81.4000 "Sandstone" "Clay"    -999.25  50.0000 50.00000     0.0 "f/m"      "silt/vf" "Sedimentation_dominated_by_suspension_fallout._Low_rate_of_sediment_supply._Some_wave_influence."                                                                       "Distal_marine/_delta_front._Low_energy"                                                                        
3077.2 "6407_7-4"  78.7700 "Sandstone" "Clay"    -999.25  50.0000 50.00000     0.0 "f/m"      "silt/vf" "Sedimentation_dominated_by_suspension_fallout._Low_rate_of_sediment_supply._Some_wave_influence."                                                                       "Distal_marine/_delta_front._Low_energy"                                                                        
3077.3 "6407_7-4"  76.1300 "Sandstone" "Clay"    -999.25  50.0000 50.00000     0.0 "f/m"      "silt/vf" "Sedimentation_dominated_by_suspension_fallout._Low_rate_of_sediment_supply._Some_wave_influence."                                                                       "Distal_marine/_delta_front._Low_energy"                                                                        
3077.4 "6407_7-4"  73.5000 "Sandstone" "Clay"    -999.25  50.0000 50.00000     0.0 "f/m"      "silt/vf" "Sedimentation_dominated_by_suspension_fallout._Low_rate_of_sediment_supply._Some_wave_influence."                                                                       "Distal_marine/_delta_front._Low_energy"                                                                        
3077.5 "6407_7-4"  70.2600 "Sandstone" "Clay"    -999.25  50.0000 50.00000     0.0 "f/m"      "silt/vf" "Sedimentation_dominated_by_suspension_fallout._Low_rate_of_sediment_supply._Some_wave_influence."                                                                       "Distal_marine/_delta_front._Low_energy"                                                                        
3077.6 "6407_7-4"  70.1900 "Sandstone" "Clay"    -999.25  50.0000 50.00000     0.0 "f/m"      "silt/vf" "Sedimentation_dominated_by_suspension_fallout._Low_rate_of_sediment_supply._Some_wave_influence."                                                                       "Distal_marine/_delta_front._Low_energy"                                                                        
3077.7 "6407_7-4"  70.5200 "Sandstone" "Clay"    -999.25  50.0000 50.00000     0.0 "f/m"      "silt/vf" "Sedimentation_dominated_by_suspension_fallout._Low_rate_of_sediment_supply._Some_wave_influence."                                                                       "Distal_marine/_delta_front._Low_energy"                                                                        
3077.8 "6407_7-4"  70.8500 "Sandstone" "Clay"    -999.25  50.0000 50.00000     0.0 "f/m"      "silt/vf" "Sedimentation_dominated_by_suspension_fallout._Low_rate_of_sediment_supply._Some_wave_influence."                                                                       "Distal_marine/_delta_front._Low_energy"                                                                        
3077.9 "6407_7-4"  71.1800 "Sandstone" "Clay"    -999.25  50.0000 50.00000     0.0 "f/m"      "silt/vf" "Sedimentation_dominated_by_suspension_fallout._Low_rate_of_sediment_supply._Some_wave_influence."                                                                       "Distal_marine/_delta_front._Low_energy"                                                                        
3078.0 "6407_7-4"  71.3300 "Sandstone" "Clay"    -999.25  50.0000 50.00000     0.0 "f/m"      "silt/vf" "Sedimentation_dominated_by_suspension_fallout._Low_rate_of_sediment_supply._Some_wave_influence."                                                                       "Distal_marine/_delta_front._Low_energy"                                                                        
3078.1 "6407_7-4"  70.9400 "Sandstone" "Clay"    -999.25  50.0000 50.00000     0.0 "f/m"      "silt/vf" "Sedimentation_dominated_by_suspension_fallout._Low_rate_of_sediment_supply._Some_wave_influence."                                                                       "Distal_marine/_delta_front._Low_energy"                                                                        
3078.2 "6407_7-4"  70.5500 "Sandstone" "Clay"    -999.25  50.0000 50.00000     0.0 "f/m"      "silt/vf" "Sedimentation_dominated_by_suspension_fallout._Low_rate_of_sediment_supply._Some_wave_influence."                                                                       "Distal_marine/_delta_front._Low_energy"                                                                        
3078.3 "6407_7-4"  70.9000 "Sandstone" "Clay"    -999.25  50.0000 50.00000     0.0 "f/m"      "silt/vf" "Sedimentation_dominated_by_suspension_fallout._Low_rate_of_sediment_supply._Some_wave_influence."                                                                       "Distal_marine/_delta_front._Low_energy"                                                                        
3078.4 "6407_7-4"  71.4400 "Sandstone" "Clay"    -999.25  50.0000 50.00000     0.0 "f/m"      "silt/vf" "Sedimentation_dominated_by_suspension_fallout._Low_rate_of_sediment_supply._Some_wave_influence."                                                                       "Distal_marine/_delta_front._Low_energy"                                                                        
3078.5 "6407_7-4"  71.9800 "Sandstone" "Clay"    -999.25  50.0000 50.00000     0.0 "f/m"      "silt/vf" "Sedimentation_dominated_by_suspension_fallout._Low_rate_of_sediment_supply._Some_wave_influence."                                                                       "Distal_marine/_delta_front._Low_energy"                                                                        
