~Version
VERS  .                                 3.0 : CWLS LAS ASCII Standard - Version 3.0
WRAP  . NO                                  : One line per depth step
DLM   . SPACE                               : Column data section delimiter
SOURCE. Converted to LAS by Log Studio 4.76 : GeoProvider

~Well
STRT.         2877.0 : Start depth
STOP.         3139.9 : Stop depth
STEP.              1 : Step
NULL.        -999.25 : No-value
COMP.                : Company
WELL. 6407/7-4       : Well
FLD .                : Field
LOC .                : Location
LATI.                : Latitude
LONG.                : Longitude
GDAT.                : Geodetic datum
CNTY.                : County
STAT.                : State
CTRY.                : Country
SRVC. GeoProvider AS : Service company
DATE.                : Date
API .                : API number
RUN .                : Run number

~Parameters
WellboreName.  : Wellbore name
RigName     .  : Rig name
StartDate   .  : Start date

~Curves
DEPTH.m            .  : null {F}Depth mMD
Hole_ID.-          .  : null {S}Hole ID
GR.API             .  : null {F}Gamma Ray
Lithology1.-       .  : null {S}Lithology 1
Lithology2.-       .  : null {S}Lithology 2
Lithology3.-       .  : null {S}Lithology 3
Lithology1.%       .  : null {F}Lithology 1 percentage
Lithology2.%       .  : null {F}Lithology 2 percentage
Lithology3.%       .  : null {F}Lithology 3 percentage
Grain_size_Top.-   .  : null {S}Grain size at the top 
Grain_size_Base.-  .  : null {S}Grain size at the bottom
Sub_Environment.-  .  : null {S}Sub Environment
Gross_Environment.-.  : null {S}Gross Environment

~Ascii
2877.0 "6407_7-4"  66.6400 "Sandstone" -999.25   -999.25 100.0000      0.0     0.0 "m"        "m"       "Wave_and_tidal_current_dominated_upper_shoreface_or_shallow_''shelf''_sandbar_complex"                                                                                  "DELTA_FRONT_OR_INNER_'SHELF'_SANDBAR_COMPLEX"                                                                  
2877.1 "6407_7-4"  66.4400 "Sandstone" -999.25   -999.25 100.0000      0.0     0.0 "m"        "m"       "Wave_and_tidal_current_dominated_upper_shoreface_or_shallow_''shelf''_sandbar_complex"                                                                                  "DELTA_FRONT_OR_INNER_'SHELF'_SANDBAR_COMPLEX"                                                                  
2877.2 "6407_7-4"  66.7600 "Sandstone" -999.25   -999.25 100.0000      0.0     0.0 "m"        "m"       "Wave_and_tidal_current_dominated_upper_shoreface_or_shallow_''shelf''_sandbar_complex"                                                                                  "DELTA_FRONT_OR_INNER_'SHELF'_SANDBAR_COMPLEX"                                                                  
2877.3 "6407_7-4"  68.0900 "Sandstone" -999.25   -999.25 100.0000      0.0     0.0 "m"        "m"       "Wave_and_tidal_current_dominated_upper_shoreface_or_shallow_''shelf''_sandbar_complex"                                                                                  "DELTA_FRONT_OR_INNER_'SHELF'_SANDBAR_COMPLEX"                                                                  
2877.4 "6407_7-4"  69.4100 "Sandstone" "Limestone" -999.25  25.0000 75.00000     0.0 "f"        "f"       "Wave_and_tidal_current_dominated_upper_shoreface_or_shallow_''shelf''_sandbar_complex"                                                                                  "DELTA_FRONT_OR_INNER_'SHELF'_SANDBAR_COMPLEX"                                                                  
2877.5 "6407_7-4"  70.7400 "Sandstone" "Limestone" -999.25  25.0000 75.00000     0.0 "f"        "f"       "Wave_and_tidal_current_dominated_upper_shoreface_or_shallow_''shelf''_sandbar_complex"                                                                                  "DELTA_FRONT_OR_INNER_'SHELF'_SANDBAR_COMPLEX"                                                                  
2877.6 "6407_7-4"  72.0700 "Sandstone" "Limestone" -999.25  25.0000 75.00000     0.0 "f"        "f"       "Wave_and_tidal_current_dominated_upper_shoreface_or_shallow_''shelf''_sandbar_complex"                                                                                  "DELTA_FRONT_OR_INNER_'SHELF'_SANDBAR_COMPLEX"                                                                  
2877.7 "6407_7-4"  73.4000 "Sandstone" "Limestone" -999.25  25.0000 75.00000     0.0 "f"        "f"       "Wave_and_tidal_current_dominated_upper_shoreface_or_shallow_''shelf''_sandbar_complex"                                                                                  "DELTA_FRONT_OR_INNER_'SHELF'_SANDBAR_COMPLEX"                                                                  
2877.8 "6407_7-4"  72.2000 "Sandstone" "Limestone" -999.25  25.0000 75.00000     0.0 "f"        "f"       "Wave_and_tidal_current_dominated_upper_shoreface_or_shallow_''shelf''_sandbar_complex"                                                                                  "DELTA_FRONT_OR_INNER_'SHELF'_SANDBAR_COMPLEX"                                                                  
2877.9 "6407_7-4"  67.9400 "Sandstone" -999.25   -999.25 100.0000      0.0     0.0 "m"        "vf/f"    "Wave_and_tidal_current_dominated_upper_shoreface_or_shallow_''shelf''_sandbar_complex"                                                                                  "DELTA_FRONT_OR_INNER_'SHELF'_SANDBAR_COMPLEX"                                                                  
2878.0 "6407_7-4"  68.1800 "Sandstone" -999.25   -999.25 100.0000      0.0     0.0 "m"        "vf/f"    "Wave_and_tidal_current_dominated_upper_shoreface_or_shallow_''shelf''_sandbar_complex"                                                                                  "DELTA_FRONT_OR_INNER_'SHELF'_SANDBAR_COMPLEX"                                                                  
2878.1 "6407_7-4"  69.1000 "Sandstone" -999.25   -999.25 100.0000      0.0     0.0 "m"        "vf/f"    "Wave_and_tidal_current_dominated_upper_shoreface_or_shallow_''shelf''_sandbar_complex"                                                                                  "DELTA_FRONT_OR_INNER_'SHELF'_SANDBAR_COMPLEX"                                                                  
2878.2 "6407_7-4"  70.0300 "Sandstone" -999.25   -999.25 100.0000      0.0     0.0 "m"        "vf/f"    "Wave_and_tidal_current_dominated_upper_shoreface_or_shallow_''shelf''_sandbar_complex"                                                                                  "DELTA_FRONT_OR_INNER_'SHELF'_SANDBAR_COMPLEX"                                                                  
2878.3 "6407_7-4"  70.9600 "Sandstone" -999.25   -999.25 100.0000      0.0     0.0 "m"        "vf/f"    "Wave_and_tidal_current_dominated_upper_shoreface_or_shallow_''shelf''_sandbar_complex"                                                                                  "DELTA_FRONT_OR_INNER_'SHELF'_SANDBAR_COMPLEX"                                                                  
2878.4 "6407_7-4"  71.8900 "Sandstone" -999.25   -999.25 100.0000      0.0     0.0 "m"        "vf/f"    "Wave_and_tidal_current_dominated_upper_shoreface_or_shallow_''shelf''_sandbar_complex"                                                                                  "DELTA_FRONT_OR_INNER_'SHELF'_SANDBAR_COMPLEX"                                                                  
2878.5 "6407_7-4"  72.3000 "Sandstone" -999.25   -999.25 100.0000      0.0     0.0 "m"        "vf/f"    "Wave_and_tidal_current_dominated_upper_shoreface_or_shallow_''shelf''_sandbar_complex"                                                                                  "DELTA_FRONT_OR_INNER_'SHELF'_SANDBAR_COMPLEX"                                                                  
2878.6 "6407_7-4"  72.6500 "Sandstone" -999.25   -999.25 100.0000      0.0     0.0 "m"        "vf/f"    "Wave_and_tidal_current_dominated_upper_shoreface_or_shallow_''shelf''_sandbar_complex"                                                                                  "DELTA_FRONT_OR_INNER_'SHELF'_SANDBAR_COMPLEX"                                                                  
2878.7 "6407_7-4"  73.1700 "Sandstone" -999.25   -999.25 100.0000      0.0     0.0 "m"        "vf/f"    "Wave_and_tidal_current_dominated_upper_shoreface_or_shallow_''shelf''_sandbar_complex"                                                                                  "DELTA_FRONT_OR_INNER_'SHELF'_SANDBAR_COMPLEX"                                                                  
2878.8 "6407_7-4"  73.7100 "Sandstone" -999.25   -999.25 100.0000      0.0     0.0 "m"        "vf/f"    "Wave_and_tidal_current_dominated_upper_shoreface_or_shallow_''shelf''_sandbar_complex"                                                                                  "DELTA_FRONT_OR_INNER_'SHELF'_SANDBAR_COMPLEX"                                                                  
2878.9 "6407_7-4"  74.2500 "Sandstone" -999.25   -999.25 100.0000      0.0     0.0 "m"        "vf/f"    "Wave_and_tidal_current_dominated_upper_shoreface_or_shallow_''shelf''_sandbar_complex"                                                                                  "DELTA_FRONT_OR_INNER_'SHELF'_SANDBAR_COMPLEX"                                                                  
2879.0 "6407_7-4"  76.1900 "Sandstone" -999.25   -999.25 100.0000      0.0     0.0 "m"        "vf/f"    "Wave_and_tidal_current_dominated_upper_shoreface_or_shallow_''shelf''_sandbar_complex"                                                                                  "DELTA_FRONT_OR_INNER_'SHELF'_SANDBAR_COMPLEX"                                                                  
