~Version
VERS  .                                 3.0 : CWLS LAS ASCII Standard - Version 3.0
WRAP  . NO                                  : One line per depth step
DLM   . SPACE                               : Column data section delimiter
SOURCE. Converted to LAS by Log Studio 4.76 : GeoProvider

~Well
STRT.         2877.0 : Start depth
STOP.         3139.9 : Stop depth
STEP.              1 : Step
NULL.        -999.25 : No-value
COMP.                : Company
WELL. 6407/7-4       : Well
FLD .                : Field
LOC .                : Location
LATI.                : Latitude
LONG.                : Longitude
GDAT.                : Geodetic datum
CNTY.                : County
STAT.                : State
CTRY.                : Country
SRVC. GeoProvider AS : Service company
DATE.                : Date
API .                : API number
RUN .                : Run number

~Parameters
WellboreName.  : Wellbore name
RigName     .  : Rig name
StartDate   .  : Start date

~Curves
DEPTH.m            .  : null {F}Depth mMD
Hole_ID.-          .  : null {S}Hole ID
GR.API             .  : null {F}Gamma Ray
Lithology1.-       .  : null {S}Lithology 1
Lithology2.-       .  : null {S}Lithology 2
Lithology3.-       .  : null {S}Lithology 3
Lithology1.%       .  : null {F}Lithology 1 percentage
Lithology2.%       .  : null {F}Lithology 2 percentage
Lithology3.%       .  : null {F}Lithology 3 percentage
Grain_size_Top.-   .  : null {S}Grain size at the top 
Grain_size_Base.-  .  : null {S}Grain size at the bottom
Sub_Environment.-  .  : null {S}Sub Environment
Gross_Environment.-.  : null {S}Gross Environment

~Ascii
# ...
3112.2 "6407_7-4"  71.6100 "Sandstone" "Clay"    -999.25  90.0000 10.00000     0.0 "vf/f"     "f/m"     "Stacked_(?)_mouthbar_sediments,_showing_progradation_from_distal_to_relatively_proximal_delta_front._Fluvial_dominated,_but_some_tidal_influence."                      "Stacked_sub-mouthbar_lobes_deposited_in_intermediate_water-depths_in_a_fan-delta_front_system._Fluvial_dominated"
3112.3 "6407_7-4"  69.4300 "Sandstone" "Clay"    -999.25  90.0000 10.00000     0.0 "vf/f"     "f/m"     "Stacked_(?)_mouthbar_sediments,_showing_progradation_from_distal_to_relatively_proximal_delta_front._Fluvial_dominated,_but_some_tidal_influence."                      "Stacked_sub-mouthbar_lobes_deposited_in_intermediate_water-depths_in_a_fan-delta_front_system._Fluvial_dominated"
3112.4 "6407_7-4"  67.7400 "Sandstone" "Clay"    -999.25  90.0000 10.00000     0.0 "vf/f"     "f/m"     "Stacked_mouthbar_sediments,_dominated_by_vertical_aggradation._Marine_Fluvial_dominated._Deposited_in_medial_to_distal_parts_of_the_fan-delta_front."                   "Stacked_sub-mouthbar_lobes_deposited_in_intermediate_water-depths_in_a_fan-delta_front_system._Fluvial_dominated"
3112.5 "6407_7-4"  67.0200 "Sandstone" "Clay"    -999.25  90.0000 10.00000     0.0 "vf/f"     "f/m"     "Stacked_mouthbar_sediments,_dominated_by_vertical_aggradation._Marine_Fluvial_dominated._Deposited_in_medial_to_distal_parts_of_the_fan-delta_front."                   "Stacked_sub-mouthbar_lobes_deposited_in_intermediate_water-depths_in_a_fan-delta_front_system._Fluvial_dominated"
3112.6 "6407_7-4"  66.3100 "Sandstone" "Clay"    -999.25  90.0000 10.00000     0.0 "vf/f"     "f/m"     "Stacked_mouthbar_sediments,_dominated_by_vertical_aggradation._Marine_Fluvial_dominated._Deposited_in_medial_to_distal_parts_of_the_fan-delta_front."                   "Stacked_sub-mouthbar_lobes_deposited_in_intermediate_water-depths_in_a_fan-delta_front_system._Fluvial_dominated"
3112.7 "6407_7-4"  67.8600 "Sandstone" "Clay"    -999.25  90.0000 10.00000     0.0 "vf/f"     "f/m"     "Stacked_mouthbar_sediments,_dominated_by_vertical_aggradation._Marine_Fluvial_dominated._Deposited_in_medial_to_distal_parts_of_the_fan-delta_front."                   "Stacked_sub-mouthbar_lobes_deposited_in_intermediate_water-depths_in_a_fan-delta_front_system._Fluvial_dominated"
3112.8 "6407_7-4"  69.7500 "Sandstone" "Clay"    -999.25  90.0000 10.00000     0.0 "vf/f"     "f/m"     "Stacked_mouthbar_sediments,_dominated_by_vertical_aggradation._Marine_Fluvial_dominated._Deposited_in_medial_to_distal_parts_of_the_fan-delta_front."                   "Stacked_sub-mouthbar_lobes_deposited_in_intermediate_water-depths_in_a_fan-delta_front_system._Fluvial_dominated"
3112.9 "6407_7-4"  70.3400 "Sandstone" "Clay"    -999.25  90.0000 10.00000     0.0 "vf/f"     "f/m"     "Stacked_mouthbar_sediments,_dominated_by_vertical_aggradation._Marine_Fluvial_dominated._Deposited_in_medial_to_distal_parts_of_the_fan-delta_front."                   "Stacked_sub-mouthbar_lobes_deposited_in_intermediate_water-depths_in_a_fan-delta_front_system._Fluvial_dominated"
3113.0 "6407_7-4"  70.4200 "Sandstone" "Clay"    -999.25  90.0000 10.00000     0.0 "vf/f"     "f/m"     "Stacked_mouthbar_sediments,_dominated_by_vertical_aggradation._Marine_Fluvial_dominated._Deposited_in_medial_to_distal_parts_of_the_fan-delta_front."                   "Stacked_sub-mouthbar_lobes_deposited_in_intermediate_water-depths_in_a_fan-delta_front_system._Fluvial_dominated"
3113.1 "6407_7-4"  69.9000 "Sandstone" "Clay"    -999.25  90.0000 10.00000     0.0 "vf/f"     "f/m"     "Stacked_mouthbar_sediments,_dominated_by_vertical_aggradation._Marine_Fluvial_dominated._Deposited_in_medial_to_distal_parts_of_the_fan-delta_front."                   "Stacked_sub-mouthbar_lobes_deposited_in_intermediate_water-depths_in_a_fan-delta_front_system._Fluvial_dominated"
3113.2 "6407_7-4"  69.3800 "Sandstone" "Clay"    -999.25  90.0000 10.00000     0.0 "vf/f"     "f/m"     "Stacked_mouthbar_sediments,_dominated_by_vertical_aggradation._Marine_Fluvial_dominated._Deposited_in_medial_to_distal_parts_of_the_fan-delta_front."                   "Stacked_sub-mouthbar_lobes_deposited_in_intermediate_water-depths_in_a_fan-delta_front_system._Fluvial_dominated"
3113.3 "6407_7-4"  69.6300 "Sandstone" "Clay"    -999.25  90.0000 10.00000     0.0 "vf/f"     "f/m"     "Stacked_mouthbar_sediments,_dominated_by_vertical_aggradation._Marine_Fluvial_dominated._Deposited_in_medial_to_distal_parts_of_the_fan-delta_front."                   "Stacked_sub-mouthbar_lobes_deposited_in_intermediate_water-depths_in_a_fan-delta_front_system._Fluvial_dominated"
3113.4 "6407_7-4"  70.6100 "Sandstone" "Clay"    -999.25  90.0000 10.00000     0.0 "vf/f"     "f/m"     "Stacked_mouthbar_sediments,_dominated_by_vertical_aggradation._Marine_Fluvial_dominated._Deposited_in_medial_to_distal_parts_of_the_fan-delta_front."                   "Stacked_sub-mouthbar_lobes_deposited_in_intermediate_water-depths_in_a_fan-delta_front_system._Fluvial_dominated"
3113.5 "6407_7-4"  71.5900 "Sandstone" "Clay"    -999.25  90.0000 10.00000     0.0 "vf/f"     "f/m"     "Stacked_mouthbar_sediments,_dominated_by_vertical_aggradation._Marine_Fluvial_dominated._Deposited_in_medial_to_distal_parts_of_the_fan-delta_front."                   "Stacked_sub-mouthbar_lobes_deposited_in_intermediate_water-depths_in_a_fan-delta_front_system._Fluvial_dominated"
3113.6 "6407_7-4"  71.4300 "Sandstone" "Clay"    -999.25  90.0000 10.00000     0.0 "vf/f"     "f/m"     "Stacked_mouthbar_sediments,_dominated_by_vertical_aggradation._Marine_Fluvial_dominated._Deposited_in_medial_to_distal_parts_of_the_fan-delta_front."                   "Stacked_sub-mouthbar_lobes_deposited_in_intermediate_water-depths_in_a_fan-delta_front_system._Fluvial_dominated"
3113.7 "6407_7-4"  70.4500 "Sandstone" "Clay"    -999.25  90.0000 10.00000     0.0 "vf/f"     "f/m"     "Stacked_mouthbar_sediments,_dominated_by_vertical_aggradation._Marine_Fluvial_dominated._Deposited_in_medial_to_distal_parts_of_the_fan-delta_front."                   "Stacked_sub-mouthbar_lobes_deposited_in_intermediate_water-depths_in_a_fan-delta_front_system._Fluvial_dominated"
3113.8 "6407_7-4"  69.4700 "Sandstone" "Clay"    -999.25  90.0000 10.00000     0.0 "vf/f"     "f/m"     "Stacked_mouthbar_sediments,_dominated_by_vertical_aggradation._Marine_Fluvial_dominated._Deposited_in_medial_to_distal_parts_of_the_fan-delta_front."                   "Stacked_sub-mouthbar_lobes_deposited_in_intermediate_water-depths_in_a_fan-delta_front_system._Fluvial_dominated"
3113.9 "6407_7-4"  68.4900 "Sandstone" "Clay"    -999.25  90.0000 10.00000     0.0 "vf/f"     "f/m"     "Stacked_mouthbar_sediments,_dominated_by_vertical_aggradation._Marine_Fluvial_dominated._Deposited_in_medial_to_distal_parts_of_the_fan-delta_front."                   "Stacked_sub-mouthbar_lobes_deposited_in_intermediate_water-depths_in_a_fan-delta_front_system._Fluvial_dominated"
3114.0 "6407_7-4"  67.5100 "Sandstone" "Clay"    -999.25  90.0000 10.00000     0.0 "vf/f"     "f/m"     "Stacked_mouthbar_sediments,_dominated_by_vertical_aggradation._Marine_Fluvial_dominated._Deposited_in_medial_to_distal_parts_of_the_fan-delta_front."                   "Stacked_sub-mouthbar_lobes_deposited_in_intermediate_water-depths_in_a_fan-delta_front_system._Fluvial_dominated"
3114.1 "6407_7-4"  67.8300 "Sandstone" "Clay"    -999.25  90.0000 10.00000     0.0 "vf/f"     "f/m"     "Stacked_mouthbar_sediments,_dominated_by_vertical_aggradation._Marine_Fluvial_dominated._Deposited_in_medial_to_distal_parts_of_the_fan-delta_front."                   "Stacked_sub-mouthbar_lobes_deposited_in_intermediate_water-depths_in_a_fan-delta_front_system._Fluvial_dominated"
3114.2 "6407_7-4"  68.7500 "Sandstone" "Clay"    -999.25  90.0000 10.00000     0.0 "vf/f"     "f/m"     "Stacked_mouthbar_sediments,_dominated_by_vertical_aggradation._Marine_Fluvial_dominated._Deposited_in_medial_to_distal_parts_of_the_fan-delta_front."                   "Stacked_sub-mouthbar_lobes_deposited_in_intermediate_water-depths_in_a_fan-delta_front_system._Fluvial_dominated"
