~Version
VERS  .                                 3.0 : CWLS LAS ASCII Standard - Version 3.0
WRAP  . NO                                  : One line per depth step
DLM   . SPACE                               : Column data section delimiter
SOURCE. Converted to LAS by Log Studio 4.76 : GeoProvider

~Well
STRT.         2877.0 : Start depth
STOP.         3139.9 : Stop depth
STEP.              1 : Step
NULL.        -999.25 : No-value
COMP.                : Company
WELL. 6407/7-4       : Well
FLD .                : Field
LOC .                : Location
LATI.                : Latitude
LONG.                : Longitude
GDAT.                : Geodetic datum
CNTY.                : County
STAT.                : State
CTRY.                : Country
SRVC. GeoProvider AS : Service company
DATE.                : Date
API .                : API number
RUN .                : Run number

~Parameters
WellboreName.  : Wellbore name
RigName     .  : Rig name
StartDate   .  : Start date

~Curves
DEPTH.m            .  : null {F}Depth mMD
Hole_ID.-          .  : null {S}Hole ID
GR.API             .  : null {F}Gamma Ray
Lithology1.-       .  : null {S}Lithology 1
Lithology2.-       .  : null {S}Lithology 2
Lithology3.-       .  : null {S}Lithology 3
Lithology1.%       .  : null {F}Lithology 1 percentage
Lithology2.%       .  : null {F}Lithology 2 percentage
Lithology3.%       .  : null {F}Lithology 3 percentage
Grain_size_Top.-   .  : null {S}Grain size at the top 
Grain_size_Base.-  .  : null {S}Grain size at the bottom
Sub_Environment.-  .  : null {S}Sub Environment
Gross_Environment.-.  : null {S}Gross Environment

~Ascii
# ...
2889.6 "6407_7-4"  71.7300 "Sandstone" -999.25   -999.25 100.0000      0.0     0.0 "m/c"      "f/m"     "Distal_marine_low_energy-Lower_shoreface_or_inner_'shelf'_sanbar_complex"                                                                                               "DELTA_FRONT_OR_INNER_'SHELF'_SANDBAR_COMPLEX"                                                                  
2889.7 "6407_7-4"  70.1100 "Sandstone" -999.25   -999.25 100.0000      0.0     0.0 "granule"  "vf/f"    "Distal_marine_low_energy-Lower_shoreface_or_inner_'shelf'_sanbar_complex"                                                                                               "DELTA_FRONT_OR_INNER_'SHELF'_SANDBAR_COMPLEX"                                                                  
2889.8 "6407_7-4"  68.4800 "Sandstone" -999.25   -999.25 100.0000      0.0     0.0 "granule"  "vf/f"    "Distal_marine_low_energy-Lower_shoreface_or_inner_'shelf'_sanbar_complex"                                                                                               "DELTA_FRONT_OR_INNER_'SHELF'_SANDBAR_COMPLEX"                                                                  
2889.9 "6407_7-4"  68.4700 "Sandstone" -999.25   -999.25 100.0000      0.0     0.0 "granule"  "vf/f"    "Distal_marine_low_energy-Lower_shoreface_or_inner_'shelf'_sanbar_complex"                                                                                               "DELTA_FRONT_OR_INNER_'SHELF'_SANDBAR_COMPLEX"                                                                  
2890.0 "6407_7-4"  68.9800 "Sandstone" -999.25   -999.25 100.0000      0.0     0.0 "granule"  "vf/f"    "Transgression"                                                                                                                                                          "DELTA_FRONT_OR_INNER_'SHELF'_SANDBAR_COMPLEX"                                                                  
2890.1 "6407_7-4"  69.4900 "Sandstone" -999.25   -999.25 100.0000      0.0     0.0 "granule"  "vf/f"    "Transgression"                                                                                                                                                          "DELTA_FRONT_OR_INNER_'SHELF'_SANDBAR_COMPLEX"                                                                  
2890.2 "6407_7-4"  70.0000 "Sandstone" -999.25   -999.25 100.0000      0.0     0.0 "granule"  "vf/f"    "Transgression"                                                                                                                                                          "DELTA_FRONT_OR_INNER_'SHELF'_SANDBAR_COMPLEX"                                                                  
2890.3 "6407_7-4"  70.6200 "Sandstone" -999.25   -999.25 100.0000      0.0     0.0 "granule"  "vf/f"    "Transgression"                                                                                                                                                          "DELTA_FRONT_OR_INNER_'SHELF'_SANDBAR_COMPLEX"                                                                  
2890.4 "6407_7-4"  71.6000 "Sandstone" -999.25   -999.25 100.0000      0.0     0.0 "granule"  "vf/f"    "Transgression"                                                                                                                                                          "DELTA_FRONT_OR_INNER_'SHELF'_SANDBAR_COMPLEX"                                                                  
2890.5 "6407_7-4"  72.8600 "Sandstone" -999.25   -999.25 100.0000      0.0     0.0 "granule"  "vf/f"    "Transgression"                                                                                                                                                          "DELTA_FRONT_OR_INNER_'SHELF'_SANDBAR_COMPLEX"                                                                  
2890.6 "6407_7-4"  74.5300 "Sandstone" -999.25   -999.25 100.0000      0.0     0.0 "granule"  "vf/f"    "Transgression"                                                                                                                                                          "DELTA_FRONT_OR_INNER_'SHELF'_SANDBAR_COMPLEX"                                                                  
2890.7 "6407_7-4"  74.5400 "Sandstone" -999.25   -999.25 100.0000      0.0     0.0 "pebble"   "pebble"  "Transgression"                                                                                                                                                          "DELTA_FRONT_OR_INNER_'SHELF'_SANDBAR_COMPLEX"                                                                  
2890.8 "6407_7-4"  73.4500 "Sandstone" -999.25   -999.25 100.0000      0.0     0.0 "pebble"   "pebble"  "Transgression"                                                                                                                                                          "DELTA_FRONT_OR_INNER_'SHELF'_SANDBAR_COMPLEX"                                                                  
2890.9 "6407_7-4"  72.3600 "Sandstone" -999.25   -999.25 100.0000      0.0     0.0 "pebble"   "pebble"  "Transgression"                                                                                                                                                          "DELTA_FRONT_OR_INNER_'SHELF'_SANDBAR_COMPLEX"                                                                  
2891.0 "6407_7-4"  71.2800 "Sandstone" -999.25   -999.25 100.0000      0.0     0.0 "pebble"   "pebble"  "Transgression"                                                                                                                                                          "DELTA_FRONT_OR_INNER_'SHELF'_SANDBAR_COMPLEX"                                                                  
2891.1 "6407_7-4"  70.1900 "Sandstone" -999.25   -999.25 100.0000      0.0     0.0 "pebble"   "pebble"  "Transgression"                                                                                                                                                          "DELTA_FRONT_OR_INNER_'SHELF'_SANDBAR_COMPLEX"                                                                  
2891.2 "6407_7-4"  69.1000 "Sandstone" -999.25   -999.25 100.0000      0.0     0.0 "pebble"   "pebble"  "Transgression"                                                                                                                                                          "DELTA_FRONT_OR_INNER_'SHELF'_SANDBAR_COMPLEX"                                                                  
2891.3 "6407_7-4"  70.3900 "Sandstone" -999.25   -999.25 100.0000      0.0     0.0 "pebble"   "pebble"  "Transgression_Tidal_current_and_wave_influenced_delta_front,_shoreface"                                                                                                 "DELTA_FRONT_OR_INNER_'SHELF'_SANDBAR_COMPLEX"                                                                  
2891.4 "6407_7-4"  72.0300 "Sandstone" -999.25   -999.25 100.0000      0.0     0.0 "pebble"   "pebble"  "Transgression_Tidal_current_and_wave_influenced_delta_front,_shoreface"                                                                                                 "DELTA_FRONT_OR_INNER_'SHELF'_SANDBAR_COMPLEX"                                                                  
2891.5 "6407_7-4"  72.6400 "Sandstone" -999.25   -999.25 100.0000      0.0     0.0 "f"        "f/m"     "Transgression_Tidal_current_and_wave_influenced_delta_front,_shoreface"                                                                                                 "DELTA_FRONT_OR_INNER_'SHELF'_SANDBAR_COMPLEX"                                                                  
2891.6 "6407_7-4"  73.2400 "Sandstone" -999.25   -999.25 100.0000      0.0     0.0 "f"        "f/m"     "Transgression_Tidal_current_and_wave_influenced_delta_front,_shoreface"                                                                                                 "DELTA_FRONT_OR_INNER_'SHELF'_SANDBAR_COMPLEX"                                                                  
