~Version
VERS  .                                 3.0 : CWLS LAS ASCII Standard - Version 3.0
WRAP  . NO                                  : One line per depth step
DLM   . SPACE                               : Column data section delimiter
SOURCE. Converted to LAS by Log Studio 4.76 : GeoProvider

~Well
STRT.         2877.0 : Start depth
STOP.         3139.9 : Stop depth
STEP.              1 : Step
NULL.        -999.25 : No-value
COMP.                : Company
WELL. 6407/7-4       : Well
FLD .                : Field
LOC .                : Location
LATI.                : Latitude
LONG.                : Longitude
GDAT.                : Geodetic datum
CNTY.                : County
STAT.                : State
CTRY.                : Country
SRVC. GeoProvider AS : Service company
DATE.                : Date
API .                : API number
RUN .                : Run number

~Parameters
WellboreName.  : Wellbore name
RigName     .  : Rig name
StartDate   .  : Start date

~Curves
DEPTH.m            .  : null {F}Depth mMD
Hole_ID.-          .  : null {S}Hole ID
GR.API             .  : null {F}Gamma Ray
Lithology1.-       .  : null {S}Lithology 1
Lithology2.-       .  : null {S}Lithology 2
Lithology3.-       .  : null {S}Lithology 3
Lithology1.%       .  : null {F}Lithology 1 percentage
Lithology2.%       .  : null {F}Lithology 2 percentage
Lithology3.%       .  : null {F}Lithology 3 percentage
Grain_size_Top.-   .  : null {S}Grain size at the top 
Grain_size_Base.-  .  : null {S}Grain size at the bottom
Sub_Environment.-  .  : null {S}Sub Environment
Gross_Environment.-.  : null {S}Gross Environment

~Ascii
# ...
3137.4 "6407_7-4"  61.7500 "Sandstone" "Siltstone" -999.25  50.0000 50.00000     0.0 "silt/vf"  "vf/f"    "Poorly_drained_floodplain"                                                                                                                                              "Fan-delta_plain"                                                                                               
3137.5 "6407_7-4"  61.1800 "Sandstone" "Siltstone" -999.25  50.0000 50.00000     0.0 "silt/vf"  "vf/f"    "Poorly_drained_floodplain"                                                                                                                                              "Fan-delta_plain"                                                                                               
3137.6 "6407_7-4"  61.0700 "Sandstone" "Siltstone" -999.25  50.0000 50.00000     0.0 "silt/vf"  "vf/f"    "Poorly_drained_floodplain"                                                                                                                                              "Fan-delta_plain"                                                                                               
3137.7 "6407_7-4"  61.5000 "Sandstone" "Siltstone" -999.25  50.0000 50.00000     0.0 "silt/vf"  "vf/f"    "Poorly_drained_floodplain"                                                                                                                                              "Fan-delta_plain"                                                                                               
3137.8 "6407_7-4"  62.2700 "Sandstone" "Siltstone" -999.25  50.0000 50.00000     0.0 "silt/vf"  "vf/f"    "Poorly_drained_floodplain"                                                                                                                                              "Fan-delta_plain"                                                                                               
3137.9 "6407_7-4"  63.9600 "Sandstone" "Siltstone" -999.25  50.0000 50.00000     0.0 "silt/vf"  "vf/f"    "Poorly_drained_floodplain"                                                                                                                                              "Fan-delta_plain"                                                                                               
3138.0 "6407_7-4"  64.7500 "Sandstone" "Siltstone" -999.25  50.0000 50.00000     0.0 "silt/vf"  "vf/f"    "Poorly_drained_floodplain"                                                                                                                                              "Fan-delta_plain"                                                                                               
3138.1 "6407_7-4"  64.9000 "Sandstone" "Siltstone" -999.25  50.0000 50.00000     0.0 "silt/vf"  "vf/f"    "Poorly_drained_floodplain"                                                                                                                                              "Fan-delta_plain"                                                                                               
3138.2 "6407_7-4"  64.9000 "Sandstone" "Siltstone" -999.25  50.0000 50.00000     0.0 "silt/vf"  "vf/f"    "Poorly_drained_floodplain"                                                                                                                                              "Fan-delta_plain"                                                                                               
3138.3 "6407_7-4"  66.1700 "Sandstone" "Siltstone" -999.25  50.0000 50.00000     0.0 "silt/vf"  "vf/f"    "Poorly_drained_floodplain"                                                                                                                                              "Fan-delta_plain"                                                                                               
3138.4 "6407_7-4"  67.6700 "Sandstone" "Siltstone" -999.25  50.0000 50.00000     0.0 "silt/vf"  "vf/f"    "Poorly_drained_floodplain"                                                                                                                                              "Fan-delta_plain"                                                                                               
3138.5 "6407_7-4"  71.5200 "Sandstone" "Siltstone" -999.25  50.0000 50.00000     0.0 "silt/vf"  "vf/f"    "Poorly_drained_floodplain"                                                                                                                                              "Fan-delta_plain"                                                                                               
3138.6 "6407_7-4"  73.6800 "Sandstone" "Siltstone" -999.25  50.0000 50.00000     0.0 "silt/vf"  "vf/f"    "Poorly_drained_floodplain"                                                                                                                                              "Fan-delta_plain"                                                                                               
3138.7 "6407_7-4"  74.4700 "Sandstone" "Siltstone" -999.25  50.0000 50.00000     0.0 "silt/vf"  "vf/f"    "Poorly_drained_floodplain"                                                                                                                                              "Fan-delta_plain"                                                                                               
3138.8 "6407_7-4"  75.2500 "Sandstone" "Siltstone" -999.25  50.0000 50.00000     0.0 "silt/vf"  "vf/f"    "Poorly_drained_floodplain"                                                                                                                                              "Fan-delta_plain"                                                                                               
3138.9 "6407_7-4"  75.9100 "Sandstone" "Siltstone" -999.25  50.0000 50.00000     0.0 "silt/vf"  "vf/f"    "Poorly_drained_floodplain"                                                                                                                                              "Fan-delta_plain"                                                                                               
3139.0 "6407_7-4"  76.4300 "Sandstone" "Siltstone" -999.25  50.0000 50.00000     0.0 "silt/vf"  "vf/f"    "Poorly_drained_floodplain"                                                                                                                                              "Fan-delta_plain"                                                                                               
3139.1 "6407_7-4"  77.0400 "Sandstone" "Siltstone" -999.25  50.0000 50.00000     0.0 "silt/vf"  "vf/f"    "Poorly_drained_floodplain"                                                                                                                                              "Fan-delta_plain"                                                                                               
3139.2 "6407_7-4"  77.8800 "Sandstone" "Siltstone" -999.25  50.0000 50.00000     0.0 "silt/vf"  "vf/f"    "Poorly_drained_floodplain"                                                                                                                                              "Fan-delta_plain"                                                                                               
3139.3 "6407_7-4"  78.7200 "Sandstone" "Siltstone" -999.25  50.0000 50.00000     0.0 "silt/vf"  "vf/f"    "Poorly_drained_floodplain"                                                                                                                                              "Fan-delta_plain"                                                                                               
3139.4 "6407_7-4"  79.5500 "Sandstone" "Siltstone" -999.25  50.0000 50.00000     0.0 "silt/vf"  "vf/f"    "Poorly_drained_floodplain"                                                                                                                                              "Fan-delta_plain"                                                                                               
