~Version
VERS  .                                 3.0 : CWLS LAS ASCII Standard - Version 3.0
WRAP  . NO                                  : One line per depth step
DLM   . SPACE                               : Column data section delimiter
SOURCE. Converted to LAS by Log Studio 4.76 : GeoProvider

~Well
STRT.         2877.0 : Start depth
STOP.         3139.9 : Stop depth
STEP.              1 : Step
NULL.        -999.25 : No-value
COMP.                : Company
WELL. 6407/7-4       : Well
FLD .                : Field
LOC .                : Location
LATI.                : Latitude
LONG.                : Longitude
GDAT.                : Geodetic datum
CNTY.                : County
STAT.                : State
CTRY.                : Country
SRVC. GeoProvider AS : Service company
DATE.                : Date
API .                : API number
RUN .                : Run number

~Parameters
WellboreName.  : Wellbore name
RigName     .  : Rig name
StartDate   .  : Start date

~Curves
DEPTH.m            .  : null {F}Depth mMD
Hole_ID.-          .  : null {S}Hole ID
GR.API             .  : null {F}Gamma Ray
Lithology1.-       .  : null {S}Lithology 1
Lithology2.-       .  : null {S}Lithology 2
Lithology3.-       .  : null {S}Lithology 3
Lithology1.%       .  : null {F}Lithology 1 percentage
Lithology2.%       .  : null {F}Lithology 2 percentage
Lithology3.%       .  : null {F}Lithology 3 percentage
Grain_size_Top.-   .  : null {S}Grain size at the top 
Grain_size_Base.-  .  : null {S}Grain size at the bottom
Sub_Environment.-  .  : null {S}Sub Environment
Gross_Environment.-.  : null {S}Gross Environment

~Ascii
# ...
3003.0 "6407_7-4"  68.9900 "Sandstone" "Clay"    -999.25  78.0000 22.00000     0.0 "silt/vf"  "f/m"     "Sandy_sub-environment_within_estuary,_perhaps_sand-ridge_system_or_estuary_shoal_(outer_estuary)."                                                                      "Tide-dominated_bay_or_estuary,_influenced_by_pronounced_short_-_and_longer_term_variations_in_sediment_supply" 
3003.1 "6407_7-4"  70.0700 "Sandstone" "Clay"    -999.25  78.0000 22.00000     0.0 "silt/vf"  "f/m"     "Sandy_sub-environment_within_estuary,_perhaps_sand-ridge_system_or_estuary_shoal_(outer_estuary)."                                                                      "Tide-dominated_bay_or_estuary,_influenced_by_pronounced_short_-_and_longer_term_variations_in_sediment_supply" 
3003.2 "6407_7-4"  71.1500 "Sandstone" "Clay"    -999.25  78.0000 22.00000     0.0 "silt/vf"  "f/m"     "Sandy_sub-environment_within_estuary,_perhaps_sand-ridge_system_or_estuary_shoal_(outer_estuary)."                                                                      "Tide-dominated_bay_or_estuary,_influenced_by_pronounced_short_-_and_longer_term_variations_in_sediment_supply" 
3003.3 "6407_7-4"  72.2200 "Sandstone" "Clay"    -999.25  78.0000 22.00000     0.0 "silt/vf"  "f/m"     "Sandy_sub-environment_within_estuary,_perhaps_sand-ridge_system_or_estuary_shoal_(outer_estuary)."                                                                      "Tide-dominated_bay_or_estuary,_influenced_by_pronounced_short_-_and_longer_term_variations_in_sediment_supply" 
3003.4 "6407_7-4"  72.2000 "Sandstone" "Clay"    -999.25  78.0000 22.00000     0.0 "silt/vf"  "f/m"     "Sandy_sub-environment_within_estuary,_perhaps_sand-ridge_system_or_estuary_shoal_(outer_estuary)."                                                                      "Tide-dominated_bay_or_estuary,_influenced_by_pronounced_short_-_and_longer_term_variations_in_sediment_supply" 
3003.5 "6407_7-4"  71.9800 "Sandstone" "Clay"    -999.25  78.0000 22.00000     0.0 "silt/vf"  "f/m"     "Sandy_sub-environment_within_estuary,_perhaps_sand-ridge_system_or_estuary_shoal_(outer_estuary)."                                                                      "Tide-dominated_bay_or_estuary,_influenced_by_pronounced_short_-_and_longer_term_variations_in_sediment_supply" 
3003.6 "6407_7-4"  71.7700 "Sandstone" "Clay"    -999.25  78.0000 22.00000     0.0 "silt/vf"  "f/m"     "Sandy_sub-environment_within_estuary,_perhaps_sand-ridge_system_or_estuary_shoal_(outer_estuary)."                                                                      "Tide-dominated_bay_or_estuary,_influenced_by_pronounced_short_-_and_longer_term_variations_in_sediment_supply" 
3003.7 "6407_7-4"  71.5500 "Sandstone" "Clay"    -999.25  78.0000 22.00000     0.0 "silt/vf"  "f/m"     "Sandy_sub-environment_within_estuary,_perhaps_sand-ridge_system_or_estuary_shoal_(outer_estuary)."                                                                      "Tide-dominated_bay_or_estuary,_influenced_by_pronounced_short_-_and_longer_term_variations_in_sediment_supply" 
3003.8 "6407_7-4"  71.3300 "Sandstone" "Clay"    -999.25  78.0000 22.00000     0.0 "silt/vf"  "f/m"     "Sandy_sub-environment_within_estuary,_perhaps_sand-ridge_system_or_estuary_shoal_(outer_estuary)."                                                                      "Tide-dominated_bay_or_estuary,_influenced_by_pronounced_short_-_and_longer_term_variations_in_sediment_supply" 
3003.9 "6407_7-4"  71.1100 "Sandstone" "Clay"    -999.25  78.0000 22.00000     0.0 "silt/vf"  "f/m"     "Sandy_sub-environment_within_estuary,_perhaps_sand-ridge_system_or_estuary_shoal_(outer_estuary)."                                                                      "Tide-dominated_bay_or_estuary,_influenced_by_pronounced_short_-_and_longer_term_variations_in_sediment_supply" 
3004.0 "6407_7-4"  70.8900 "Limestone" -999.25   -999.25 100.0000      0.0     0.0 "f/m"      "vf/f"    "Sandy_sub-environment_within_estuary,_perhaps_sand-ridge_system_or_estuary_shoal_(outer_estuary)."                                                                      "Tide-dominated_bay_or_estuary,_influenced_by_pronounced_short_-_and_longer_term_variations_in_sediment_supply" 
3004.1 "6407_7-4"  72.5000 "Limestone" -999.25   -999.25 100.0000      0.0     0.0 "f/m"      "vf/f"    "Sandy_sub-environment_within_estuary,_perhaps_sand-ridge_system_or_estuary_shoal_(outer_estuary)."                                                                      "Tide-dominated_bay_or_estuary,_influenced_by_pronounced_short_-_and_longer_term_variations_in_sediment_supply" 
3004.2 "6407_7-4"  76.0300 "Limestone" -999.25   -999.25 100.0000      0.0     0.0 "f/m"      "vf/f"    "Sandy_sub-environment_within_estuary,_perhaps_sand-ridge_system_or_estuary_shoal_(outer_estuary)."                                                                      "Tide-dominated_bay_or_estuary,_influenced_by_pronounced_short_-_and_longer_term_variations_in_sediment_supply" 
3004.3 "6407_7-4"  77.2300 "Sandstone" "Clay"    -999.25  57.0000 43.00000     0.0 "f"        "f/m"     "Sandy_sub-environment_within_estuary,_perhaps_sand-ridge_system_or_estuary_shoal_(outer_estuary)."                                                                      "Tide-dominated_bay_or_estuary,_influenced_by_pronounced_short_-_and_longer_term_variations_in_sediment_supply" 
3004.4 "6407_7-4"  77.6100 "Sandstone" "Clay"    -999.25  57.0000 43.00000     0.0 "f"        "f/m"     "Sandy_sub-environment_within_estuary,_perhaps_sand-ridge_system_or_estuary_shoal_(outer_estuary)."                                                                      "Tide-dominated_bay_or_estuary,_influenced_by_pronounced_short_-_and_longer_term_variations_in_sediment_supply" 
3004.5 "6407_7-4"  76.5400 "Sandstone" "Clay"    -999.25  57.0000 43.00000     0.0 "f"        "f/m"     "Sandy_sub-environment_within_estuary,_perhaps_sand-ridge_system_or_estuary_shoal_(outer_estuary)."                                                                      "Tide-dominated_bay_or_estuary,_influenced_by_pronounced_short_-_and_longer_term_variations_in_sediment_supply" 
3004.6 "6407_7-4"  75.4700 "Sandstone" "Clay"    -999.25  57.0000 43.00000     0.0 "f"        "f/m"     "Sandy_sub-environment_within_estuary,_perhaps_sand-ridge_system_or_estuary_shoal_(outer_estuary)."                                                                      "Tide-dominated_bay_or_estuary,_influenced_by_pronounced_short_-_and_longer_term_variations_in_sediment_supply" 
3004.7 "6407_7-4"  74.4100 "Sandstone" "Clay"    -999.25  57.0000 43.00000     0.0 "f"        "f/m"     "Sandy_sub-environment_within_estuary,_perhaps_sand-ridge_system_or_estuary_shoal_(outer_estuary)."                                                                      "Tide-dominated_bay_or_estuary,_influenced_by_pronounced_short_-_and_longer_term_variations_in_sediment_supply" 
3004.8 "6407_7-4"  73.3400 "Sandstone" "Clay"    -999.25  57.0000 43.00000     0.0 "f"        "f/m"     "Sandy_sub-environment_within_estuary,_perhaps_sand-ridge_system_or_estuary_shoal_(outer_estuary)."                                                                      "Tide-dominated_bay_or_estuary,_influenced_by_pronounced_short_-_and_longer_term_variations_in_sediment_supply" 
3004.9 "6407_7-4"  72.4700 "Sandstone" "Clay"    -999.25  57.0000 43.00000     0.0 "f"        "f/m"     "Sandy_sub-environment_within_estuary,_perhaps_sand-ridge_system_or_estuary_shoal_(outer_estuary)."                                                                      "Tide-dominated_bay_or_estuary,_influenced_by_pronounced_short_-_and_longer_term_variations_in_sediment_supply" 
3005.0 "6407_7-4"  71.7500 "Sandstone" "Clay"    -999.25  57.0000 43.00000     0.0 "f"        "f/m"     "Sandy_sub-environment_within_estuary,_perhaps_sand-ridge_system_or_estuary_shoal_(outer_estuary)."                                                                      "Tide-dominated_bay_or_estuary,_influenced_by_pronounced_short_-_and_longer_term_variations_in_sediment_supply" 
