~Version
VERS  .                                 3.0 : CWLS LAS ASCII Standard - Version 3.0
WRAP  . NO                                  : One line per depth step
DLM   . SPACE                               : Column data section delimiter
SOURCE. Converted to LAS by Log Studio 4.76 : GeoProvider

~Well
STRT.         2877.0 : Start depth
STOP.         3139.9 : Stop depth
STEP.              1 : Step
NULL.        -999.25 : No-value
COMP.                : Company
WELL. 6407/7-4       : Well
FLD .                : Field
LOC .                : Location
LATI.                : Latitude
LONG.                : Longitude
GDAT.                : Geodetic datum
CNTY.                : County
STAT.                : State
CTRY.                : Country
SRVC. GeoProvider AS : Service company
DATE.                : Date
API .                : API number
RUN .                : Run number

~Parameters
WellboreName.  : Wellbore name
RigName     .  : Rig name
StartDate   .  : Start date

~Curves
DEPTH.m            .  : null {F}Depth mMD
Hole_ID.-          .  : null {S}Hole ID
GR.API             .  : null {F}Gamma Ray
Lithology1.-       .  : null {S}Lithology 1
Lithology2.-       .  : null {S}Lithology 2
Lithology3.-       .  : null {S}Lithology 3
Lithology1.%       .  : null {F}Lithology 1 percentage
Lithology2.%       .  : null {F}Lithology 2 percentage
Lithology3.%       .  : null {F}Lithology 3 percentage
Grain_size_Top.-   .  : null {S}Grain size at the top 
Grain_size_Base.-  .  : null {S}Grain size at the bottom
Sub_Environment.-  .  : null {S}Sub Environment
Gross_Environment.-.  : null {S}Gross Environment

~Ascii
# ...
3063.9 "6407_7-4"  63.0500 "Sandstone" "Clay"    -999.25  90.0000 10.00000     0.0 "vc/granule" "c/vc"    "Prograding_fluvial_dominated_mouthbar_deposits"                                                                                                                         "Prograding_sequences_of_proximal_to_medial_mouthbar_sediments,_deposited_in_a_fluvial-dominated_fan-delta_front"
3064.0 "6407_7-4"  62.7000 "Sandstone" "Clay"    -999.25  90.0000 10.00000     0.0 "vc/granule" "c/vc"    "Prograding_fluvial_dominated_mouthbar_deposits"                                                                                                                         "Prograding_sequences_of_proximal_to_medial_mouthbar_sediments,_deposited_in_a_fluvial-dominated_fan-delta_front"
3064.1 "6407_7-4"  62.3500 "Sandstone" "Clay"    -999.25  90.0000 10.00000     0.0 "vc/granule" "c/vc"    "Prograding_fluvial_dominated_mouthbar_deposits"                                                                                                                         "Prograding_sequences_of_proximal_to_medial_mouthbar_sediments,_deposited_in_a_fluvial-dominated_fan-delta_front"
3064.2 "6407_7-4"  61.9900 "Sandstone" "Clay"    -999.25  90.0000 10.00000     0.0 "vc/granule" "c/vc"    "Prograding_fluvial_dominated_mouthbar_deposits"                                                                                                                         "Prograding_sequences_of_proximal_to_medial_mouthbar_sediments,_deposited_in_a_fluvial-dominated_fan-delta_front"
3064.3 "6407_7-4"  61.6400 "Sandstone" "Clay"    -999.25  90.0000 10.00000     0.0 "vc/granule" "c/vc"    "Prograding_fluvial_dominated_mouthbar_deposits"                                                                                                                         "Prograding_sequences_of_proximal_to_medial_mouthbar_sediments,_deposited_in_a_fluvial-dominated_fan-delta_front"
3064.4 "6407_7-4"  61.7800 "Sandstone" "Clay"    -999.25  90.0000 10.00000     0.0 "vc/granule" "c/vc"    "Prograding_fluvial_dominated_mouthbar_deposits"                                                                                                                         "Prograding_sequences_of_proximal_to_medial_mouthbar_sediments,_deposited_in_a_fluvial-dominated_fan-delta_front"
3064.5 "6407_7-4"  62.3500 "Sandstone" "Clay"    -999.25  90.0000 10.00000     0.0 "vc/granule" "c/vc"    "Prograding_fluvial_dominated_mouthbar_deposits"                                                                                                                         "Prograding_sequences_of_proximal_to_medial_mouthbar_sediments,_deposited_in_a_fluvial-dominated_fan-delta_front"
3064.6 "6407_7-4"  62.9200 "Sandstone" "Clay"    -999.25  90.0000 10.00000     0.0 "vc/granule" "c/vc"    "Prograding_fluvial_dominated_mouthbar_deposits"                                                                                                                         "Prograding_sequences_of_proximal_to_medial_mouthbar_sediments,_deposited_in_a_fluvial-dominated_fan-delta_front"
3064.7 "6407_7-4"  63.4900 "Sandstone" "Clay"    -999.25  90.0000 10.00000     0.0 "vc/granule" "c/vc"    "Prograding_fluvial_dominated_mouthbar_deposits"                                                                                                                         "Prograding_sequences_of_proximal_to_medial_mouthbar_sediments,_deposited_in_a_fluvial-dominated_fan-delta_front"
3064.8 "6407_7-4"  64.0700 "Sandstone" "Clay"    -999.25  90.0000 10.00000     0.0 "vc/granule" "c/vc"    "Prograding_fluvial_dominated_mouthbar_deposits"                                                                                                                         "Prograding_sequences_of_proximal_to_medial_mouthbar_sediments,_deposited_in_a_fluvial-dominated_fan-delta_front"
3064.9 "6407_7-4"  64.4400 "Sandstone" "Clay"    -999.25  90.0000 10.00000     0.0 "vc/granule" "c/vc"    "Prograding_fluvial_dominated_mouthbar_deposits"                                                                                                                         "Prograding_sequences_of_proximal_to_medial_mouthbar_sediments,_deposited_in_a_fluvial-dominated_fan-delta_front"
3065.0 "6407_7-4"  63.0700 "Sandstone" "Clay"    -999.25  90.0000 10.00000     0.0 "vc/granule" "c/vc"    "Prograding_fluvial_dominated_mouthbar_deposits"                                                                                                                         "Prograding_sequences_of_proximal_to_medial_mouthbar_sediments,_deposited_in_a_fluvial-dominated_fan-delta_front"
3065.1 "6407_7-4"  62.2000 "Sandstone" "Clay"    -999.25  90.0000 10.00000     0.0 "vc/granule" "c/vc"    "Prograding_fluvial_dominated_mouthbar_deposits"                                                                                                                         "Prograding_sequences_of_proximal_to_medial_mouthbar_sediments,_deposited_in_a_fluvial-dominated_fan-delta_front"
3065.2 "6407_7-4"  62.9900 "Sandstone" "Clay"    -999.25  90.0000 10.00000     0.0 "vc/granule" "c/vc"    "Prograding_fluvial_dominated_mouthbar_deposits"                                                                                                                         "Prograding_sequences_of_proximal_to_medial_mouthbar_sediments,_deposited_in_a_fluvial-dominated_fan-delta_front"
3065.3 "6407_7-4"  63.0300 "Sandstone" "Clay"    -999.25  90.0000 10.00000     0.0 "vc/granule" "c/vc"    "Prograding_fluvial_dominated_mouthbar_deposits"                                                                                                                         "Prograding_sequences_of_proximal_to_medial_mouthbar_sediments,_deposited_in_a_fluvial-dominated_fan-delta_front"
3065.4 "6407_7-4"  62.4000 "Sandstone" "Clay"    -999.25  90.0000 10.00000     0.0 "vc/granule" "c/vc"    "Prograding_fluvial_dominated_mouthbar_deposits"                                                                                                                         "Prograding_sequences_of_proximal_to_medial_mouthbar_sediments,_deposited_in_a_fluvial-dominated_fan-delta_front"
3065.5 "6407_7-4"  61.7600 "Sandstone" "Clay"    -999.25  90.0000 10.00000     0.0 "vc/granule" "c/vc"    "Prograding_fluvial_dominated_mouthbar_deposits"                                                                                                                         "Prograding_sequences_of_proximal_to_medial_mouthbar_sediments,_deposited_in_a_fluvial-dominated_fan-delta_front"
3065.6 "6407_7-4"  61.1300 "Sandstone" "Clay"    -999.25  90.0000 10.00000     0.0 "vc/granule" "c/vc"    "Prograding_fluvial_dominated_mouthbar_deposits"                                                                                                                         "Prograding_sequences_of_proximal_to_medial_mouthbar_sediments,_deposited_in_a_fluvial-dominated_fan-delta_front"
3065.7 "6407_7-4"  60.4900 "Sandstone" "Clay"    -999.25  90.0000 10.00000     0.0 "vc/granule" "c/vc"    "Prograding_fluvial_dominated_mouthbar_deposits"                                                                                                                         "Prograding_sequences_of_proximal_to_medial_mouthbar_sediments,_deposited_in_a_fluvial-dominated_fan-delta_front"
3065.8 "6407_7-4"  60.5100 "Sandstone" "Clay"    -999.25  90.0000 10.00000     0.0 "vc/granule" "c/vc"    "Prograding_fluvial_dominated_mouthbar_deposits"                                                                                                                         "Prograding_sequences_of_proximal_to_medial_mouthbar_sediments,_deposited_in_a_fluvial-dominated_fan-delta_front"
3065.9 "6407_7-4"  61.5800 "Sandstone" "Clay"    -999.25  90.0000 10.00000     0.0 "vc/granule" "c/vc"    "Prograding_fluvial_dominated_mouthbar_deposits"                                                                                                                         "Prograding_sequences_of_proximal_to_medial_mouthbar_sediments,_deposited_in_a_fluvial-dominated_fan-delta_front"
