~Version
VERS  .                                 3.0 : CWLS LAS ASCII Standard - Version 3.0
WRAP  . NO                                  : One line per depth step
DLM   . SPACE                               : Column data section delimiter
SOURCE. Converted to LAS by Log Studio 4.76 : GeoProvider

~Well
STRT.         2877.0 : Start depth
STOP.         3139.9 : Stop depth
STEP.              1 : Step
NULL.        -999.25 : No-value
COMP.                : Company
WELL. 6407/7-4       : Well
FLD .                : Field
LOC .                : Location
LATI.                : Latitude
LONG.                : Longitude
GDAT.                : Geodetic datum
CNTY.                : County
STAT.                : State
CTRY.                : Country
SRVC. GeoProvider AS : Service company
DATE.                : Date
API .                : API number
RUN .                : Run number

~Parameters
WellboreName.  : Wellbore name
RigName     .  : Rig name
StartDate   .  : Start date

~Curves
DEPTH.m            .  : null {F}Depth mMD
Hole_ID.-          .  : null {S}Hole ID
GR.API             .  : null {F}Gamma Ray
Lithology1.-       .  : null {S}Lithology 1
Lithology2.-       .  : null {S}Lithology 2
Lithology3.-       .  : null {S}Lithology 3
Lithology1.%       .  : null {F}Lithology 1 percentage
Lithology2.%       .  : null {F}Lithology 2 percentage
Lithology3.%       .  : null {F}Lithology 3 percentage
Grain_size_Top.-   .  : null {S}Grain size at the top 
Grain_size_Base.-  .  : null {S}Grain size at the bottom
Sub_Environment.-  .  : null {S}Sub Environment
Gross_Environment.-.  : null {S}Gross Environment

~Ascii
# ...
3124.8 "6407_7-4"  65.7600 "Sandstone" "Clay"    -999.25  86.0000 14.00000     0.0 "vf/f"     "m"       "Stacked_mouthbar_sediments,_dominated_by_vertical_aggradation._Marine_Fluvial_dominated._Deposited_in_medial_to_distal_parts_of_the_fan-delta_front."                   "Stacked_sub-mouthbar_lobes_deposited_in_intermediate_water-depths_in_a_fan-delta_front_system._Fluvial_dominated"
3124.9 "6407_7-4"  65.7200 "Sandstone" "Clay"    -999.25  86.0000 14.00000     0.0 "vf/f"     "m"       "Stacked_mouthbar_sediments,_dominated_by_vertical_aggradation._Marine_Fluvial_dominated._Deposited_in_medial_to_distal_parts_of_the_fan-delta_front."                   "Stacked_sub-mouthbar_lobes_deposited_in_intermediate_water-depths_in_a_fan-delta_front_system._Fluvial_dominated"
3125.0 "6407_7-4"  65.6800 "Sandstone" "Clay"    -999.25  86.0000 14.00000     0.0 "vf/f"     "m"       "Stacked_mouthbar_sediments,_dominated_by_vertical_aggradation._Marine_Fluvial_dominated._Deposited_in_medial_to_distal_parts_of_the_fan-delta_front."                   "Stacked_sub-mouthbar_lobes_deposited_in_intermediate_water-depths_in_a_fan-delta_front_system._Fluvial_dominated"
3125.1 "6407_7-4"  65.2800 "Sandstone" "Clay"    -999.25  86.0000 14.00000     0.0 "vf/f"     "m"       "Stacked_mouthbar_sediments,_dominated_by_vertical_aggradation._Marine_Fluvial_dominated._Deposited_in_medial_to_distal_parts_of_the_fan-delta_front."                   "Stacked_sub-mouthbar_lobes_deposited_in_intermediate_water-depths_in_a_fan-delta_front_system._Fluvial_dominated"
3125.2 "6407_7-4"  64.5500 "Sandstone" "Clay"    -999.25  86.0000 14.00000     0.0 "vf/f"     "m"       "Stacked_mouthbar_sediments,_dominated_by_vertical_aggradation._Marine_Fluvial_dominated._Deposited_in_medial_to_distal_parts_of_the_fan-delta_front."                   "Stacked_sub-mouthbar_lobes_deposited_in_intermediate_water-depths_in_a_fan-delta_front_system._Fluvial_dominated"
3125.3 "6407_7-4"  63.8300 "Sandstone" "Clay"    -999.25  86.0000 14.00000     0.0 "vf/f"     "m"       "Stacked_mouthbar_sediments,_dominated_by_vertical_aggradation._Marine_Fluvial_dominated._Deposited_in_medial_to_distal_parts_of_the_fan-delta_front."                   "Stacked_sub-mouthbar_lobes_deposited_in_intermediate_water-depths_in_a_fan-delta_front_system._Fluvial_dominated"
3125.4 "6407_7-4"  64.0900 "Sandstone" "Clay"    -999.25  86.0000 14.00000     0.0 "vf/f"     "m"       "Stacked_mouthbar_sediments,_dominated_by_vertical_aggradation._Marine_Fluvial_dominated._Deposited_in_medial_to_distal_parts_of_the_fan-delta_front."                   "Stacked_sub-mouthbar_lobes_deposited_in_intermediate_water-depths_in_a_fan-delta_front_system._Fluvial_dominated"
3125.5 "6407_7-4"  66.2700 "Sandstone" "Clay"    -999.25  86.0000 14.00000     0.0 "vf/f"     "m"       "Stacked_mouthbar_sediments,_dominated_by_vertical_aggradation._Marine_Fluvial_dominated._Deposited_in_medial_to_distal_parts_of_the_fan-delta_front."                   "Stacked_sub-mouthbar_lobes_deposited_in_intermediate_water-depths_in_a_fan-delta_front_system._Fluvial_dominated"
3125.6 "6407_7-4"  69.4100 "Sandstone" "Clay"    -999.25  86.0000 14.00000     0.0 "vf/f"     "m"       "Stacked_mouthbar_sediments,_dominated_by_vertical_aggradation._Marine_Fluvial_dominated._Deposited_in_medial_to_distal_parts_of_the_fan-delta_front."                   "Stacked_sub-mouthbar_lobes_deposited_in_intermediate_water-depths_in_a_fan-delta_front_system._Fluvial_dominated"
3125.7 "6407_7-4"  72.5500 "Sandstone" "Clay"    -999.25  86.0000 14.00000     0.0 "vf/f"     "m"       "Stacked_mouthbar_sediments,_dominated_by_vertical_aggradation._Marine_Fluvial_dominated._Deposited_in_medial_to_distal_parts_of_the_fan-delta_front."                   "Stacked_sub-mouthbar_lobes_deposited_in_intermediate_water-depths_in_a_fan-delta_front_system._Fluvial_dominated"
3125.8 "6407_7-4"  73.5000 "Sandstone" "Clay"    -999.25  86.0000 14.00000     0.0 "vf/f"     "m"       "Stacked_mouthbar_sediments,_dominated_by_vertical_aggradation._Marine_Fluvial_dominated._Deposited_in_medial_to_distal_parts_of_the_fan-delta_front."                   "Stacked_sub-mouthbar_lobes_deposited_in_intermediate_water-depths_in_a_fan-delta_front_system._Fluvial_dominated"
3125.9 "6407_7-4"  73.8100 "Sandstone" "Clay"    -999.25  86.0000 14.00000     0.0 "vf/f"     "m"       "Stacked_mouthbar_sediments,_dominated_by_vertical_aggradation._Marine_Fluvial_dominated._Deposited_in_medial_to_distal_parts_of_the_fan-delta_front."                   "Stacked_sub-mouthbar_lobes_deposited_in_intermediate_water-depths_in_a_fan-delta_front_system._Fluvial_dominated"
3126.0 "6407_7-4"  72.4200 "Sandstone" "Clay"    -999.25  86.0000 14.00000     0.0 "vf/f"     "m"       "Stacked_mouthbar_sediments,_dominated_by_vertical_aggradation._Marine_Fluvial_dominated._Deposited_in_medial_to_distal_parts_of_the_fan-delta_front."                   "Stacked_sub-mouthbar_lobes_deposited_in_intermediate_water-depths_in_a_fan-delta_front_system._Fluvial_dominated"
3126.1 "6407_7-4"  71.0200 "Sandstone" "Clay"    -999.25  86.0000 14.00000     0.0 "vf/f"     "m"       "Stacked_mouthbar_sediments,_dominated_by_vertical_aggradation._Marine_Fluvial_dominated._Deposited_in_medial_to_distal_parts_of_the_fan-delta_front."                   "Stacked_sub-mouthbar_lobes_deposited_in_intermediate_water-depths_in_a_fan-delta_front_system._Fluvial_dominated"
3126.2 "6407_7-4"  69.6200 "Sandstone" "Clay"    -999.25  86.0000 14.00000     0.0 "vf/f"     "m"       "Stacked_mouthbar_sediments,_dominated_by_vertical_aggradation._Marine_Fluvial_dominated._Deposited_in_medial_to_distal_parts_of_the_fan-delta_front."                   "Stacked_sub-mouthbar_lobes_deposited_in_intermediate_water-depths_in_a_fan-delta_front_system._Fluvial_dominated"
3126.3 "6407_7-4"  68.2200 "Sandstone" "Clay"    -999.25  86.0000 14.00000     0.0 "vf/f"     "m"       "Stacked_mouthbar_sediments,_dominated_by_vertical_aggradation._Marine_Fluvial_dominated._Deposited_in_medial_to_distal_parts_of_the_fan-delta_front."                   "Stacked_sub-mouthbar_lobes_deposited_in_intermediate_water-depths_in_a_fan-delta_front_system._Fluvial_dominated"
3126.4 "6407_7-4"  66.8200 "Sandstone" "Clay"    -999.25  86.0000 14.00000     0.0 "vf/f"     "m"       "Stacked_mouthbar_sediments,_dominated_by_vertical_aggradation._Marine_Fluvial_dominated._Deposited_in_medial_to_distal_parts_of_the_fan-delta_front."                   "Stacked_sub-mouthbar_lobes_deposited_in_intermediate_water-depths_in_a_fan-delta_front_system._Fluvial_dominated"
3126.5 "6407_7-4"  66.2000 "Sandstone" "Clay"    -999.25  86.0000 14.00000     0.0 "vf/f"     "m"       "Stacked_mouthbar_sediments,_dominated_by_vertical_aggradation._Marine_Fluvial_dominated._Deposited_in_medial_to_distal_parts_of_the_fan-delta_front."                   "Stacked_sub-mouthbar_lobes_deposited_in_intermediate_water-depths_in_a_fan-delta_front_system._Fluvial_dominated"
3126.6 "6407_7-4"  66.1200 "Sandstone" "Clay"    -999.25  86.0000 14.00000     0.0 "vf/f"     "m"       "Stacked_mouthbar_sediments,_dominated_by_vertical_aggradation._Marine_Fluvial_dominated._Deposited_in_medial_to_distal_parts_of_the_fan-delta_front."                   "Stacked_sub-mouthbar_lobes_deposited_in_intermediate_water-depths_in_a_fan-delta_front_system._Fluvial_dominated"
3126.7 "6407_7-4"  66.1000 "Sandstone" "Clay"    -999.25  86.0000 14.00000     0.0 "vf/f"     "m"       "Stacked_mouthbar_sediments,_dominated_by_vertical_aggradation._Marine_Fluvial_dominated._Deposited_in_medial_to_distal_parts_of_the_fan-delta_front."                   "Stacked_sub-mouthbar_lobes_deposited_in_intermediate_water-depths_in_a_fan-delta_front_system._Fluvial_dominated"
3126.8 "6407_7-4"  66.4500 "Sandstone" "Clay"    -999.25  86.0000 14.00000     0.0 "vf/f"     "m"       "Stacked_mouthbar_sediments,_dominated_by_vertical_aggradation._Marine_Fluvial_dominated._Deposited_in_medial_to_distal_parts_of_the_fan-delta_front."                   "Stacked_sub-mouthbar_lobes_deposited_in_intermediate_water-depths_in_a_fan-delta_front_system._Fluvial_dominated"
