~Version
VERS  .                                 3.0 : CWLS LAS ASCII Standard - Version 3.0
WRAP  . NO                                  : One line per depth step
DLM   . SPACE                               : Column data section delimiter
SOURCE. Converted to LAS by Log Studio 4.76 : GeoProvider

~Well
STRT.         2877.0 : Start depth
STOP.         3139.9 : Stop depth
STEP.              1 : Step
NULL.        -999.25 : No-value
COMP.                : Company
WELL. 6407/7-4       : Well
FLD .                : Field
LOC .                : Location
LATI.                : Latitude
LONG.                : Longitude
GDAT.                : Geodetic datum
CNTY.                : County
STAT.                : State
CTRY.                : Country
SRVC. GeoProvider AS : Service company
DATE.                : Date
API .                : API number
RUN .                : Run number

~Parameters
WellboreName.  : Wellbore name
RigName     .  : Rig name
StartDate   .  : Start date

~Curves
DEPTH.m            .  : null {F}Depth mMD
Hole_ID.-          .  : null {S}Hole ID
GR.API             .  : null {F}Gamma Ray
Lithology1.-       .  : null {S}Lithology 1
Lithology2.-       .  : null {S}Lithology 2
Lithology3.-       .  : null {S}Lithology 3
Lithology1.%       .  : null {F}Lithology 1 percentage
Lithology2.%       .  : null {F}Lithology 2 percentage
Lithology3.%       .  : null {F}Lithology 3 percentage
Grain_size_Top.-   .  : null {S}Grain size at the top 
Grain_size_Base.-  .  : null {S}Grain size at the bottom
Sub_Environment.-  .  : null {S}Sub Environment
Gross_Environment.-.  : null {S}Gross Environment

~Ascii
# ...
3101.7 "6407_7-4"  68.3000 "Sandstone" -999.25   -999.25 100.0000      0.0     0.0 "f/m"      "f"       "Stacked_(?)_mouthbar_sediments,_showing_progradation_from_distal_to_relatively_proximal_delta_front._Fluvial_dominated,_but_some_tidal_influence."                      "Stacked_sub-mouthbar_lobes_deposited_in_intermediate_water-depths_in_a_fan-delta_front_system._Fluvial_dominated"
3101.8 "6407_7-4"  68.8400 "Sandstone" -999.25   -999.25 100.0000      0.0     0.0 "vf/f"     "m/c"     "Stacked_(?)_mouthbar_sediments,_showing_progradation_from_distal_to_relatively_proximal_delta_front._Fluvial_dominated,_but_some_tidal_influence."                      "Stacked_sub-mouthbar_lobes_deposited_in_intermediate_water-depths_in_a_fan-delta_front_system._Fluvial_dominated"
3101.9 "6407_7-4"  68.9900 "Sandstone" -999.25   -999.25 100.0000      0.0     0.0 "vf/f"     "m/c"     "Stacked_(?)_mouthbar_sediments,_showing_progradation_from_distal_to_relatively_proximal_delta_front._Fluvial_dominated,_but_some_tidal_influence."                      "Stacked_sub-mouthbar_lobes_deposited_in_intermediate_water-depths_in_a_fan-delta_front_system._Fluvial_dominated"
3102.0 "6407_7-4"  69.0600 "Sandstone" -999.25   -999.25 100.0000      0.0     0.0 "vf/f"     "m/c"     "Stacked_(?)_mouthbar_sediments,_showing_progradation_from_distal_to_relatively_proximal_delta_front._Fluvial_dominated,_but_some_tidal_influence."                      "Stacked_sub-mouthbar_lobes_deposited_in_intermediate_water-depths_in_a_fan-delta_front_system._Fluvial_dominated"
3102.1 "6407_7-4"  69.2500 "Sandstone" -999.25   -999.25 100.0000      0.0     0.0 "vf/f"     "m/c"     "Stacked_(?)_mouthbar_sediments,_showing_progradation_from_distal_to_relatively_proximal_delta_front._Fluvial_dominated,_but_some_tidal_influence."                      "Stacked_sub-mouthbar_lobes_deposited_in_intermediate_water-depths_in_a_fan-delta_front_system._Fluvial_dominated"
3102.2 "6407_7-4"  70.1600 "Sandstone" -999.25   -999.25 100.0000      0.0     0.0 "vf/f"     "m/c"     "Stacked_(?)_mouthbar_sediments,_showing_progradation_from_distal_to_relatively_proximal_delta_front._Fluvial_dominated,_but_some_tidal_influence."                      "Stacked_sub-mouthbar_lobes_deposited_in_intermediate_water-depths_in_a_fan-delta_front_system._Fluvial_dominated"
3102.3 "6407_7-4"  71.0800 "Sandstone" -999.25   -999.25 100.0000      0.0     0.0 "vf/f"     "m/c"     "Stacked_(?)_mouthbar_sediments,_showing_progradation_from_distal_to_relatively_proximal_delta_front._Fluvial_dominated,_but_some_tidal_influence."                      "Stacked_sub-mouthbar_lobes_deposited_in_intermediate_water-depths_in_a_fan-delta_front_system._Fluvial_dominated"
3102.4 "6407_7-4"  72.0600 "Sandstone" -999.25   -999.25 100.0000      0.0     0.0 "vf/f"     "m/c"     "Stacked_(?)_mouthbar_sediments,_showing_progradation_from_distal_to_relatively_proximal_delta_front._Fluvial_dominated,_but_some_tidal_influence."                      "Stacked_sub-mouthbar_lobes_deposited_in_intermediate_water-depths_in_a_fan-delta_front_system._Fluvial_dominated"
3102.5 "6407_7-4"  73.2900 "Sandstone" -999.25   -999.25 100.0000      0.0     0.0 "vf/f"     "m/c"     "Stacked_(?)_mouthbar_sediments,_showing_progradation_from_distal_to_relatively_proximal_delta_front._Fluvial_dominated,_but_some_tidal_influence."                      "Stacked_sub-mouthbar_lobes_deposited_in_intermediate_water-depths_in_a_fan-delta_front_system._Fluvial_dominated"
3102.6 "6407_7-4"  75.2100 "Sandstone" -999.25   -999.25 100.0000      0.0     0.0 "vf/f"     "m/c"     "Stacked_(?)_mouthbar_sediments,_showing_progradation_from_distal_to_relatively_proximal_delta_front._Fluvial_dominated,_but_some_tidal_influence."                      "Stacked_sub-mouthbar_lobes_deposited_in_intermediate_water-depths_in_a_fan-delta_front_system._Fluvial_dominated"
3102.7 "6407_7-4"  74.3100 "Sandstone" -999.25   -999.25 100.0000      0.0     0.0 "vf/f"     "m/c"     "Stacked_(?)_mouthbar_sediments,_showing_progradation_from_distal_to_relatively_proximal_delta_front._Fluvial_dominated,_but_some_tidal_influence."                      "Stacked_sub-mouthbar_lobes_deposited_in_intermediate_water-depths_in_a_fan-delta_front_system._Fluvial_dominated"
3102.8 "6407_7-4"  74.2200 "Sandstone" -999.25   -999.25 100.0000      0.0     0.0 "vf/f"     "m/c"     "Stacked_(?)_mouthbar_sediments,_showing_progradation_from_distal_to_relatively_proximal_delta_front._Fluvial_dominated,_but_some_tidal_influence."                      "Stacked_sub-mouthbar_lobes_deposited_in_intermediate_water-depths_in_a_fan-delta_front_system._Fluvial_dominated"
3102.9 "6407_7-4"  74.1300 "Sandstone" -999.25   -999.25 100.0000      0.0     0.0 "vf/f"     "m/c"     "Stacked_(?)_mouthbar_sediments,_showing_progradation_from_distal_to_relatively_proximal_delta_front._Fluvial_dominated,_but_some_tidal_influence."                      "Stacked_sub-mouthbar_lobes_deposited_in_intermediate_water-depths_in_a_fan-delta_front_system._Fluvial_dominated"
3103.0 "6407_7-4"  74.5400 "Sandstone" -999.25   -999.25 100.0000      0.0     0.0 "vf/f"     "m/c"     "Stacked_(?)_mouthbar_sediments,_showing_progradation_from_distal_to_relatively_proximal_delta_front._Fluvial_dominated,_but_some_tidal_influence."                      "Stacked_sub-mouthbar_lobes_deposited_in_intermediate_water-depths_in_a_fan-delta_front_system._Fluvial_dominated"
3103.1 "6407_7-4"  75.0700 "Sandstone" -999.25   -999.25 100.0000      0.0     0.0 "vf/f"     "m/c"     "Stacked_(?)_mouthbar_sediments,_showing_progradation_from_distal_to_relatively_proximal_delta_front._Fluvial_dominated,_but_some_tidal_influence."                      "Stacked_sub-mouthbar_lobes_deposited_in_intermediate_water-depths_in_a_fan-delta_front_system._Fluvial_dominated"
3103.2 "6407_7-4"  75.5900 "Sandstone" -999.25   -999.25 100.0000      0.0     0.0 "vf/f"     "m/c"     "Stacked_(?)_mouthbar_sediments,_showing_progradation_from_distal_to_relatively_proximal_delta_front._Fluvial_dominated,_but_some_tidal_influence."                      "Stacked_sub-mouthbar_lobes_deposited_in_intermediate_water-depths_in_a_fan-delta_front_system._Fluvial_dominated"
3103.3 "6407_7-4"  76.1100 "Sandstone" -999.25   -999.25 100.0000      0.0     0.0 "vf/f"     "m/c"     "Stacked_(?)_mouthbar_sediments,_showing_progradation_from_distal_to_relatively_proximal_delta_front._Fluvial_dominated,_but_some_tidal_influence."                      "Stacked_sub-mouthbar_lobes_deposited_in_intermediate_water-depths_in_a_fan-delta_front_system._Fluvial_dominated"
3103.4 "6407_7-4"  76.6400 "Sandstone" -999.25   -999.25 100.0000      0.0     0.0 "vf/f"     "m/c"     "Stacked_(?)_mouthbar_sediments,_showing_progradation_from_distal_to_relatively_proximal_delta_front._Fluvial_dominated,_but_some_tidal_influence."                      "Stacked_sub-mouthbar_lobes_deposited_in_intermediate_water-depths_in_a_fan-delta_front_system._Fluvial_dominated"
3103.5 "6407_7-4"  77.1600 "Sandstone" -999.25   -999.25 100.0000      0.0     0.0 "vf/f"     "m/c"     "Stacked_(?)_mouthbar_sediments,_showing_progradation_from_distal_to_relatively_proximal_delta_front._Fluvial_dominated,_but_some_tidal_influence."                      "Stacked_sub-mouthbar_lobes_deposited_in_intermediate_water-depths_in_a_fan-delta_front_system._Fluvial_dominated"
3103.6 "6407_7-4"  76.3000 "Sandstone" -999.25   -999.25 100.0000      0.0     0.0 "vf/f"     "m/c"     "Stacked_(?)_mouthbar_sediments,_showing_progradation_from_distal_to_relatively_proximal_delta_front._Fluvial_dominated,_but_some_tidal_influence."                      "Stacked_sub-mouthbar_lobes_deposited_in_intermediate_water-depths_in_a_fan-delta_front_system._Fluvial_dominated"
3103.7 "6407_7-4"  75.3600 "Sandstone" -999.25   -999.25 100.0000      0.0     0.0 "vf/f"     "m/c"     "Stacked_(?)_mouthbar_sediments,_showing_progradation_from_distal_to_relatively_proximal_delta_front._Fluvial_dominated,_but_some_tidal_influence."                      "Stacked_sub-mouthbar_lobes_deposited_in_intermediate_water-depths_in_a_fan-delta_front_system._Fluvial_dominated"
