~Version
VERS  .                                 3.0 : CWLS LAS ASCII Standard - Version 3.0
WRAP  . NO                                  : One line per depth step
DLM   . SPACE                               : Column data section delimiter
SOURCE. Converted to LAS by Log Studio 4.76 : GeoProvider

~Well
STRT.         2877.0 : Start depth
STOP.         3139.9 : Stop depth
STEP.              1 : Step
NULL.        -999.25 : No-value
COMP.                : Company
WELL. 6407/7-4       : Well
FLD .                : Field
LOC .                : Location
LATI.                : Latitude
LONG.                : Longitude
GDAT.                : Geodetic datum
CNTY.                : County
STAT.                : State
CTRY.                : Country
SRVC. GeoProvider AS : Service company
DATE.                : Date
API .                : API number
RUN .                : Run number

~Parameters
WellboreName.  : Wellbore name
RigName     .  : Rig name
StartDate   .  : Start date

~Curves
DEPTH.m            .  : null {F}Depth mMD
Hole_ID.-          .  : null {S}Hole ID
GR.API             .  : null {F}Gamma Ray
Lithology1.-       .  : null {S}Lithology 1
Lithology2.-       .  : null {S}Lithology 2
Lithology3.-       .  : null {S}Lithology 3
Lithology1.%       .  : null {F}Lithology 1 percentage
Lithology2.%       .  : null {F}Lithology 2 percentage
Lithology3.%       .  : null {F}Lithology 3 percentage
Grain_size_Top.-   .  : null {S}Grain size at the top 
Grain_size_Base.-  .  : null {S}Grain size at the bottom
Sub_Environment.-  .  : null {S}Sub Environment
Gross_Environment.-.  : null {S}Gross Environment

~Ascii
# ...
3028.2 "6407_7-4"  83.7000 "Sandstone" "Clay"    -999.25  75.0000 25.00000     0.0 "vf/f"     "m/c"     "Tide-dominated,_relatively_distal_delta_front_or_lower_shoreface"                                                                                                       "Tide-dominated,_relatively_distal_delta_front_or_lower_shoreface"                                              
3028.3 "6407_7-4"  81.5300 "Sandstone" "Clay"    -999.25  75.0000 25.00000     0.0 "vf/f"     "m/c"     "Tide-dominated,_relatively_distal_delta_front_or_lower_shoreface"                                                                                                       "Tide-dominated,_relatively_distal_delta_front_or_lower_shoreface"                                              
3028.4 "6407_7-4"  79.3600 "Sandstone" "Clay"    -999.25  75.0000 25.00000     0.0 "vf/f"     "m/c"     "Tide-dominated,_relatively_distal_delta_front_or_lower_shoreface"                                                                                                       "Tide-dominated,_relatively_distal_delta_front_or_lower_shoreface"                                              
3028.5 "6407_7-4"  77.1900 "Sandstone" "Clay"    -999.25  75.0000 25.00000     0.0 "vf/f"     "m/c"     "Tide-dominated,_relatively_distal_delta_front_or_lower_shoreface"                                                                                                       "Tide-dominated,_relatively_distal_delta_front_or_lower_shoreface"                                              
3028.6 "6407_7-4"  75.0100 "Sandstone" "Clay"    -999.25  75.0000 25.00000     0.0 "vf/f"     "m/c"     "Tide-dominated,_relatively_distal_delta_front_or_lower_shoreface"                                                                                                       "Tide-dominated,_relatively_distal_delta_front_or_lower_shoreface"                                              
3028.7 "6407_7-4"  73.5700 "Sandstone" "Clay"    -999.25  75.0000 25.00000     0.0 "vf/f"     "m/c"     "Tide-dominated,_relatively_distal_delta_front_or_lower_shoreface"                                                                                                       "Tide-dominated,_relatively_distal_delta_front_or_lower_shoreface"                                              
3028.8 "6407_7-4"  74.4900 "Sandstone" "Clay"    -999.25  75.0000 25.00000     0.0 "vf/f"     "m/c"     "Tide-dominated,_relatively_distal_delta_front_or_lower_shoreface"                                                                                                       "Tide-dominated,_relatively_distal_delta_front_or_lower_shoreface"                                              
3028.9 "6407_7-4"  75.4200 "Sandstone" "Clay"    -999.25  75.0000 25.00000     0.0 "vf/f"     "m/c"     "Tide-dominated,_relatively_distal_delta_front_or_lower_shoreface"                                                                                                       "Tide-dominated,_relatively_distal_delta_front_or_lower_shoreface"                                              
3029.0 "6407_7-4"  76.3500 "Sandstone" "Clay"    -999.25  75.0000 25.00000     0.0 "vf/f"     "m/c"     "Tide-dominated,_relatively_distal_delta_front_or_lower_shoreface"                                                                                                       "Tide-dominated,_relatively_distal_delta_front_or_lower_shoreface"                                              
3029.1 "6407_7-4"  77.2800 "Sandstone" "Clay"    -999.25  75.0000 25.00000     0.0 "vf/f"     "m/c"     "Tide-dominated,_relatively_distal_delta_front_or_lower_shoreface"                                                                                                       "Tide-dominated,_relatively_distal_delta_front_or_lower_shoreface"                                              
3029.2 "6407_7-4"  76.0500 "Sandstone" "Clay"    -999.25  75.0000 25.00000     0.0 "vf/f"     "m/c"     "Tide-dominated,_relatively_distal_delta_front_or_lower_shoreface"                                                                                                       "Tide-dominated,_relatively_distal_delta_front_or_lower_shoreface"                                              
3029.3 "6407_7-4"  74.0400 "Sandstone" "Clay"    -999.25  75.0000 25.00000     0.0 "vf/f"     "m/c"     "Tide-dominated,_relatively_distal_delta_front_or_lower_shoreface"                                                                                                       "Tide-dominated,_relatively_distal_delta_front_or_lower_shoreface"                                              
3029.4 "6407_7-4"  72.0400 "Sandstone" "Clay"    -999.25  75.0000 25.00000     0.0 "vf/f"     "m/c"     "Tide-dominated,_relatively_distal_delta_front_or_lower_shoreface"                                                                                                       "Tide-dominated,_relatively_distal_delta_front_or_lower_shoreface"                                              
3029.5 "6407_7-4"  70.1400 "Sandstone" "Clay"    -999.25  75.0000 25.00000     0.0 "vf/f"     "m/c"     "Tide-dominated,_relatively_distal_delta_front_or_lower_shoreface"                                                                                                       "Tide-dominated,_relatively_distal_delta_front_or_lower_shoreface"                                              
3029.6 "6407_7-4"  70.0500 "Sandstone" "Clay"    -999.25  75.0000 25.00000     0.0 "vf/f"     "m/c"     "Tide-dominated,_relatively_distal_delta_front_or_lower_shoreface"                                                                                                       "Tide-dominated,_relatively_distal_delta_front_or_lower_shoreface"                                              
3029.7 "6407_7-4"  69.9600 "Sandstone" "Clay"    -999.25  75.0000 25.00000     0.0 "vf/f"     "m/c"     "Tide-dominated,_relatively_distal_delta_front_or_lower_shoreface"                                                                                                       "Tide-dominated,_relatively_distal_delta_front_or_lower_shoreface"                                              
3029.8 "6407_7-4"  69.8700 "Sandstone" "Clay"    -999.25  75.0000 25.00000     0.0 "vf/f"     "m/c"     "Tide-dominated,_relatively_distal_delta_front_or_lower_shoreface"                                                                                                       "Tide-dominated,_relatively_distal_delta_front_or_lower_shoreface"                                              
3029.9 "6407_7-4"  69.7700 "Sandstone" "Clay"    -999.25  75.0000 25.00000     0.0 "vf/f"     "m/c"     "Tide-dominated,_relatively_distal_delta_front_or_lower_shoreface"                                                                                                       "Tide-dominated,_relatively_distal_delta_front_or_lower_shoreface"                                              
3030.0 "6407_7-4"  69.6400 "Sandstone" "Clay"    -999.25  75.0000 25.00000     0.0 "vf/f"     "m/c"     "Tide-dominated,_relatively_distal_delta_front_or_lower_shoreface"                                                                                                       "Tide-dominated,_relatively_distal_delta_front_or_lower_shoreface"                                              
3030.1 "6407_7-4"  69.5100 "Sandstone" "Clay"    -999.25  75.0000 25.00000     0.0 "vf/f"     "m/c"     "Tide-dominated,_relatively_distal_delta_front_or_lower_shoreface"                                                                                                       "Tide-dominated,_relatively_distal_delta_front_or_lower_shoreface"                                              
3030.2 "6407_7-4"  70.6500 "Sandstone" "Clay"    -999.25  75.0000 25.00000     0.0 "vf/f"     "m/c"     "Tide-dominated,_relatively_distal_delta_front_or_lower_shoreface"                                                                                                       "Tide-dominated,_relatively_distal_delta_front_or_lower_shoreface"                                              
