~Version
VERS  .                                 3.0 : CWLS LAS ASCII Standard - Version 3.0
WRAP  . NO                                  : One line per depth step
DLM   . SPACE                               : Column data section delimiter
SOURCE. Converted to LAS by Log Studio 4.76 : GeoProvider

~Well
STRT.         2877.0 : Start depth
STOP.         3139.9 : Stop depth
STEP.              1 : Step
NULL.        -999.25 : No-value
COMP.                : Company
WELL. 6407/7-4       : Well
FLD .                : Field
LOC .                : Location
LATI.                : Latitude
LONG.                : Longitude
GDAT.                : Geodetic datum
CNTY.                : County
STAT.                : State
CTRY.                : Country
SRVC. GeoProvider AS : Service company
DATE.                : Date
API .                : API number
RUN .                : Run number

~Parameters
WellboreName.  : Wellbore name
RigName     .  : Rig name
StartDate   .  : Start date

~Curves
DEPTH.m            .  : null {F}Depth mMD
Hole_ID.-          .  : null {S}Hole ID
GR.API             .  : null {F}Gamma Ray
Lithology1.-       .  : null {S}Lithology 1
Lithology2.-       .  : null {S}Lithology 2
Lithology3.-       .  : null {S}Lithology 3
Lithology1.%       .  : null {F}Lithology 1 percentage
Lithology2.%       .  : null {F}Lithology 2 percentage
Lithology3.%       .  : null {F}Lithology 3 percentage
Grain_size_Top.-   .  : null {S}Grain size at the top 
Grain_size_Base.-  .  : null {S}Grain size at the bottom
Sub_Environment.-  .  : null {S}Sub Environment
Gross_Environment.-.  : null {S}Gross Environment

~Ascii
# ...
2990.4 "6407_7-4"  78.2200 "Sandstone" "Clay"    -999.25  75.0000 25.00000     0.0 "vf"       "vf"      "From_bottom_to_top;_variation_between_sand-starved_and_sand-rich_estaurine_subenvironments_(see_below).___________________________Abundant_indicators_of_tidal_currents." "Tide-dominated_bay_or_estuary,_influenced_by_pronounced_short_-_and_longer_term_variations_in_sediment_supply" 
2990.5 "6407_7-4"  77.7700 "Sandstone" "Clay"    -999.25  75.0000 25.00000     0.0 "vf"       "vf"      "From_bottom_to_top;_variation_between_sand-starved_and_sand-rich_estaurine_subenvironments_(see_below).___________________________Abundant_indicators_of_tidal_currents." "Tide-dominated_bay_or_estuary,_influenced_by_pronounced_short_-_and_longer_term_variations_in_sediment_supply" 
2990.6 "6407_7-4"  77.3300 "Sandstone" "Clay"    -999.25  75.0000 25.00000     0.0 "vf"       "vf"      "From_bottom_to_top;_variation_between_sand-starved_and_sand-rich_estaurine_subenvironments_(see_below).___________________________Abundant_indicators_of_tidal_currents." "Tide-dominated_bay_or_estuary,_influenced_by_pronounced_short_-_and_longer_term_variations_in_sediment_supply" 
2990.7 "6407_7-4"  76.8900 "Sandstone" "Clay"    -999.25  75.0000 25.00000     0.0 "vf"       "vf"      "From_bottom_to_top;_variation_between_sand-starved_and_sand-rich_estaurine_subenvironments_(see_below).___________________________Abundant_indicators_of_tidal_currents." "Tide-dominated_bay_or_estuary,_influenced_by_pronounced_short_-_and_longer_term_variations_in_sediment_supply" 
2990.8 "6407_7-4"  76.4500 "Sandstone" "Clay"    -999.25  75.0000 25.00000     0.0 "vf"       "vf"      "From_bottom_to_top;_variation_between_sand-starved_and_sand-rich_estaurine_subenvironments_(see_below).___________________________Abundant_indicators_of_tidal_currents." "Tide-dominated_bay_or_estuary,_influenced_by_pronounced_short_-_and_longer_term_variations_in_sediment_supply" 
2990.9 "6407_7-4"  76.0100 "Sandstone" "Clay"    -999.25  75.0000 25.00000     0.0 "vf"       "vf"      "From_bottom_to_top;_variation_between_sand-starved_and_sand-rich_estaurine_subenvironments_(see_below).___________________________Abundant_indicators_of_tidal_currents." "Tide-dominated_bay_or_estuary,_influenced_by_pronounced_short_-_and_longer_term_variations_in_sediment_supply" 
2991.0 "6407_7-4"  76.8800 "Sandstone" "Clay"    -999.25  75.0000 25.00000     0.0 "vf"       "vf"      "From_bottom_to_top;_variation_between_sand-starved_and_sand-rich_estaurine_subenvironments_(see_below).___________________________Abundant_indicators_of_tidal_currents." "Tide-dominated_bay_or_estuary,_influenced_by_pronounced_short_-_and_longer_term_variations_in_sediment_supply" 
2991.1 "6407_7-4"  78.0900 "Sandstone" "Clay"    -999.25  75.0000 25.00000     0.0 "vf"       "vf"      "From_bottom_to_top;_variation_between_sand-starved_and_sand-rich_estaurine_subenvironments_(see_below).___________________________Abundant_indicators_of_tidal_currents." "Tide-dominated_bay_or_estuary,_influenced_by_pronounced_short_-_and_longer_term_variations_in_sediment_supply" 
2991.2 "6407_7-4"  79.3000 "Sandstone" "Clay"    -999.25  75.0000 25.00000     0.0 "vf"       "vf"      "From_bottom_to_top;_variation_between_sand-starved_and_sand-rich_estaurine_subenvironments_(see_below).___________________________Abundant_indicators_of_tidal_currents." "Tide-dominated_bay_or_estuary,_influenced_by_pronounced_short_-_and_longer_term_variations_in_sediment_supply" 
2991.3 "6407_7-4"  80.5200 "Sandstone" "Clay"    -999.25  75.0000 25.00000     0.0 "vf"       "vf"      "From_bottom_to_top;_variation_between_sand-starved_and_sand-rich_estaurine_subenvironments_(see_below).___________________________Abundant_indicators_of_tidal_currents." "Tide-dominated_bay_or_estuary,_influenced_by_pronounced_short_-_and_longer_term_variations_in_sediment_supply" 
2991.4 "6407_7-4"  81.3700 "Sandstone" "Clay"    -999.25  75.0000 25.00000     0.0 "vf"       "vf"      "From_bottom_to_top;_variation_between_sand-starved_and_sand-rich_estaurine_subenvironments_(see_below).___________________________Abundant_indicators_of_tidal_currents." "Tide-dominated_bay_or_estuary,_influenced_by_pronounced_short_-_and_longer_term_variations_in_sediment_supply" 
2991.5 "6407_7-4"  81.3700 "Sandstone" "Clay"    -999.25  75.0000 25.00000     0.0 "vf"       "vf"      "From_bottom_to_top;_variation_between_sand-starved_and_sand-rich_estaurine_subenvironments_(see_below).___________________________Abundant_indicators_of_tidal_currents." "Tide-dominated_bay_or_estuary,_influenced_by_pronounced_short_-_and_longer_term_variations_in_sediment_supply" 
2991.6 "6407_7-4"  80.8600 "Sandstone" "Clay"    -999.25  75.0000 25.00000     0.0 "vf"       "vf"      "From_bottom_to_top;_variation_between_sand-starved_and_sand-rich_estaurine_subenvironments_(see_below).___________________________Abundant_indicators_of_tidal_currents." "Tide-dominated_bay_or_estuary,_influenced_by_pronounced_short_-_and_longer_term_variations_in_sediment_supply" 
2991.7 "6407_7-4"  80.0700 "Sandstone" "Clay"    -999.25  75.0000 25.00000     0.0 "vf"       "vf"      "From_bottom_to_top;_variation_between_sand-starved_and_sand-rich_estaurine_subenvironments_(see_below).___________________________Abundant_indicators_of_tidal_currents." "Tide-dominated_bay_or_estuary,_influenced_by_pronounced_short_-_and_longer_term_variations_in_sediment_supply" 
2991.8 "6407_7-4"  79.2900 "Sandstone" "Clay"    -999.25  75.0000 25.00000     0.0 "vf"       "vf"      "From_bottom_to_top;_variation_between_sand-starved_and_sand-rich_estaurine_subenvironments_(see_below).___________________________Abundant_indicators_of_tidal_currents." "Tide-dominated_bay_or_estuary,_influenced_by_pronounced_short_-_and_longer_term_variations_in_sediment_supply" 
2991.9 "6407_7-4"  78.5000 "Sandstone" "Clay"    -999.25  75.0000 25.00000     0.0 "vf"       "vf"      "From_bottom_to_top;_variation_between_sand-starved_and_sand-rich_estaurine_subenvironments_(see_below).___________________________Abundant_indicators_of_tidal_currents." "Tide-dominated_bay_or_estuary,_influenced_by_pronounced_short_-_and_longer_term_variations_in_sediment_supply" 
2992.0 "6407_7-4"  79.8100 "Sandstone" "Clay"    -999.25  75.0000 25.00000     0.0 "vf"       "vf"      "From_bottom_to_top;_variation_between_sand-starved_and_sand-rich_estaurine_subenvironments_(see_below).___________________________Abundant_indicators_of_tidal_currents." "Tide-dominated_bay_or_estuary,_influenced_by_pronounced_short_-_and_longer_term_variations_in_sediment_supply" 
2992.1 "6407_7-4"  81.1700 "Sandstone" "Clay"    -999.25  75.0000 25.00000     0.0 "vf"       "vf"      "From_bottom_to_top;_variation_between_sand-starved_and_sand-rich_estaurine_subenvironments_(see_below).___________________________Abundant_indicators_of_tidal_currents." "Tide-dominated_bay_or_estuary,_influenced_by_pronounced_short_-_and_longer_term_variations_in_sediment_supply" 
2992.2 "6407_7-4"  82.5300 "Sandstone" "Clay"    -999.25  75.0000 25.00000     0.0 "vf"       "vf"      "From_bottom_to_top;_variation_between_sand-starved_and_sand-rich_estaurine_subenvironments_(see_below).___________________________Abundant_indicators_of_tidal_currents." "Tide-dominated_bay_or_estuary,_influenced_by_pronounced_short_-_and_longer_term_variations_in_sediment_supply" 
2992.3 "6407_7-4"  83.8900 "Sandstone" "Clay"    -999.25  75.0000 25.00000     0.0 "vf"       "vf"      "From_bottom_to_top;_variation_between_sand-starved_and_sand-rich_estaurine_subenvironments_(see_below).___________________________Abundant_indicators_of_tidal_currents." "Tide-dominated_bay_or_estuary,_influenced_by_pronounced_short_-_and_longer_term_variations_in_sediment_supply" 
2992.4 "6407_7-4"  85.2500 "Sandstone" "Clay"    -999.25  75.0000 25.00000     0.0 "vf"       "vf"      "From_bottom_to_top;_variation_between_sand-starved_and_sand-rich_estaurine_subenvironments_(see_below).___________________________Abundant_indicators_of_tidal_currents." "Tide-dominated_bay_or_estuary,_influenced_by_pronounced_short_-_and_longer_term_variations_in_sediment_supply" 
