~Version
VERS  .                                 3.0 : CWLS LAS ASCII Standard - Version 3.0
WRAP  . NO                                  : One line per depth step
DLM   . SPACE                               : Column data section delimiter
SOURCE. Converted to LAS by Log Studio 4.76 : GeoProvider

~Well
STRT.         2877.0 : Start depth
STOP.         3139.9 : Stop depth
STEP.              1 : Step
NULL.        -999.25 : No-value
COMP.                : Company
WELL. 6407/7-4       : Well
FLD .                : Field
LOC .                : Location
LATI.                : Latitude
LONG.                : Longitude
GDAT.                : Geodetic datum
CNTY.                : County
STAT.                : State
CTRY.                : Country
SRVC. GeoProvider AS : Service company
DATE.                : Date
API .                : API number
RUN .                : Run number

~Parameters
WellboreName.  : Wellbore name
RigName     .  : Rig name
StartDate   .  : Start date

~Curves
DEPTH.m            .  : null {F}Depth mMD
Hole_ID.-          .  : null {S}Hole ID
GR.API             .  : null {F}Gamma Ray
Lithology1.-       .  : null {S}Lithology 1
Lithology2.-       .  : null {S}Lithology 2
Lithology3.-       .  : null {S}Lithology 3
Lithology1.%       .  : null {F}Lithology 1 percentage
Lithology2.%       .  : null {F}Lithology 2 percentage
Lithology3.%       .  : null {F}Lithology 3 percentage
Grain_size_Top.-   .  : null {S}Grain size at the top 
Grain_size_Base.-  .  : null {S}Grain size at the bottom
Sub_Environment.-  .  : null {S}Sub Environment
Gross_Environment.-.  : null {S}Gross Environment

~Ascii
# ...
3015.6 "6407_7-4"  79.0100 "Sandstone" "Clay"    -999.25  57.0000 43.00000     0.0 "f"        "f/m"     "Relatively_deep-water_part_of_estuary_(?_Central_part)._Notable_reversals_of_current_direction_Mud-drapes/beds_from_during_slack_water_periods"                         "Tide-dominated_bay_or_estuary,_influenced_by_pronounced_short_-_and_longer_term_variations_in_sediment_supply" 
3015.7 "6407_7-4"  79.3800 "Sandstone" "Clay"    -999.25  57.0000 43.00000     0.0 "f"        "f/m"     "Relatively_deep-water_part_of_estuary_(?_Central_part)._Notable_reversals_of_current_direction_Mud-drapes/beds_from_during_slack_water_periods"                         "Tide-dominated_bay_or_estuary,_influenced_by_pronounced_short_-_and_longer_term_variations_in_sediment_supply" 
3015.8 "6407_7-4"  79.1700 "Sandstone" "Clay"    -999.25  57.0000 43.00000     0.0 "f"        "f/m"     "Relatively_deep-water_part_of_estuary_(?_Central_part)._Notable_reversals_of_current_direction_Mud-drapes/beds_from_during_slack_water_periods"                         "Tide-dominated_bay_or_estuary,_influenced_by_pronounced_short_-_and_longer_term_variations_in_sediment_supply" 
3015.9 "6407_7-4"  78.9600 "Sandstone" "Clay"    -999.25  57.0000 43.00000     0.0 "f"        "f/m"     "Relatively_deep-water_part_of_estuary_(?_Central_part)._Notable_reversals_of_current_direction_Mud-drapes/beds_from_during_slack_water_periods"                         "Tide-dominated_bay_or_estuary,_influenced_by_pronounced_short_-_and_longer_term_variations_in_sediment_supply" 
3016.0 "6407_7-4"  78.7500 "Sandstone" "Clay"    -999.25  57.0000 43.00000     0.0 "f"        "f/m"     "Relatively_deep-water_part_of_estuary_(?_Central_part)._Notable_reversals_of_current_direction_Mud-drapes/beds_from_during_slack_water_periods"                         "Tide-dominated_bay_or_estuary,_influenced_by_pronounced_short_-_and_longer_term_variations_in_sediment_supply" 
3016.1 "6407_7-4"  78.5500 "Sandstone" "Clay"    -999.25  57.0000 43.00000     0.0 "f"        "f/m"     "Relatively_deep-water_part_of_estuary_(?_Central_part)._Notable_reversals_of_current_direction_Mud-drapes/beds_from_during_slack_water_periods"                         "Tide-dominated_bay_or_estuary,_influenced_by_pronounced_short_-_and_longer_term_variations_in_sediment_supply" 
3016.2 "6407_7-4"  78.3400 "Sandstone" "Clay"    -999.25  65.0000 35.00000     0.0 "vf"       "vf"      "Relatively_deep-water_part_of_estuary_(?_Central_part)._Notable_reversals_of_current_direction_Mud-drapes/beds_from_during_slack_water_periods"                         "Tide-dominated_bay_or_estuary,_influenced_by_pronounced_short_-_and_longer_term_variations_in_sediment_supply" 
3016.3 "6407_7-4"  78.2600 "Sandstone" "Clay"    -999.25  65.0000 35.00000     0.0 "c/vc"     "vf/f"    "Relatively_deep-water_part_of_estuary_(?_Central_part)._Notable_reversals_of_current_direction_Mud-drapes/beds_from_during_slack_water_periods"                         "Tide-dominated_bay_or_estuary,_influenced_by_pronounced_short_-_and_longer_term_variations_in_sediment_supply" 
3016.4 "6407_7-4"  78.8100 "Sandstone" "Clay"    -999.25  65.0000 35.00000     0.0 "c/vc"     "vf/f"    "Relatively_deep-water_part_of_estuary_(?_Central_part)._Notable_reversals_of_current_direction_Mud-drapes/beds_from_during_slack_water_periods"                         "Tide-dominated_bay_or_estuary,_influenced_by_pronounced_short_-_and_longer_term_variations_in_sediment_supply" 
3016.5 "6407_7-4"  79.3600 "Sandstone" "Clay"    -999.25  65.0000 35.00000     0.0 "c/vc"     "vf/f"    "Relatively_deep-water_part_of_estuary_(?_Central_part)._Notable_reversals_of_current_direction_Mud-drapes/beds_from_during_slack_water_periods"                         "Tide-dominated_bay_or_estuary,_influenced_by_pronounced_short_-_and_longer_term_variations_in_sediment_supply" 
3016.6 "6407_7-4"  79.9100 "Sandstone" "Clay"    -999.25  65.0000 35.00000     0.0 "c/vc"     "vf/f"    "Relatively_deep-water_part_of_estuary_(?_Central_part)._Notable_reversals_of_current_direction_Mud-drapes/beds_from_during_slack_water_periods"                         "Tide-dominated_bay_or_estuary,_influenced_by_pronounced_short_-_and_longer_term_variations_in_sediment_supply" 
3016.7 "6407_7-4"  80.4000 "Sandstone" "Clay"    -999.25  65.0000 35.00000     0.0 "c/vc"     "vf/f"    "Relatively_deep-water_part_of_estuary_(?_Central_part)._Notable_reversals_of_current_direction_Mud-drapes/beds_from_during_slack_water_periods"                         "Tide-dominated_bay_or_estuary,_influenced_by_pronounced_short_-_and_longer_term_variations_in_sediment_supply" 
3016.8 "6407_7-4"  80.3300 "Sandstone" "Clay"    -999.25  65.0000 35.00000     0.0 "c/vc"     "vf/f"    "Relatively_deep-water_part_of_estuary_(?_Central_part)._Notable_reversals_of_current_direction_Mud-drapes/beds_from_during_slack_water_periods"                         "Tide-dominated_bay_or_estuary,_influenced_by_pronounced_short_-_and_longer_term_variations_in_sediment_supply" 
3016.9 "6407_7-4"  80.2600 "Sandstone" "Clay"    -999.25  65.0000 35.00000     0.0 "c/vc"     "vf/f"    "Relatively_deep-water_part_of_estuary_(?_Central_part)._Notable_reversals_of_current_direction_Mud-drapes/beds_from_during_slack_water_periods"                         "Tide-dominated_bay_or_estuary,_influenced_by_pronounced_short_-_and_longer_term_variations_in_sediment_supply" 
3017.0 "6407_7-4"  80.1900 "Sandstone" "Clay"    -999.25  65.0000 35.00000     0.0 "c/vc"     "vf/f"    "Relatively_deep-water_part_of_estuary_(?_Central_part)._Notable_reversals_of_current_direction_Mud-drapes/beds_from_during_slack_water_periods"                         "Tide-dominated_bay_or_estuary,_influenced_by_pronounced_short_-_and_longer_term_variations_in_sediment_supply" 
3017.1 "6407_7-4"  80.1200 "Sandstone" "Clay"    -999.25  65.0000 35.00000     0.0 "c/vc"     "vf/f"    "Relatively_deep-water_part_of_estuary_(?_Central_part)._Notable_reversals_of_current_direction_Mud-drapes/beds_from_during_slack_water_periods"                         "Tide-dominated_bay_or_estuary,_influenced_by_pronounced_short_-_and_longer_term_variations_in_sediment_supply" 
3017.2 "6407_7-4"  79.1700 "Sandstone" "Clay"    -999.25  65.0000 35.00000     0.0 "c/vc"     "vf/f"    "Relatively_deep-water_part_of_estuary_(?_Central_part)._Notable_reversals_of_current_direction_Mud-drapes/beds_from_during_slack_water_periods"                         "Tide-dominated_bay_or_estuary,_influenced_by_pronounced_short_-_and_longer_term_variations_in_sediment_supply" 
3017.3 "6407_7-4"  77.6000 "Sandstone" "Clay"    -999.25  65.0000 35.00000     0.0 "c/vc"     "vf/f"    "Relatively_deep-water_part_of_estuary_(?_Central_part)._Notable_reversals_of_current_direction_Mud-drapes/beds_from_during_slack_water_periods"                         "Tide-dominated_bay_or_estuary,_influenced_by_pronounced_short_-_and_longer_term_variations_in_sediment_supply" 
3017.4 "6407_7-4"  76.1800 "Sandstone" "Clay"    -999.25  65.0000 35.00000     0.0 "c/vc"     "vf/f"    "Relatively_deep-water_part_of_estuary_(?_Central_part)._Notable_reversals_of_current_direction_Mud-drapes/beds_from_during_slack_water_periods"                         "Tide-dominated_bay_or_estuary,_influenced_by_pronounced_short_-_and_longer_term_variations_in_sediment_supply" 
3017.5 "6407_7-4"  75.7400 "Sandstone" "Clay"    -999.25  65.0000 35.00000     0.0 "c/vc"     "vf/f"    "Relatively_deep-water_part_of_estuary_(?_Central_part)._Notable_reversals_of_current_direction_Mud-drapes/beds_from_during_slack_water_periods"                         "Tide-dominated_bay_or_estuary,_influenced_by_pronounced_short_-_and_longer_term_variations_in_sediment_supply" 
3017.6 "6407_7-4"  75.3100 "Sandstone" "Clay"    -999.25  65.0000 35.00000     0.0 "c/vc"     "vf/f"    "Relatively_deep-water_part_of_estuary_(?_Central_part)._Notable_reversals_of_current_direction_Mud-drapes/beds_from_during_slack_water_periods"                         "Tide-dominated_bay_or_estuary,_influenced_by_pronounced_short_-_and_longer_term_variations_in_sediment_supply" 
