~Version
VERS  .                                 3.0 : CWLS LAS ASCII Standard - Version 3.0
WRAP  . NO                                  : One line per depth step
DLM   . SPACE                               : Column data section delimiter
SOURCE. Converted to LAS by Log Studio 4.76 : GeoProvider

~Well
STRT.         2877.0 : Start depth
STOP.         3139.9 : Stop depth
STEP.              1 : Step
NULL.        -999.25 : No-value
COMP.                : Company
WELL. 6407/7-4       : Well
FLD .                : Field
LOC .                : Location
LATI.                : Latitude
LONG.                : Longitude
GDAT.                : Geodetic datum
CNTY.                : County
STAT.                : State
CTRY.                : Country
SRVC. GeoProvider AS : Service company
DATE.                : Date
API .                : API number
RUN .                : Run number

~Parameters
WellboreName.  : Wellbore name
RigName     .  : Rig name
StartDate   .  : Start date

~Curves
DEPTH.m            .  : null {F}Depth mMD
Hole_ID.-          .  : null {S}Hole ID
GR.API             .  : null {F}Gamma Ray
Lithology1.-       .  : null {S}Lithology 1
Lithology2.-       .  : null {S}Lithology 2
Lithology3.-       .  : null {S}Lithology 3
Lithology1.%       .  : null {F}Lithology 1 percentage
Lithology2.%       .  : null {F}Lithology 2 percentage
Lithology3.%       .  : null {F}Lithology 3 percentage
Grain_size_Top.-   .  : null {S}Grain size at the top 
Grain_size_Base.-  .  : null {S}Grain size at the bottom
Sub_Environment.-  .  : null {S}Sub Environment
Gross_Environment.-.  : null {S}Gross Environment

~Ascii
# ...
3051.3 "6407_7-4"  75.1600 "Sandstone" "Clay"    -999.25  88.0000 12.00000     0.0 "silt"     "m/c"     "Fluvial-dominated;_proximal_mouthbar_deposits"                                                                                                                          "Prograding_sequences_of_proximal_to_medial_mouthbar_sediments,_deposited_in_a_fluvial-dominated_fan-delta_front"
3051.4 "6407_7-4"  75.2200 "Sandstone" "Clay"    -999.25  88.0000 12.00000     0.0 "silt"     "m/c"     "Fluvial-dominated;_proximal_mouthbar_deposits"                                                                                                                          "Prograding_sequences_of_proximal_to_medial_mouthbar_sediments,_deposited_in_a_fluvial-dominated_fan-delta_front"
3051.5 "6407_7-4"  75.2700 "Sandstone" "Clay"    -999.25  88.0000 12.00000     0.0 "silt"     "m/c"     "Fluvial-dominated;_proximal_mouthbar_deposits"                                                                                                                          "Prograding_sequences_of_proximal_to_medial_mouthbar_sediments,_deposited_in_a_fluvial-dominated_fan-delta_front"
3051.6 "6407_7-4"  73.9600 "Sandstone" "Clay"    -999.25  88.0000 12.00000     0.0 "silt"     "m/c"     "Fluvial-dominated;_proximal_mouthbar_deposits"                                                                                                                          "Prograding_sequences_of_proximal_to_medial_mouthbar_sediments,_deposited_in_a_fluvial-dominated_fan-delta_front"
3051.7 "6407_7-4"  72.6100 "Sandstone" "Clay"    -999.25  88.0000 12.00000     0.0 "silt"     "m/c"     "Fluvial-dominated;_proximal_mouthbar_deposits"                                                                                                                          "Prograding_sequences_of_proximal_to_medial_mouthbar_sediments,_deposited_in_a_fluvial-dominated_fan-delta_front"
3051.8 "6407_7-4"  71.1300 "Sandstone" "Clay"    -999.25  88.0000 12.00000     0.0 "silt"     "m/c"     "Fluvial-dominated;_proximal_mouthbar_deposits"                                                                                                                          "Prograding_sequences_of_proximal_to_medial_mouthbar_sediments,_deposited_in_a_fluvial-dominated_fan-delta_front"
3051.9 "6407_7-4"  68.6200 "Sandstone" "Clay"    -999.25  88.0000 12.00000     0.0 "silt"     "m/c"     "Fluvial-dominated;_proximal_mouthbar_deposits"                                                                                                                          "Prograding_sequences_of_proximal_to_medial_mouthbar_sediments,_deposited_in_a_fluvial-dominated_fan-delta_front"
3052.0 "6407_7-4"  66.1100 "Sandstone" "Clay"    -999.25  88.0000 12.00000     0.0 "silt"     "m/c"     "Fluvial-dominated;_proximal_mouthbar_deposits"                                                                                                                          "Prograding_sequences_of_proximal_to_medial_mouthbar_sediments,_deposited_in_a_fluvial-dominated_fan-delta_front"
3052.1 "6407_7-4"  63.6000 "Sandstone" "Clay"    -999.25  88.0000 12.00000     0.0 "silt"     "m/c"     "Fluvial-dominated;_proximal_mouthbar_deposits"                                                                                                                          "Prograding_sequences_of_proximal_to_medial_mouthbar_sediments,_deposited_in_a_fluvial-dominated_fan-delta_front"
3052.2 "6407_7-4"  61.1200 "Sandstone" "Clay"    -999.25  88.0000 12.00000     0.0 "silt"     "m/c"     "Fluvial-dominated;_proximal_mouthbar_deposits"                                                                                                                          "Prograding_sequences_of_proximal_to_medial_mouthbar_sediments,_deposited_in_a_fluvial-dominated_fan-delta_front"
3052.3 "6407_7-4"  59.9500 "Sandstone" "Clay"    -999.25  88.0000 12.00000     0.0 "silt"     "m/c"     "Fluvial-dominated;_proximal_mouthbar_deposits"                                                                                                                          "Prograding_sequences_of_proximal_to_medial_mouthbar_sediments,_deposited_in_a_fluvial-dominated_fan-delta_front"
3052.4 "6407_7-4"  58.7700 "Sandstone" "Clay"    -999.25  88.0000 12.00000     0.0 "silt"     "m/c"     "Fluvial-dominated;_proximal_mouthbar_deposits"                                                                                                                          "Prograding_sequences_of_proximal_to_medial_mouthbar_sediments,_deposited_in_a_fluvial-dominated_fan-delta_front"
3052.5 "6407_7-4"  57.5900 "Sandstone" "Clay"    -999.25  88.0000 12.00000     0.0 "silt"     "m/c"     "Fluvial-dominated;_proximal_mouthbar_deposits"                                                                                                                          "Prograding_sequences_of_proximal_to_medial_mouthbar_sediments,_deposited_in_a_fluvial-dominated_fan-delta_front"
3052.6 "6407_7-4"  56.4200 "Sandstone" "Clay"    -999.25  88.0000 12.00000     0.0 "silt"     "m/c"     "Fluvial-dominated;_proximal_mouthbar_deposits"                                                                                                                          "Prograding_sequences_of_proximal_to_medial_mouthbar_sediments,_deposited_in_a_fluvial-dominated_fan-delta_front"
3052.7 "6407_7-4"  55.5300 "Sandstone" "Clay"    -999.25  88.0000 12.00000     0.0 "silt"     "m/c"     "Fluvial-dominated;_proximal_mouthbar_deposits"                                                                                                                          "Prograding_sequences_of_proximal_to_medial_mouthbar_sediments,_deposited_in_a_fluvial-dominated_fan-delta_front"
3052.8 "6407_7-4"  56.7700 "Sandstone" "Clay"    -999.25  88.0000 12.00000     0.0 "silt"     "m/c"     "Fluvial-dominated;_proximal_mouthbar_deposits"                                                                                                                          "Prograding_sequences_of_proximal_to_medial_mouthbar_sediments,_deposited_in_a_fluvial-dominated_fan-delta_front"
3052.9 "6407_7-4"  58.0100 "Sandstone" "Clay"    -999.25  88.0000 12.00000     0.0 "silt"     "m/c"     "Fluvial-dominated;_proximal_mouthbar_deposits"                                                                                                                          "Prograding_sequences_of_proximal_to_medial_mouthbar_sediments,_deposited_in_a_fluvial-dominated_fan-delta_front"
3053.0 "6407_7-4"  59.2500 "Sandstone" "Clay"    -999.25  88.0000 12.00000     0.0 "silt"     "m/c"     "Fluvial-dominated;_proximal_mouthbar_deposits"                                                                                                                          "Prograding_sequences_of_proximal_to_medial_mouthbar_sediments,_deposited_in_a_fluvial-dominated_fan-delta_front"
3053.1 "6407_7-4"  60.4900 "Sandstone" "Clay"    -999.25  88.0000 12.00000     0.0 "silt"     "m/c"     "Fluvial-dominated;_proximal_mouthbar_deposits"                                                                                                                          "Prograding_sequences_of_proximal_to_medial_mouthbar_sediments,_deposited_in_a_fluvial-dominated_fan-delta_front"
3053.2 "6407_7-4"  61.5200 "Sandstone" "Clay"    -999.25  88.0000 12.00000     0.0 "silt"     "m/c"     "Fluvial-dominated;_proximal_mouthbar_deposits"                                                                                                                          "Prograding_sequences_of_proximal_to_medial_mouthbar_sediments,_deposited_in_a_fluvial-dominated_fan-delta_front"
3053.3 "6407_7-4"  61.7400 "Sandstone" "Clay"    -999.25  88.0000 12.00000     0.0 "silt"     "m/c"     "Fluvial-dominated;_proximal_mouthbar_deposits"                                                                                                                          "Prograding_sequences_of_proximal_to_medial_mouthbar_sediments,_deposited_in_a_fluvial-dominated_fan-delta_front"
