~Version
VERS  .                                 3.0 : CWLS LAS ASCII Standard - Version 3.0
WRAP  . NO                                  : One line per depth step
DLM   . SPACE                               : Column data section delimiter
SOURCE. Converted to LAS by Log Studio 4.76 : GeoProvider

~Well
STRT.         2877.0 : Start depth
STOP.         3139.9 : Stop depth
STEP.              1 : Step
NULL.        -999.25 : No-value
COMP.                : Company
WELL. 6407/7-4       : Well
FLD .                : Field
LOC .                : Location
LATI.                : Latitude
LONG.                : Longitude
GDAT.                : Geodetic datum
CNTY.                : County
STAT.                : State
CTRY.                : Country
SRVC. GeoProvider AS : Service company
DATE.                : Date
API .                : API number
RUN .                : Run number

~Parameters
WellboreName.  : Wellbore name
RigName     .  : Rig name
StartDate   .  : Start date

~Curves
DEPTH.m            .  : null {F}Depth mMD
Hole_ID.-          .  : null {S}Hole ID
GR.API             .  : null {F}Gamma Ray
Lithology1.-       .  : null {S}Lithology 1
Lithology2.-       .  : null {S}Lithology 2
Lithology3.-       .  : null {S}Lithology 3
Lithology1.%       .  : null {F}Lithology 1 percentage
Lithology2.%       .  : null {F}Lithology 2 percentage
Lithology3.%       .  : null {F}Lithology 3 percentage
Grain_size_Top.-   .  : null {S}Grain size at the top 
Grain_size_Base.-  .  : null {S}Grain size at the bottom
Sub_Environment.-  .  : null {S}Sub Environment
Gross_Environment.-.  : null {S}Gross Environment

~Ascii
# ...
2979.9 "6407_7-4"  76.9300 "Sandstone" "Clay"    -999.25  62.0000 38.00000     0.0 "f/m"      "vf"      "From_bottom_to_top;_variation_between_sand-starved_and_sand-rich_estaurine_subenvironments_(see_below).___________________________Abundant_indicators_of_tidal_currents." "Tide-dominated_bay_or_estuary,_influenced_by_pronounced_short_-_and_longer_term_variations_in_sediment_supply" 
2980.0 "6407_7-4"  77.3500 "Sandstone" "Clay"    -999.25  62.0000 38.00000     0.0 "f/m"      "vf"      "From_bottom_to_top;_variation_between_sand-starved_and_sand-rich_estaurine_subenvironments_(see_below).___________________________Abundant_indicators_of_tidal_currents." "Tide-dominated_bay_or_estuary,_influenced_by_pronounced_short_-_and_longer_term_variations_in_sediment_supply" 
2980.1 "6407_7-4"  77.9100 "Sandstone" "Clay"    -999.25  62.0000 38.00000     0.0 "f/m"      "vf"      "From_bottom_to_top;_variation_between_sand-starved_and_sand-rich_estaurine_subenvironments_(see_below).___________________________Abundant_indicators_of_tidal_currents." "Tide-dominated_bay_or_estuary,_influenced_by_pronounced_short_-_and_longer_term_variations_in_sediment_supply" 
2980.2 "6407_7-4"  78.4700 "Sandstone" "Clay"    -999.25  62.0000 38.00000     0.0 "f/m"      "vf"      "From_bottom_to_top;_variation_between_sand-starved_and_sand-rich_estaurine_subenvironments_(see_below).___________________________Abundant_indicators_of_tidal_currents." "Tide-dominated_bay_or_estuary,_influenced_by_pronounced_short_-_and_longer_term_variations_in_sediment_supply" 
2980.3 "6407_7-4"  78.2100 "Sandstone" "Clay"    -999.25  62.0000 38.00000     0.0 "f/m"      "vf"      "From_bottom_to_top;_variation_between_sand-starved_and_sand-rich_estaurine_subenvironments_(see_below).___________________________Abundant_indicators_of_tidal_currents." "Tide-dominated_bay_or_estuary,_influenced_by_pronounced_short_-_and_longer_term_variations_in_sediment_supply" 
2980.4 "6407_7-4"  77.9200 "Sandstone" "Clay"    -999.25  62.0000 38.00000     0.0 "f/m"      "vf"      "From_bottom_to_top;_variation_between_sand-starved_and_sand-rich_estaurine_subenvironments_(see_below).___________________________Abundant_indicators_of_tidal_currents." "Tide-dominated_bay_or_estuary,_influenced_by_pronounced_short_-_and_longer_term_variations_in_sediment_supply" 
2980.5 "6407_7-4"  77.6400 "Sandstone" "Clay"    -999.25  62.0000 38.00000     0.0 "f/m"      "vf"      "From_bottom_to_top;_variation_between_sand-starved_and_sand-rich_estaurine_subenvironments_(see_below).___________________________Abundant_indicators_of_tidal_currents." "Tide-dominated_bay_or_estuary,_influenced_by_pronounced_short_-_and_longer_term_variations_in_sediment_supply" 
2980.6 "6407_7-4"  77.3500 "Sandstone" "Clay"    -999.25  62.0000 38.00000     0.0 "f/m"      "vf"      "From_bottom_to_top;_variation_between_sand-starved_and_sand-rich_estaurine_subenvironments_(see_below).___________________________Abundant_indicators_of_tidal_currents." "Tide-dominated_bay_or_estuary,_influenced_by_pronounced_short_-_and_longer_term_variations_in_sediment_supply" 
2980.7 "6407_7-4"  77.3800 "Sandstone" "Clay"    -999.25  62.0000 38.00000     0.0 "f/m"      "vf"      "From_bottom_to_top;_variation_between_sand-starved_and_sand-rich_estaurine_subenvironments_(see_below).___________________________Abundant_indicators_of_tidal_currents." "Tide-dominated_bay_or_estuary,_influenced_by_pronounced_short_-_and_longer_term_variations_in_sediment_supply" 
2980.8 "6407_7-4"  77.7800 "Sandstone" "Clay"    -999.25  62.0000 38.00000     0.0 "f/m"      "vf"      "From_bottom_to_top;_variation_between_sand-starved_and_sand-rich_estaurine_subenvironments_(see_below).___________________________Abundant_indicators_of_tidal_currents." "Tide-dominated_bay_or_estuary,_influenced_by_pronounced_short_-_and_longer_term_variations_in_sediment_supply" 
2980.9 "6407_7-4"  78.1700 "Sandstone" "Clay"    -999.25  62.0000 38.00000     0.0 "f/m"      "vf"      "From_bottom_to_top;_variation_between_sand-starved_and_sand-rich_estaurine_subenvironments_(see_below).___________________________Abundant_indicators_of_tidal_currents." "Tide-dominated_bay_or_estuary,_influenced_by_pronounced_short_-_and_longer_term_variations_in_sediment_supply" 
2981.0 "6407_7-4"  78.2900 "Sandstone" "Clay"    -999.25  62.0000 38.00000     0.0 "f/m"      "vf"      "From_bottom_to_top;_variation_between_sand-starved_and_sand-rich_estaurine_subenvironments_(see_below).___________________________Abundant_indicators_of_tidal_currents." "Tide-dominated_bay_or_estuary,_influenced_by_pronounced_short_-_and_longer_term_variations_in_sediment_supply" 
2981.1 "6407_7-4"  78.4100 "Sandstone" "Clay"    -999.25  62.0000 38.00000     0.0 "f/m"      "vf"      "From_bottom_to_top;_variation_between_sand-starved_and_sand-rich_estaurine_subenvironments_(see_below).___________________________Abundant_indicators_of_tidal_currents." "Tide-dominated_bay_or_estuary,_influenced_by_pronounced_short_-_and_longer_term_variations_in_sediment_supply" 
2981.2 "6407_7-4"  78.5300 "Sandstone" "Clay"    -999.25  62.0000 38.00000     0.0 "f/m"      "vf"      "From_bottom_to_top;_variation_between_sand-starved_and_sand-rich_estaurine_subenvironments_(see_below).___________________________Abundant_indicators_of_tidal_currents." "Tide-dominated_bay_or_estuary,_influenced_by_pronounced_short_-_and_longer_term_variations_in_sediment_supply" 
2981.3 "6407_7-4"  78.6500 "Sandstone" "Clay"    -999.25  62.0000 38.00000     0.0 "f/m"      "vf"      "From_bottom_to_top;_variation_between_sand-starved_and_sand-rich_estaurine_subenvironments_(see_below).___________________________Abundant_indicators_of_tidal_currents." "Tide-dominated_bay_or_estuary,_influenced_by_pronounced_short_-_and_longer_term_variations_in_sediment_supply" 
2981.4 "6407_7-4"  78.7700 "Sandstone" "Clay"    -999.25  62.0000 38.00000     0.0 "f/m"      "vf"      "From_bottom_to_top;_variation_between_sand-starved_and_sand-rich_estaurine_subenvironments_(see_below).___________________________Abundant_indicators_of_tidal_currents." "Tide-dominated_bay_or_estuary,_influenced_by_pronounced_short_-_and_longer_term_variations_in_sediment_supply" 
2981.5 "6407_7-4"  74.8100 "Sandstone" "Clay"    -999.25  62.0000 38.00000     0.0 "f/m"      "vf"      "From_bottom_to_top;_variation_between_sand-starved_and_sand-rich_estaurine_subenvironments_(see_below).___________________________Abundant_indicators_of_tidal_currents." "Tide-dominated_bay_or_estuary,_influenced_by_pronounced_short_-_and_longer_term_variations_in_sediment_supply" 
2981.6 "6407_7-4"  71.7800 "Sandstone" "Clay"    -999.25  62.0000 38.00000     0.0 "f/m"      "vf"      "From_bottom_to_top;_variation_between_sand-starved_and_sand-rich_estaurine_subenvironments_(see_below).___________________________Abundant_indicators_of_tidal_currents." "Tide-dominated_bay_or_estuary,_influenced_by_pronounced_short_-_and_longer_term_variations_in_sediment_supply" 
2981.7 "6407_7-4"  71.8400 "Sandstone" "Clay"    -999.25  62.0000 38.00000     0.0 "f/m"      "vf"      "From_bottom_to_top;_variation_between_sand-starved_and_sand-rich_estaurine_subenvironments_(see_below).___________________________Abundant_indicators_of_tidal_currents." "Tide-dominated_bay_or_estuary,_influenced_by_pronounced_short_-_and_longer_term_variations_in_sediment_supply" 
2981.8 "6407_7-4"  71.9100 "Sandstone" "Clay"    -999.25  62.0000 38.00000     0.0 "f/m"      "vf"      "From_bottom_to_top;_variation_between_sand-starved_and_sand-rich_estaurine_subenvironments_(see_below).___________________________Abundant_indicators_of_tidal_currents." "Tide-dominated_bay_or_estuary,_influenced_by_pronounced_short_-_and_longer_term_variations_in_sediment_supply" 
2981.9 "6407_7-4"  71.9700 "Sandstone" "Clay"    -999.25  62.0000 38.00000     0.0 "f/m"      "vf"      "From_bottom_to_top;_variation_between_sand-starved_and_sand-rich_estaurine_subenvironments_(see_below).___________________________Abundant_indicators_of_tidal_currents." "Tide-dominated_bay_or_estuary,_influenced_by_pronounced_short_-_and_longer_term_variations_in_sediment_supply" 
