~Version
VERS  .                                 3.0 : CWLS LAS ASCII Standard - Version 3.0
WRAP  . NO                                  : One line per depth step
DLM   . SPACE                               : Column data section delimiter
SOURCE. Converted to LAS by Log Studio 4.76 : GeoProvider

~Well
STRT.         2877.0 : Start depth
STOP.         3139.9 : Stop depth
STEP.              1 : Step
NULL.        -999.25 : No-value
COMP.                : Company
WELL. 6407/7-4       : Well
FLD .                : Field
LOC .                : Location
LATI.                : Latitude
LONG.                : Longitude
GDAT.                : Geodetic datum
CNTY.                : County
STAT.                : State
CTRY.                : Country
SRVC. GeoProvider AS : Service company
DATE.                : Date
API .                : API number
RUN .                : Run number

~Parameters
WellboreName.  : Wellbore name
RigName     .  : Rig name
StartDate   .  : Start date

~Curves
DEPTH.m            .  : null {F}Depth mMD
Hole_ID.-          .  : null {S}Hole ID
GR.API             .  : null {F}Gamma Ray
Lithology1.-       .  : null {S}Lithology 1
Lithology2.-       .  : null {S}Lithology 2
Lithology3.-       .  : null {S}Lithology 3
Lithology1.%       .  : null {F}Lithology 1 percentage
Lithology2.%       .  : null {F}Lithology 2 percentage
Lithology3.%       .  : null {F}Lithology 3 percentage
Grain_size_Top.-   .  : null {S}Grain size at the top 
Grain_size_Base.-  .  : null {S}Grain size at the bottom
Sub_Environment.-  .  : null {S}Sub Environment
Gross_Environment.-.  : null {S}Gross Environment

~Ascii
# ...
3040.8 "6407_7-4"  60.9900 "Sandstone" "Clay"    -999.25  83.0000 17.00000     0.0 "c"        "vf/f"    "Fluv.-dominated_mouthbar,_subjected_to_rapid_fluctuation_in_sediment_supply"                                                                                            "Prograding_sequences_of_proximal_to_medial_mouthbar_sediments,_deposited_in_a_fluvial-dominated_fan-delta_front"
3040.9 "6407_7-4"  61.1400 "Sandstone" "Clay"    -999.25  83.0000 17.00000     0.0 "c"        "vf/f"    "Fluv.-dominated_mouthbar,_subjected_to_rapid_fluctuation_in_sediment_supply"                                                                                            "Prograding_sequences_of_proximal_to_medial_mouthbar_sediments,_deposited_in_a_fluvial-dominated_fan-delta_front"
3041.0 "6407_7-4"  59.7000 "Limestone" -999.25   -999.25 100.0000      0.0     0.0 "m/c"      "m/c"     "Fluv.-dominated_mouthbar,_subjected_to_rapid_fluctuation_in_sediment_supply"                                                                                            "Prograding_sequences_of_proximal_to_medial_mouthbar_sediments,_deposited_in_a_fluvial-dominated_fan-delta_front"
3041.1 "6407_7-4"  58.1300 "Sandstone" "Clay"    -999.25  82.0000 18.00000     0.0 "m/c"      "c/vc"    "Fluv.-dominated_mouthbar,_subjected_to_rapid_fluctuation_in_sediment_supply"                                                                                            "Prograding_sequences_of_proximal_to_medial_mouthbar_sediments,_deposited_in_a_fluvial-dominated_fan-delta_front"
3041.2 "6407_7-4"  58.4200 "Sandstone" "Clay"    -999.25  82.0000 18.00000     0.0 "m/c"      "c/vc"    "Fluv.-dominated_mouthbar,_subjected_to_rapid_fluctuation_in_sediment_supply"                                                                                            "Prograding_sequences_of_proximal_to_medial_mouthbar_sediments,_deposited_in_a_fluvial-dominated_fan-delta_front"
3041.3 "6407_7-4"  60.7700 "Sandstone" "Clay"    -999.25  82.0000 18.00000     0.0 "m/c"      "c/vc"    "Fluv.-dominated_mouthbar,_subjected_to_rapid_fluctuation_in_sediment_supply"                                                                                            "Prograding_sequences_of_proximal_to_medial_mouthbar_sediments,_deposited_in_a_fluvial-dominated_fan-delta_front"
3041.4 "6407_7-4"  63.0800 "Sandstone" "Clay"    -999.25  82.0000 18.00000     0.0 "m/c"      "c/vc"    "Fluv.-dominated_mouthbar,_subjected_to_rapid_fluctuation_in_sediment_supply"                                                                                            "Prograding_sequences_of_proximal_to_medial_mouthbar_sediments,_deposited_in_a_fluvial-dominated_fan-delta_front"
3041.5 "6407_7-4"  63.2400 "Sandstone" "Clay"    -999.25  82.0000 18.00000     0.0 "m/c"      "c/vc"    "Fluv.-dominated_mouthbar,_subjected_to_rapid_fluctuation_in_sediment_supply"                                                                                            "Prograding_sequences_of_proximal_to_medial_mouthbar_sediments,_deposited_in_a_fluvial-dominated_fan-delta_front"
3041.6 "6407_7-4"  63.4000 "Sandstone" "Clay"    -999.25  82.0000 18.00000     0.0 "m/c"      "c/vc"    "Fluv.-dominated_mouthbar,_subjected_to_rapid_fluctuation_in_sediment_supply"                                                                                            "Prograding_sequences_of_proximal_to_medial_mouthbar_sediments,_deposited_in_a_fluvial-dominated_fan-delta_front"
3041.7 "6407_7-4"  62.7500 "Sandstone" "Clay"    -999.25  82.0000 18.00000     0.0 "m/c"      "c/vc"    "Fluv.-dominated_mouthbar,_subjected_to_rapid_fluctuation_in_sediment_supply"                                                                                            "Prograding_sequences_of_proximal_to_medial_mouthbar_sediments,_deposited_in_a_fluvial-dominated_fan-delta_front"
3041.8 "6407_7-4"  62.0800 "Sandstone" "Clay"    -999.25  82.0000 18.00000     0.0 "m/c"      "c/vc"    "Fluv.-dominated_mouthbar,_subjected_to_rapid_fluctuation_in_sediment_supply"                                                                                            "Prograding_sequences_of_proximal_to_medial_mouthbar_sediments,_deposited_in_a_fluvial-dominated_fan-delta_front"
3041.9 "6407_7-4"  61.3700 "Sandstone" "Clay"    -999.25  82.0000 18.00000     0.0 "m/c"      "c/vc"    "Fluv.-dominated_mouthbar,_subjected_to_rapid_fluctuation_in_sediment_supply"                                                                                            "Prograding_sequences_of_proximal_to_medial_mouthbar_sediments,_deposited_in_a_fluvial-dominated_fan-delta_front"
3042.0 "6407_7-4"  60.3900 "Sandstone" "Clay"    -999.25  82.0000 18.00000     0.0 "m/c"      "c/vc"    "Fluv.-dominated_mouthbar,_subjected_to_rapid_fluctuation_in_sediment_supply"                                                                                            "Prograding_sequences_of_proximal_to_medial_mouthbar_sediments,_deposited_in_a_fluvial-dominated_fan-delta_front"
3042.1 "6407_7-4"  59.5000 "Sandstone" "Clay"    -999.25  82.0000 18.00000     0.0 "m/c"      "c/vc"    "Fluv.-dominated_mouthbar,_subjected_to_rapid_fluctuation_in_sediment_supply"                                                                                            "Prograding_sequences_of_proximal_to_medial_mouthbar_sediments,_deposited_in_a_fluvial-dominated_fan-delta_front"
3042.2 "6407_7-4"  58.7200 "Sandstone" "Clay"    -999.25  82.0000 18.00000     0.0 "m/c"      "c/vc"    "Fluv.-dominated_mouthbar,_subjected_to_rapid_fluctuation_in_sediment_supply"                                                                                            "Prograding_sequences_of_proximal_to_medial_mouthbar_sediments,_deposited_in_a_fluvial-dominated_fan-delta_front"
3042.3 "6407_7-4"  57.9300 "Sandstone" "Clay"    -999.25  82.0000 18.00000     0.0 "m/c"      "c/vc"    "Fluv.-dominated_mouthbar,_subjected_to_rapid_fluctuation_in_sediment_supply"                                                                                            "Prograding_sequences_of_proximal_to_medial_mouthbar_sediments,_deposited_in_a_fluvial-dominated_fan-delta_front"
3042.4 "6407_7-4"  57.1500 "Sandstone" "Clay"    -999.25  82.0000 18.00000     0.0 "m/c"      "c/vc"    "Fluv.-dominated_mouthbar,_subjected_to_rapid_fluctuation_in_sediment_supply"                                                                                            "Prograding_sequences_of_proximal_to_medial_mouthbar_sediments,_deposited_in_a_fluvial-dominated_fan-delta_front"
3042.5 "6407_7-4"  57.1000 "Sandstone" "Clay"    -999.25  82.0000 18.00000     0.0 "m/c"      "c/vc"    "Fluv.-dominated_mouthbar,_subjected_to_rapid_fluctuation_in_sediment_supply"                                                                                            "Prograding_sequences_of_proximal_to_medial_mouthbar_sediments,_deposited_in_a_fluvial-dominated_fan-delta_front"
3042.6 "6407_7-4"  58.2400 "Sandstone" "Clay"    -999.25  82.0000 18.00000     0.0 "m/c"      "c/vc"    "Fluv.-dominated_mouthbar,_subjected_to_rapid_fluctuation_in_sediment_supply"                                                                                            "Prograding_sequences_of_proximal_to_medial_mouthbar_sediments,_deposited_in_a_fluvial-dominated_fan-delta_front"
3042.7 "6407_7-4"  59.3800 "Sandstone" "Clay"    -999.25  82.0000 18.00000     0.0 "m/c"      "c/vc"    "Fluv.-dominated_mouthbar,_subjected_to_rapid_fluctuation_in_sediment_supply"                                                                                            "Prograding_sequences_of_proximal_to_medial_mouthbar_sediments,_deposited_in_a_fluvial-dominated_fan-delta_front"
3042.8 "6407_7-4"  60.5200 "Sandstone" "Clay"    -999.25  82.0000 18.00000     0.0 "m/c"      "c/vc"    "Fluv.-dominated_mouthbar,_subjected_to_rapid_fluctuation_in_sediment_supply"                                                                                            "Prograding_sequences_of_proximal_to_medial_mouthbar_sediments,_deposited_in_a_fluvial-dominated_fan-delta_front"
