~Version
VERS  .                                 3.0 : CWLS LAS ASCII Standard - Version 3.0
WRAP  . NO                                  : One line per depth step
DLM   . SPACE                               : Column data section delimiter
SOURCE. Converted to LAS by Log Studio 4.76 : GeoProvider

~Well
STRT.         2548.0 : Start depth
STOP.         2734.0 : Stop depth
STEP.              1 : Step
NULL.        -999.25 : No-value
COMP.                : Company
WELL. 6609/11-1      : Well
FLD .                : Field
LOC .                : Location
LATI.                : Latitude
LONG.                : Longitude
GDAT.                : Geodetic datum
CNTY.                : County
STAT.                : State
CTRY.                : Country
SRVC. GeoProvider AS : Service company
DATE.                : Date
API .                : API number
RUN .                : Run number

~Parameters
WellboreName.  : Wellbore name
RigName     .  : Rig name
StartDate   .  : Start date

~Curves
DEPTH.m            .  : null {F}Depth mMD
Hole_ID.-          .  : null {S}Hole ID
GR.API             .  : null {F}Gamma Ray
Lithology1.-       .  : null {S}Lithology 1
Lithology2.-       .  : null {S}Lithology 2
Lithology3.-       .  : null {S}Lithology 3
Lithology1.%       .  : null {F}Lithology 1 percentage
Lithology2.%       .  : null {F}Lithology 2 percentage
Lithology3.%       .  : null {F}Lithology 3 percentage
Grain_size_Top.-   .  : null {S}Grain size at the top 
Grain_size_Base.-  .  : null {S}Grain size at the bottom
Sub_Environment.-  .  : null {S}Sub Environment
Gross_Environment.-.  : null {S}Gross Environment

~Ascii
# ...
2732.0 "6609_11-1" 83.03000 "Sandstone" "Shale" -999.25  20.0000 80.00000     0.0 "silt"  "silt"  "PRODELTA"                                                 "PROGRADING_DELTA_FRONT"         
2732.1 "6609_11-1" 82.67000 "Sandstone" "Shale" -999.25  20.0000 80.00000     0.0 "silt"  "silt"  "PRODELTA"                                                 "PROGRADING_DELTA_FRONT"         
2732.2 "6609_11-1" 82.31000 "Sandstone" "Shale" -999.25  20.0000 80.00000     0.0 "silt"  "silt"  "PRODELTA"                                                 "PROGRADING_DELTA_FRONT"         
2732.3 "6609_11-1" 81.96000 "Sandstone" "Shale" -999.25  20.0000 80.00000     0.0 "silt"  "silt"  "PRODELTA"                                                 "PROGRADING_DELTA_FRONT"         
2732.4 "6609_11-1" 81.66000 "Sandstone" "Shale" -999.25  20.0000 80.00000     0.0 "silt"  "silt"  "PRODELTA"                                                 "PROGRADING_DELTA_FRONT"         
2732.5 "6609_11-1" 82.00000 "Sandstone" "Shale" -999.25  20.0000 80.00000     0.0 "silt"  "silt"  "PRODELTA"                                                 "PROGRADING_DELTA_FRONT"         
2732.6 "6609_11-1" 82.34000 "Sandstone" "Shale" -999.25  20.0000 80.00000     0.0 "silt"  "silt"  "PRODELTA"                                                 "PROGRADING_DELTA_FRONT"         
2732.7 "6609_11-1" 82.10000 "Sandstone" "Shale" -999.25  20.0000 80.00000     0.0 "silt"  "silt"  "PRODELTA"                                                 "PROGRADING_DELTA_FRONT"         
2732.8 "6609_11-1" 81.62000 "Sandstone" "Shale" -999.25  20.0000 80.00000     0.0 "silt"  "silt"  "PRODELTA"                                                 "PROGRADING_DELTA_FRONT"         
2732.9 "6609_11-1" 80.18000 "Sandstone" "Shale" -999.25  20.0000 80.00000     0.0 "silt"  "silt"  "PRODELTA"                                                 "PROGRADING_DELTA_FRONT"         
2733.0 "6609_11-1" 78.10000 "Sandstone" "Shale" -999.25  20.0000 80.00000     0.0 "silt"  "silt"  "PRODELTA"                                                 "PROGRADING_DELTA_FRONT"         
2733.1 "6609_11-1" 76.02000 "Sandstone" "Shale" -999.25  20.0000 80.00000     0.0 "silt"  "silt"  "PRODELTA"                                                 "PROGRADING_DELTA_FRONT"         
2733.2 "6609_11-1" 73.93000 "Sandstone" "Shale" -999.25  20.0000 80.00000     0.0 "silt"  "silt"  "PRODELTA"                                                 "PROGRADING_DELTA_FRONT"         
2733.3 "6609_11-1" 71.85000 "Sandstone" "Shale" -999.25  20.0000 80.00000     0.0 "silt"  "silt"  "PRODELTA"                                                 "PROGRADING_DELTA_FRONT"         
2733.4 "6609_11-1" 69.77000 "Sandstone" "Shale" -999.25  20.0000 80.00000     0.0 "silt"  "silt"  "PRODELTA"                                                 "PROGRADING_DELTA_FRONT"         
2733.5 "6609_11-1" 67.97000 "Sandstone" "Shale" -999.25  20.0000 80.00000     0.0 "silt"  "silt"  "PRODELTA"                                                 "PROGRADING_DELTA_FRONT"         
2733.6 "6609_11-1" 67.67000 "Sandstone" "Shale" -999.25  20.0000 80.00000     0.0 "silt"  "silt"  "PRODELTA"                                                 "PROGRADING_DELTA_FRONT"         
2733.7 "6609_11-1" 68.18000 "Sandstone" "Shale" -999.25  20.0000 80.00000     0.0 "silt"  "silt"  "PRODELTA"                                                 "PROGRADING_DELTA_FRONT"         
2733.8 "6609_11-1" 68.83000 "Sandstone" "Shale" -999.25  20.0000 80.00000     0.0 "silt"  "silt"  "PRODELTA"                                                 "PROGRADING_DELTA_FRONT"         
2733.9 "6609_11-1" 70.75000 "Sandstone" "Shale" -999.25  20.0000 80.00000     0.0 "silt"  "silt"  "PRODELTA"                                                 "PROGRADING_DELTA_FRONT"         
2734.0 "6609_11-1" 72.67000 "Sandstone" "Shale" -999.25  20.0000 80.00000     0.0 "silt"  "silt"  "PRODELTA"                                                 "PROGRADING_DELTA_FRONT"         
