~Version
VERS  .                                 3.0 : CWLS LAS ASCII Standard - Version 3.0
WRAP  . NO                                  : One line per depth step
DLM   . SPACE                               : Column data section delimiter
SOURCE. Converted to LAS by Log Studio 4.76 : GeoProvider

~Well
STRT.         2548.0 : Start depth
STOP.         2734.0 : Stop depth
STEP.              1 : Step
NULL.        -999.25 : No-value
COMP.                : Company
WELL. 6609/11-1      : Well
FLD .                : Field
LOC .                : Location
LATI.                : Latitude
LONG.                : Longitude
GDAT.                : Geodetic datum
CNTY.                : County
STAT.                : State
CTRY.                : Country
SRVC. GeoProvider AS : Service company
DATE.                : Date
API .                : API number
RUN .                : Run number

~Parameters
WellboreName.  : Wellbore name
RigName     .  : Rig name
StartDate   .  : Start date

~Curves
DEPTH.m            .  : null {F}Depth mMD
Hole_ID.-          .  : null {S}Hole ID
GR.API             .  : null {F}Gamma Ray
Lithology1.-       .  : null {S}Lithology 1
Lithology2.-       .  : null {S}Lithology 2
Lithology3.-       .  : null {S}Lithology 3
Lithology1.%       .  : null {F}Lithology 1 percentage
Lithology2.%       .  : null {F}Lithology 2 percentage
Lithology3.%       .  : null {F}Lithology 3 percentage
Grain_size_Top.-   .  : null {S}Grain size at the top 
Grain_size_Base.-  .  : null {S}Grain size at the bottom
Sub_Environment.-  .  : null {S}Sub Environment
Gross_Environment.-.  : null {S}Gross Environment

~Ascii
# ...
2556.4 "6609_11-1" 55.21000 "Sandstone" -999.25 -999.25 100.0000      0.0     0.0 "m"     "m"     "STACKED_UPPER_SHOREFACE_SEQUENCES/OR_PROXIMAL_MOUTHBAR"   "PROGRADING_SHORELINE/_DELTA_FRONT"
2556.5 "6609_11-1" 55.96000 "Sandstone" -999.25 -999.25 100.0000      0.0     0.0 "m"     "m"     "STACKED_UPPER_SHOREFACE_SEQUENCES/OR_PROXIMAL_MOUTHBAR"   "PROGRADING_SHORELINE/_DELTA_FRONT"
2556.6 "6609_11-1" 56.72000 "Sandstone" -999.25 -999.25 100.0000      0.0     0.0 "m"     "m"     "STACKED_UPPER_SHOREFACE_SEQUENCES/OR_PROXIMAL_MOUTHBAR"   "PROGRADING_SHORELINE/_DELTA_FRONT"
2556.7 "6609_11-1" 57.75000 "Sandstone" -999.25 -999.25 100.0000      0.0     0.0 "m"     "m"     "STACKED_UPPER_SHOREFACE_SEQUENCES/OR_PROXIMAL_MOUTHBAR"   "PROGRADING_SHORELINE/_DELTA_FRONT"
2556.8 "6609_11-1" 59.09000 "Sandstone" -999.25 -999.25 100.0000      0.0     0.0 "m"     "m"     "STACKED_UPPER_SHOREFACE_SEQUENCES/OR_PROXIMAL_MOUTHBAR"   "PROGRADING_SHORELINE/_DELTA_FRONT"
2556.9 "6609_11-1" 57.79000 "Sandstone" -999.25 -999.25 100.0000      0.0     0.0 "m"     "m"     "STACKED_UPPER_SHOREFACE_SEQUENCES/OR_PROXIMAL_MOUTHBAR"   "PROGRADING_SHORELINE/_DELTA_FRONT"
2557.0 "6609_11-1" 56.50000 "Sandstone" -999.25 -999.25 100.0000      0.0     0.0 "m"     "m"     "STACKED_UPPER_SHOREFACE_SEQUENCES/OR_PROXIMAL_MOUTHBAR"   "PROGRADING_SHORELINE/_DELTA_FRONT"
2557.1 "6609_11-1" 55.21000 "Sandstone" -999.25 -999.25 100.0000      0.0     0.0 "m"     "m"     "STACKED_UPPER_SHOREFACE_SEQUENCES/OR_PROXIMAL_MOUTHBAR"   "PROGRADING_SHORELINE/_DELTA_FRONT"
2557.2 "6609_11-1" 53.91000 "Sandstone" -999.25 -999.25 100.0000      0.0     0.0 "m"     "m"     "STACKED_UPPER_SHOREFACE_SEQUENCES/OR_PROXIMAL_MOUTHBAR"   "PROGRADING_SHORELINE/_DELTA_FRONT"
2557.3 "6609_11-1" 53.31000 "Sandstone" -999.25 -999.25 100.0000      0.0     0.0 "m"     "m"     "STACKED_UPPER_SHOREFACE_SEQUENCES/OR_PROXIMAL_MOUTHBAR"   "PROGRADING_SHORELINE/_DELTA_FRONT"
2557.4 "6609_11-1" 53.60000 "Sandstone" -999.25 -999.25 100.0000      0.0     0.0 "m"     "m"     "STACKED_UPPER_SHOREFACE_SEQUENCES/OR_PROXIMAL_MOUTHBAR"   "PROGRADING_SHORELINE/_DELTA_FRONT"
2557.5 "6609_11-1" 53.89000 "Sandstone" -999.25 -999.25 100.0000      0.0     0.0 "m"     "m"     "STACKED_UPPER_SHOREFACE_SEQUENCES/OR_PROXIMAL_MOUTHBAR"   "PROGRADING_SHORELINE/_DELTA_FRONT"
2557.6 "6609_11-1" 54.17000 "Sandstone" -999.25 -999.25 100.0000      0.0     0.0 "m"     "m"     "STACKED_UPPER_SHOREFACE_SEQUENCES/OR_PROXIMAL_MOUTHBAR"   "PROGRADING_SHORELINE/_DELTA_FRONT"
2557.7 "6609_11-1" 54.46000 "Sandstone" -999.25 -999.25 100.0000      0.0     0.0 "m"     "m"     "STACKED_UPPER_SHOREFACE_SEQUENCES/OR_PROXIMAL_MOUTHBAR"   "PROGRADING_SHORELINE/_DELTA_FRONT"
2557.8 "6609_11-1" 54.08000 "Sandstone" -999.25 -999.25 100.0000      0.0     0.0 "m"     "m"     "STACKED_UPPER_SHOREFACE_SEQUENCES/OR_PROXIMAL_MOUTHBAR"   "PROGRADING_SHORELINE/_DELTA_FRONT"
2557.9 "6609_11-1" 53.60000 "Sandstone" -999.25 -999.25 100.0000      0.0     0.0 "m"     "m"     "STACKED_UPPER_SHOREFACE_SEQUENCES/OR_PROXIMAL_MOUTHBAR"   "PROGRADING_SHORELINE/_DELTA_FRONT"
2558.0 "6609_11-1" 53.12000 "Sandstone" -999.25 -999.25 100.0000      0.0     0.0 "m"     "m"     "STACKED_UPPER_SHOREFACE_SEQUENCES/OR_PROXIMAL_MOUTHBAR"   "PROGRADING_SHORELINE/_DELTA_FRONT"
2558.1 "6609_11-1" 52.64000 "Sandstone" -999.25 -999.25 100.0000      0.0     0.0 "m"     "m"     "STACKED_UPPER_SHOREFACE_SEQUENCES/OR_PROXIMAL_MOUTHBAR"   "PROGRADING_SHORELINE/_DELTA_FRONT"
2558.2 "6609_11-1" 52.16000 "Sandstone" "Shale" -999.25  25.0000 75.00000     0.0 "m"     "m"     "STACKED_UPPER_SHOREFACE_SEQUENCES/OR_PROXIMAL_MOUTHBAR"   "PROGRADING_SHORELINE/_DELTA_FRONT"
2558.3 "6609_11-1" 51.73000 "Sandstone" "Shale" -999.25  25.0000 75.00000     0.0 "m"     "m"     "STACKED_UPPER_SHOREFACE_SEQUENCES/OR_PROXIMAL_MOUTHBAR"   "PROGRADING_SHORELINE/_DELTA_FRONT"
2558.4 "6609_11-1" 52.00000 "Sandstone" -999.25 -999.25 100.0000      0.0     0.0 "m/c"   "m"     "STACKED_UPPER_SHOREFACE_SEQUENCES/OR_PROXIMAL_MOUTHBAR"   "PROGRADING_SHORELINE/_DELTA_FRONT"
2558.5 "6609_11-1" 52.27000 "Sandstone" -999.25 -999.25 100.0000      0.0     0.0 "m/c"   "m"     "STACKED_UPPER_SHOREFACE_SEQUENCES/OR_PROXIMAL_MOUTHBAR"   "PROGRADING_SHORELINE/_DELTA_FRONT"
2558.6 "6609_11-1" 52.54000 "Sandstone" -999.25 -999.25 100.0000      0.0     0.0 "m/c"   "m"     "STACKED_UPPER_SHOREFACE_SEQUENCES/OR_PROXIMAL_MOUTHBAR"   "PROGRADING_SHORELINE/_DELTA_FRONT"
2558.7 "6609_11-1" 52.82000 "Sandstone" -999.25 -999.25 100.0000      0.0     0.0 "m/c"   "m"     "STACKED_UPPER_SHOREFACE_SEQUENCES/OR_PROXIMAL_MOUTHBAR"   "PROGRADING_SHORELINE/_DELTA_FRONT"
2558.8 "6609_11-1" 53.09000 "Sandstone" -999.25 -999.25 100.0000      0.0     0.0 "m/c"   "m"     "STACKED_UPPER_SHOREFACE_SEQUENCES/OR_PROXIMAL_MOUTHBAR"   "PROGRADING_SHORELINE/_DELTA_FRONT"
2558.9 "6609_11-1" 53.36000 "Sandstone" -999.25 -999.25 100.0000      0.0     0.0 "m/c"   "m"     "STACKED_UPPER_SHOREFACE_SEQUENCES/OR_PROXIMAL_MOUTHBAR"   "PROGRADING_SHORELINE/_DELTA_FRONT"
2559.0 "6609_11-1" 53.61000 "Sandstone" -999.25 -999.25 100.0000      0.0     0.0 "m/c"   "m"     "STACKED_UPPER_SHOREFACE_SEQUENCES/OR_PROXIMAL_MOUTHBAR"   "PROGRADING_SHORELINE/_DELTA_FRONT"
2559.1 "6609_11-1" 53.87000 "Sandstone" -999.25 -999.25 100.0000      0.0     0.0 "m/c"   "m"     "STACKED_UPPER_SHOREFACE_SEQUENCES/OR_PROXIMAL_MOUTHBAR"   "PROGRADING_SHORELINE/_DELTA_FRONT"
2559.2 "6609_11-1" 54.12000 "Sandstone" -999.25 -999.25 100.0000      0.0     0.0 "m/c"   "m"     "STACKED_UPPER_SHOREFACE_SEQUENCES/OR_PROXIMAL_MOUTHBAR"   "PROGRADING_SHORELINE/_DELTA_FRONT"
2559.3 "6609_11-1" 54.37000 "Sandstone" -999.25 -999.25 100.0000      0.0     0.0 "m/c"   "m"     "STACKED_UPPER_SHOREFACE_SEQUENCES/OR_PROXIMAL_MOUTHBAR"   "PROGRADING_SHORELINE/_DELTA_FRONT"
2559.4 "6609_11-1" 54.63000 "Sandstone" -999.25 -999.25 100.0000      0.0     0.0 "m/c"   "m"     "STACKED_UPPER_SHOREFACE_SEQUENCES/OR_PROXIMAL_MOUTHBAR"   "PROGRADING_SHORELINE/_DELTA_FRONT"
2559.5 "6609_11-1" 54.69000 "Sandstone" -999.25 -999.25 100.0000      0.0     0.0 "m/c"   "m"     "STACKED_UPPER_SHOREFACE_SEQUENCES/OR_PROXIMAL_MOUTHBAR"   "PROGRADING_SHORELINE/_DELTA_FRONT"
2559.6 "6609_11-1" 54.72000 "Sandstone" -999.25 -999.25 100.0000      0.0     0.0 "m"     "m"     "STACKED_UPPER_SHOREFACE_SEQUENCES/OR_PROXIMAL_MOUTHBAR"   "PROGRADING_SHORELINE/_DELTA_FRONT"
2559.7 "6609_11-1" 54.74000 "Sandstone" -999.25 -999.25 100.0000      0.0     0.0 "m"     "m"     "STACKED_UPPER_SHOREFACE_SEQUENCES/OR_PROXIMAL_MOUTHBAR"   "PROGRADING_SHORELINE/_DELTA_FRONT"
2559.8 "6609_11-1" 54.77000 "Sandstone" -999.25 -999.25 100.0000      0.0     0.0 "m"     "m"     "STACKED_UPPER_SHOREFACE_SEQUENCES/OR_PROXIMAL_MOUTHBAR"   "PROGRADING_SHORELINE/_DELTA_FRONT"
2559.9 "6609_11-1" 54.80000 "Sandstone" -999.25 -999.25 100.0000      0.0     0.0 "m"     "m"     "STACKED_UPPER_SHOREFACE_SEQUENCES/OR_PROXIMAL_MOUTHBAR"   "PROGRADING_SHORELINE/_DELTA_FRONT"
2560.0 "6609_11-1" 54.81000 "Sandstone" -999.25 -999.25 100.0000      0.0     0.0 "m"     "m"     "STACKED_UPPER_SHOREFACE_SEQUENCES/OR_PROXIMAL_MOUTHBAR"   "PROGRADING_SHORELINE/_DELTA_FRONT"
2560.1 "6609_11-1" 54.41000 "Sandstone" -999.25 -999.25 100.0000      0.0     0.0 "m"     "m"     "STACKED_UPPER_SHOREFACE_SEQUENCES/OR_PROXIMAL_MOUTHBAR"   "PROGRADING_SHORELINE/_DELTA_FRONT"
2560.2 "6609_11-1" 54.00000 "Sandstone" -999.25 -999.25 100.0000      0.0     0.0 "m"     "m"     "STACKED_UPPER_SHOREFACE_SEQUENCES/OR_PROXIMAL_MOUTHBAR"   "PROGRADING_SHORELINE/_DELTA_FRONT"
2560.3 "6609_11-1" 53.60000 "Sandstone" -999.25 -999.25 100.0000      0.0     0.0 "m"     "m"     "STACKED_UPPER_SHOREFACE_SEQUENCES/OR_PROXIMAL_MOUTHBAR"   "PROGRADING_SHORELINE/_DELTA_FRONT"
2560.4 "6609_11-1" 53.19000 "Sandstone" -999.25 -999.25 100.0000      0.0     0.0 "m"     "m"     "STACKED_UPPER_SHOREFACE_SEQUENCES/OR_PROXIMAL_MOUTHBAR"   "PROGRADING_SHORELINE/_DELTA_FRONT"
2560.5 "6609_11-1" 52.79000 "Sandstone" -999.25 -999.25 100.0000      0.0     0.0 "m"     "m"     "STACKED_UPPER_SHOREFACE_SEQUENCES/OR_PROXIMAL_MOUTHBAR"   "PROGRADING_SHORELINE/_DELTA_FRONT"
