~Version
VERS  .                                 3.0 : CWLS LAS ASCII Standard - Version 3.0
WRAP  . NO                                  : One line per depth step
DLM   . SPACE                               : Column data section delimiter
SOURCE. Converted to LAS by Log Studio 4.76 : GeoProvider

~Well
STRT.         2548.0 : Start depth
STOP.         2734.0 : Stop depth
STEP.              1 : Step
NULL.        -999.25 : No-value
COMP.                : Company
WELL. 6609/11-1      : Well
FLD .                : Field
LOC .                : Location
LATI.                : Latitude
LONG.                : Longitude
GDAT.                : Geodetic datum
CNTY.                : County
STAT.                : State
CTRY.                : Country
SRVC. GeoProvider AS : Service company
DATE.                : Date
API .                : API number
RUN .                : Run number

~Parameters
WellboreName.  : Wellbore name
RigName     .  : Rig name
StartDate   .  : Start date

~Curves
DEPTH.m            .  : null {F}Depth mMD
Hole_ID.-          .  : null {S}Hole ID
GR.API             .  : null {F}Gamma Ray
Lithology1.-       .  : null {S}Lithology 1
Lithology2.-       .  : null {S}Lithology 2
Lithology3.-       .  : null {S}Lithology 3
Lithology1.%       .  : null {F}Lithology 1 percentage
Lithology2.%       .  : null {F}Lithology 2 percentage
Lithology3.%       .  : null {F}Lithology 3 percentage
Grain_size_Top.-   .  : null {S}Grain size at the top 
Grain_size_Base.-  .  : null {S}Grain size at the bottom
Sub_Environment.-  .  : null {S}Sub Environment
Gross_Environment.-.  : null {S}Gross Environment

~Ascii
# ...
2727.8 "6609_11-1" 67.63000 "Sandstone" "Shale" -999.25  95.0000  5.00000     0.0 "f"     "f"     "PROXIMAL_MOUTHBAR_HIGH_SEDIMENT_DISCHARGE_RAPID_DEPOSITION" "PROGRADING_DELTA_FRONT"         
2727.9 "6609_11-1" 67.18000 "Sandstone" "Shale" -999.25  95.0000  5.00000     0.0 "f"     "f"     "PROXIMAL_MOUTHBAR_HIGH_SEDIMENT_DISCHARGE_RAPID_DEPOSITION" "PROGRADING_DELTA_FRONT"         
2728.0 "6609_11-1" 66.72000 "Sandstone" "Shale" -999.25  95.0000  5.00000     0.0 "f"     "f"     "PROXIMAL_MOUTHBAR_HIGH_SEDIMENT_DISCHARGE_RAPID_DEPOSITION" "PROGRADING_DELTA_FRONT"         
2728.1 "6609_11-1" 66.26000 "Sandstone" "Shale" -999.25  95.0000  5.00000     0.0 "vf/f"  "vf/f"  "PROXIMAL_MOUTHBAR_HIGH_SEDIMENT_DISCHARGE_RAPID_DEPOSITION" "PROGRADING_DELTA_FRONT"         
2728.2 "6609_11-1" 65.80000 "Sandstone" "Shale" -999.25  95.0000  5.00000     0.0 "vf/f"  "vf/f"  "PROXIMAL_MOUTHBAR_HIGH_SEDIMENT_DISCHARGE_RAPID_DEPOSITION" "PROGRADING_DELTA_FRONT"         
2728.3 "6609_11-1" 65.35000 "Sandstone" "Shale" -999.25  95.0000  5.00000     0.0 "vf/f"  "vf/f"  "PROXIMAL_MOUTHBAR_HIGH_SEDIMENT_DISCHARGE_RAPID_DEPOSITION" "PROGRADING_DELTA_FRONT"         
2728.4 "6609_11-1" 65.18000 "Sandstone" "Shale" -999.25  95.0000  5.00000     0.0 "vf/f"  "vf/f"  "PROXIMAL_MOUTHBAR_HIGH_SEDIMENT_DISCHARGE_RAPID_DEPOSITION" "PROGRADING_DELTA_FRONT"         
2728.5 "6609_11-1" 65.98000 "Sandstone" "Shale" -999.25  95.0000  5.00000     0.0 "vf/f"  "vf/f"  "PROXIMAL_MOUTHBAR_HIGH_SEDIMENT_DISCHARGE_RAPID_DEPOSITION" "PROGRADING_DELTA_FRONT"         
2728.6 "6609_11-1" 66.78000 "Sandstone" "Shale" -999.25  95.0000  5.00000     0.0 "vf/f"  "vf/f"  "PROXIMAL_MOUTHBAR_HIGH_SEDIMENT_DISCHARGE_RAPID_DEPOSITION" "PROGRADING_DELTA_FRONT"         
2728.7 "6609_11-1" 67.59000 "Sandstone" "Shale" -999.25  95.0000  5.00000     0.0 "vf/f"  "vf/f"  "PROXIMAL_MOUTHBAR_HIGH_SEDIMENT_DISCHARGE_RAPID_DEPOSITION" "PROGRADING_DELTA_FRONT"         
2728.8 "6609_11-1" 68.39000 "Sandstone" "Shale" -999.25  95.0000  5.00000     0.0 "f/m"   "f/m"   "PROXIMAL_MOUTHBAR_HIGH_SEDIMENT_DISCHARGE_RAPID_DEPOSITION" "PROGRADING_DELTA_FRONT"         
2728.9 "6609_11-1" 69.19000 "Sandstone" "Shale" -999.25  95.0000  5.00000     0.0 "f/m"   "f/m"   "PROXIMAL_MOUTHBAR_HIGH_SEDIMENT_DISCHARGE_RAPID_DEPOSITION" "PROGRADING_DELTA_FRONT"         
2729.0 "6609_11-1" 69.52000 "Sandstone" "Shale" -999.25  95.0000  5.00000     0.0 "f/m"   "f/m"   "PROXIMAL_MOUTHBAR_HIGH_SEDIMENT_DISCHARGE_RAPID_DEPOSITION" "PROGRADING_DELTA_FRONT"         
2729.1 "6609_11-1" 69.19000 "Sandstone" "Shale" -999.25  95.0000  5.00000     0.0 "f/m"   "f/m"   "PROXIMAL_MOUTHBAR_HIGH_SEDIMENT_DISCHARGE_RAPID_DEPOSITION" "PROGRADING_DELTA_FRONT"         
2729.2 "6609_11-1" 68.86000 "Sandstone" "Shale" -999.25  95.0000  5.00000     0.0 "f/m"   "f/m"   "PROXIMAL_MOUTHBAR_HIGH_SEDIMENT_DISCHARGE_RAPID_DEPOSITION" "PROGRADING_DELTA_FRONT"         
2729.3 "6609_11-1" 68.53000 "Sandstone" "Shale" -999.25  20.0000 80.00000     0.0 "silt"  "silt"  "PROXIMAL_MOUTHBAR_HIGH_SEDIMENT_DISCHARGE_RAPID_DEPOSITION" "PROGRADING_DELTA_FRONT"         
2729.4 "6609_11-1" 68.20000 "Sandstone" "Shale" -999.25  20.0000 80.00000     0.0 "silt"  "silt"  "PROXIMAL_MOUTHBAR_HIGH_SEDIMENT_DISCHARGE_RAPID_DEPOSITION" "PROGRADING_DELTA_FRONT"         
2729.5 "6609_11-1" 67.88000 "Sandstone" "Shale" -999.25  20.0000 80.00000     0.0 "silt"  "silt"  "PROXIMAL_MOUTHBAR_HIGH_SEDIMENT_DISCHARGE_RAPID_DEPOSITION" "PROGRADING_DELTA_FRONT"         
2729.6 "6609_11-1" 67.55000 "Sandstone" "Shale" -999.25  95.0000  5.00000     0.0 "f/m"   "vf"    "PROXIMAL_MOUTHBAR_HIGH_SEDIMENT_DISCHARGE_RAPID_DEPOSITION" "PROGRADING_DELTA_FRONT"         
2729.7 "6609_11-1" 67.22000 "Sandstone" "Shale" -999.25  95.0000  5.00000     0.0 "f/m"   "vf"    "PROXIMAL_MOUTHBAR_HIGH_SEDIMENT_DISCHARGE_RAPID_DEPOSITION" "PROGRADING_DELTA_FRONT"         
2729.8 "6609_11-1" 66.89000 "Sandstone" "Shale" -999.25  95.0000  5.00000     0.0 "f/m"   "vf"    "PROXIMAL_MOUTHBAR_HIGH_SEDIMENT_DISCHARGE_RAPID_DEPOSITION" "PROGRADING_DELTA_FRONT"         
2729.9 "6609_11-1" 66.69000 "Sandstone" "Shale" -999.25  95.0000  5.00000     0.0 "f/m"   "vf"    "PROXIMAL_MOUTHBAR_HIGH_SEDIMENT_DISCHARGE_RAPID_DEPOSITION" "PROGRADING_DELTA_FRONT"         
2730.0 "6609_11-1" 67.11000 "Sandstone" "Shale" -999.25  95.0000  5.00000     0.0 "f/m"   "vf"    "PROXIMAL_MOUTHBAR_HIGH_SEDIMENT_DISCHARGE_RAPID_DEPOSITION" "PROGRADING_DELTA_FRONT"         
2730.1 "6609_11-1" 67.53000 "Sandstone" "Shale" -999.25  95.0000  5.00000     0.0 "f/m"   "vf"    "PROXIMAL_MOUTHBAR_HIGH_SEDIMENT_DISCHARGE_RAPID_DEPOSITION" "PROGRADING_DELTA_FRONT"         
2730.2 "6609_11-1" 67.98000 "Sandstone" -999.25 -999.25 100.0000      0.0     0.0 "vf/f"  "vf/f"  "PROXIMAL_MOUTHBAR_HIGH_SEDIMENT_DISCHARGE_RAPID_DEPOSITION" "PROGRADING_DELTA_FRONT"         
2730.3 "6609_11-1" 68.52000 "Sandstone" -999.25 -999.25 100.0000      0.0     0.0 "vf/f"  "vf/f"  "PROXIMAL_MOUTHBAR_HIGH_SEDIMENT_DISCHARGE_RAPID_DEPOSITION" "PROGRADING_DELTA_FRONT"         
2730.4 "6609_11-1" 69.06000 "Sandstone" -999.25 -999.25 100.0000      0.0     0.0 "vf/f"  "vf/f"  "PROXIMAL_MOUTHBAR_HIGH_SEDIMENT_DISCHARGE_RAPID_DEPOSITION" "PROGRADING_DELTA_FRONT"         
2730.5 "6609_11-1" 69.59000 "Sandstone" -999.25 -999.25 100.0000      0.0     0.0 "vf/f"  "vf/f"  "PROXIMAL_MOUTHBAR_HIGH_SEDIMENT_DISCHARGE_RAPID_DEPOSITION" "PROGRADING_DELTA_FRONT"         
2730.6 "6609_11-1" 70.13000 "Sandstone" -999.25 -999.25 100.0000      0.0     0.0 "vf/f"  "vf/f"  "PROXIMAL_MOUTHBAR_HIGH_SEDIMENT_DISCHARGE_RAPID_DEPOSITION" "PROGRADING_DELTA_FRONT"         
2730.7 "6609_11-1" 70.67000 "Sandstone" -999.25 -999.25 100.0000      0.0     0.0 "vf/f"  "vf/f"  "PROXIMAL_MOUTHBAR_HIGH_SEDIMENT_DISCHARGE_RAPID_DEPOSITION" "PROGRADING_DELTA_FRONT"         
2730.8 "6609_11-1" 71.71000 "Sandstone" -999.25 -999.25 100.0000      0.0     0.0 "vf/f"  "vf/f"  "PROXIMAL_MOUTHBAR_HIGH_SEDIMENT_DISCHARGE_RAPID_DEPOSITION" "PROGRADING_DELTA_FRONT"         
2730.9 "6609_11-1" 72.76000 "Sandstone" -999.25 -999.25 100.0000      0.0     0.0 "vf/f"  "vf/f"  "PROXIMAL_MOUTHBAR_HIGH_SEDIMENT_DISCHARGE_RAPID_DEPOSITION" "PROGRADING_DELTA_FRONT"         
2731.0 "6609_11-1" 73.63000 "Sandstone" -999.25 -999.25 100.0000      0.0     0.0 "vf/f"  "vf/f"  "PROXIMAL_MOUTHBAR_HIGH_SEDIMENT_DISCHARGE_RAPID_DEPOSITION" "PROGRADING_DELTA_FRONT"         
2731.1 "6609_11-1" 72.61000 "Sandstone" "Shale" -999.25  20.0000 80.00000     0.0 "silt"  "silt"  "PRODELTA"                                                 "PROGRADING_DELTA_FRONT"         
2731.2 "6609_11-1" 71.58000 "Sandstone" "Shale" -999.25  20.0000 80.00000     0.0 "silt"  "silt"  "PRODELTA"                                                 "PROGRADING_DELTA_FRONT"         
2731.3 "6609_11-1" 70.56000 "Sandstone" "Shale" -999.25  20.0000 80.00000     0.0 "silt"  "silt"  "PRODELTA"                                                 "PROGRADING_DELTA_FRONT"         
2731.4 "6609_11-1" 69.53000 "Sandstone" "Shale" -999.25  20.0000 80.00000     0.0 "silt"  "silt"  "PRODELTA"                                                 "PROGRADING_DELTA_FRONT"         
2731.5 "6609_11-1" 69.19000 "Sandstone" "Shale" -999.25  20.0000 80.00000     0.0 "silt"  "silt"  "PRODELTA"                                                 "PROGRADING_DELTA_FRONT"         
2731.6 "6609_11-1" 70.21000 "Sandstone" "Shale" -999.25  20.0000 80.00000     0.0 "silt"  "silt"  "PRODELTA"                                                 "PROGRADING_DELTA_FRONT"         
2731.7 "6609_11-1" 71.24000 "Sandstone" "Shale" -999.25  20.0000 80.00000     0.0 "silt"  "silt"  "PRODELTA"                                                 "PROGRADING_DELTA_FRONT"         
2731.8 "6609_11-1" 72.94000 "Sandstone" "Shale" -999.25  20.0000 80.00000     0.0 "silt"  "silt"  "PRODELTA"                                                 "PROGRADING_DELTA_FRONT"         
2731.9 "6609_11-1" 78.13000 "Sandstone" "Shale" -999.25  20.0000 80.00000     0.0 "silt"  "silt"  "PRODELTA"                                                 "PROGRADING_DELTA_FRONT"         
