~Version
VERS  .                                 3.0 : CWLS LAS ASCII Standard - Version 3.0
WRAP  . NO                                  : One line per depth step
DLM   . SPACE                               : Column data section delimiter
SOURCE. Converted to LAS by Log Studio 4.76 : GeoProvider

~Well
STRT.         2548.0 : Start depth
STOP.         2734.0 : Stop depth
STEP.              1 : Step
NULL.        -999.25 : No-value
COMP.                : Company
WELL. 6609/11-1      : Well
FLD .                : Field
LOC .                : Location
LATI.                : Latitude
LONG.                : Longitude
GDAT.                : Geodetic datum
CNTY.                : County
STAT.                : State
CTRY.                : Country
SRVC. GeoProvider AS : Service company
DATE.                : Date
API .                : API number
RUN .                : Run number

~Parameters
WellboreName.  : Wellbore name
RigName     .  : Rig name
StartDate   .  : Start date

~Curves
DEPTH.m            .  : null {F}Depth mMD
Hole_ID.-          .  : null {S}Hole ID
GR.API             .  : null {F}Gamma Ray
Lithology1.-       .  : null {S}Lithology 1
Lithology2.-       .  : null {S}Lithology 2
Lithology3.-       .  : null {S}Lithology 3
Lithology1.%       .  : null {F}Lithology 1 percentage
Lithology2.%       .  : null {F}Lithology 2 percentage
Lithology3.%       .  : null {F}Lithology 3 percentage
Grain_size_Top.-   .  : null {S}Grain size at the top 
Grain_size_Base.-  .  : null {S}Grain size at the bottom
Sub_Environment.-  .  : null {S}Sub Environment
Gross_Environment.-.  : null {S}Gross Environment

~Ascii
# ...
2560.6 "6609_11-1" 52.38000 "Sandstone" -999.25 -999.25 100.0000      0.0     0.0 "m"     "m"     "STACKED_UPPER_SHOREFACE_SEQUENCES/OR_PROXIMAL_MOUTHBAR"   "PROGRADING_SHORELINE/_DELTA_FRONT"
2560.7 "6609_11-1" 51.98000 "Sandstone" -999.25 -999.25 100.0000      0.0     0.0 "m"     "m"     "STACKED_UPPER_SHOREFACE_SEQUENCES/OR_PROXIMAL_MOUTHBAR"   "PROGRADING_SHORELINE/_DELTA_FRONT"
2560.8 "6609_11-1" 51.57000 "Sandstone" -999.25 -999.25 100.0000      0.0     0.0 "m"     "m"     "STACKED_UPPER_SHOREFACE_SEQUENCES/OR_PROXIMAL_MOUTHBAR"   "PROGRADING_SHORELINE/_DELTA_FRONT"
2560.9 "6609_11-1" 51.96000 "Sandstone" -999.25 -999.25 100.0000      0.0     0.0 "m"     "m"     "STACKED_UPPER_SHOREFACE_SEQUENCES/OR_PROXIMAL_MOUTHBAR"   "PROGRADING_SHORELINE/_DELTA_FRONT"
2561.0 "6609_11-1" 52.40000 "Sandstone" -999.25 -999.25 100.0000      0.0     0.0 "m"     "m"     "STACKED_UPPER_SHOREFACE_SEQUENCES/OR_PROXIMAL_MOUTHBAR"   "PROGRADING_SHORELINE/_DELTA_FRONT"
2561.1 "6609_11-1" 52.84000 "Sandstone" -999.25 -999.25 100.0000      0.0     0.0 "m"     "m"     "STACKED_UPPER_SHOREFACE_SEQUENCES/OR_PROXIMAL_MOUTHBAR"   "PROGRADING_SHORELINE/_DELTA_FRONT"
2561.2 "6609_11-1" 53.28000 "Sandstone" -999.25 -999.25 100.0000      0.0     0.0 "m"     "m"     "STACKED_UPPER_SHOREFACE_SEQUENCES/OR_PROXIMAL_MOUTHBAR"   "PROGRADING_SHORELINE/_DELTA_FRONT"
2561.3 "6609_11-1" 53.72000 "Sandstone" -999.25 -999.25 100.0000      0.0     0.0 "m"     "m"     "STACKED_UPPER_SHOREFACE_SEQUENCES/OR_PROXIMAL_MOUTHBAR"   "PROGRADING_SHORELINE/_DELTA_FRONT"
2561.4 "6609_11-1" 54.17000 "Sandstone" -999.25 -999.25 100.0000      0.0     0.0 "m"     "m"     "STACKED_UPPER_SHOREFACE_SEQUENCES/OR_PROXIMAL_MOUTHBAR"   "PROGRADING_SHORELINE/_DELTA_FRONT"
2561.5 "6609_11-1" 54.61000 "Sandstone" -999.25 -999.25 100.0000      0.0     0.0 "m"     "m"     "STACKED_UPPER_SHOREFACE_SEQUENCES/OR_PROXIMAL_MOUTHBAR"   "PROGRADING_SHORELINE/_DELTA_FRONT"
2561.6 "6609_11-1" 55.05000 "Sandstone" "Shale" -999.25  92.0000  8.00000     0.0 "m/c"   "m/c"   "STACKED_UPPER_SHOREFACE_SEQUENCES/OR_PROXIMAL_MOUTHBAR"   "PROGRADING_SHORELINE/_DELTA_FRONT"
2561.7 "6609_11-1" 55.48000 "Sandstone" "Shale" -999.25  92.0000  8.00000     0.0 "m/c"   "m/c"   "STACKED_UPPER_SHOREFACE_SEQUENCES/OR_PROXIMAL_MOUTHBAR"   "PROGRADING_SHORELINE/_DELTA_FRONT"
2561.8 "6609_11-1" 55.34000 "Sandstone" "Shale" -999.25  92.0000  8.00000     0.0 "m/c"   "m/c"   "STACKED_UPPER_SHOREFACE_SEQUENCES/OR_PROXIMAL_MOUTHBAR"   "PROGRADING_SHORELINE/_DELTA_FRONT"
2561.9 "6609_11-1" 55.21000 "Sandstone" "Shale" -999.25  92.0000  8.00000     0.0 "m/c"   "m/c"   "STACKED_UPPER_SHOREFACE_SEQUENCES/OR_PROXIMAL_MOUTHBAR"   "PROGRADING_SHORELINE/_DELTA_FRONT"
2562.0 "6609_11-1" 55.07000 "Sandstone" "Shale" -999.25  92.0000  8.00000     0.0 "m/c"   "m/c"   "STACKED_UPPER_SHOREFACE_SEQUENCES/OR_PROXIMAL_MOUTHBAR"   "PROGRADING_SHORELINE/_DELTA_FRONT"
2562.1 "6609_11-1" 54.93000 "Sandstone" "Shale" -999.25  92.0000  8.00000     0.0 "m/c"   "m/c"   "STACKED_UPPER_SHOREFACE_SEQUENCES/OR_PROXIMAL_MOUTHBAR"   "PROGRADING_SHORELINE/_DELTA_FRONT"
2562.2 "6609_11-1" 55.15000 "Sandstone" "Shale" -999.25  92.0000  8.00000     0.0 "m/c"   "m/c"   "STACKED_UPPER_SHOREFACE_SEQUENCES/OR_PROXIMAL_MOUTHBAR"   "PROGRADING_SHORELINE/_DELTA_FRONT"
2562.3 "6609_11-1" 56.48000 "Sandstone" "Shale" -999.25  92.0000  8.00000     0.0 "m/c"   "m/c"   "STACKED_UPPER_SHOREFACE_SEQUENCES/OR_PROXIMAL_MOUTHBAR"   "PROGRADING_SHORELINE/_DELTA_FRONT"
2562.4 "6609_11-1" 57.81000 "Sandstone" "Shale" -999.25  92.0000  8.00000     0.0 "m/c"   "m/c"   "STACKED_UPPER_SHOREFACE_SEQUENCES/OR_PROXIMAL_MOUTHBAR"   "PROGRADING_SHORELINE/_DELTA_FRONT"
2562.5 "6609_11-1" 59.14000 "Sandstone" "Shale" -999.25  92.0000  8.00000     0.0 "m/c"   "m/c"   "STACKED_UPPER_SHOREFACE_SEQUENCES/OR_PROXIMAL_MOUTHBAR"   "PROGRADING_SHORELINE/_DELTA_FRONT"
2562.6 "6609_11-1" 59.92000 "Sandstone" "Shale" -999.25  90.0000 10.00000     0.0 "m/c"   "m/c"   "STACKED_UPPER_SHOREFACE_SEQUENCES/OR_PROXIMAL_MOUTHBAR"   "PROGRADING_SHORELINE/_DELTA_FRONT"
2562.7 "6609_11-1" 59.38000 "Sandstone" "Shale" -999.25  90.0000 10.00000     0.0 "m/c"   "m/c"   "STACKED_UPPER_SHOREFACE_SEQUENCES/OR_PROXIMAL_MOUTHBAR"   "PROGRADING_SHORELINE/_DELTA_FRONT"
2562.8 "6609_11-1" 58.83000 "Sandstone" "Shale" -999.25  90.0000 10.00000     0.0 "m/c"   "m/c"   "STACKED_UPPER_SHOREFACE_SEQUENCES/OR_PROXIMAL_MOUTHBAR"   "PROGRADING_SHORELINE/_DELTA_FRONT"
2562.9 "6609_11-1" 58.29000 "Sandstone" "Shale" -999.25  90.0000 10.00000     0.0 "m/c"   "m/c"   "STACKED_UPPER_SHOREFACE_SEQUENCES/OR_PROXIMAL_MOUTHBAR"   "PROGRADING_SHORELINE/_DELTA_FRONT"
2563.0 "6609_11-1" 57.74000 "Sandstone" "Shale" -999.25  90.0000 10.00000     0.0 "m/c"   "m/c"   "STACKED_UPPER_SHOREFACE_SEQUENCES/OR_PROXIMAL_MOUTHBAR"   "PROGRADING_SHORELINE/_DELTA_FRONT"
2563.1 "6609_11-1" 57.20000 "Sandstone" "Shale" -999.25  90.0000 10.00000     0.0 "m/c"   "m/c"   "STACKED_UPPER_SHOREFACE_SEQUENCES/OR_PROXIMAL_MOUTHBAR"   "PROGRADING_SHORELINE/_DELTA_FRONT"
2563.2 "6609_11-1" 56.66000 "Sandstone" "Shale" -999.25  90.0000 10.00000     0.0 "m"     "m"     "STACKED_UPPER_SHOREFACE_SEQUENCES/OR_PROXIMAL_MOUTHBAR"   "PROGRADING_SHORELINE/_DELTA_FRONT"
2563.3 "6609_11-1" 56.11000 "Sandstone" "Shale" -999.25  90.0000 10.00000     0.0 "m"     "m"     "STACKED_UPPER_SHOREFACE_SEQUENCES/OR_PROXIMAL_MOUTHBAR"   "PROGRADING_SHORELINE/_DELTA_FRONT"
2563.4 "6609_11-1" 55.57000 "Sandstone" "Shale" -999.25  90.0000 10.00000     0.0 "m"     "m"     "STACKED_UPPER_SHOREFACE_SEQUENCES/OR_PROXIMAL_MOUTHBAR"   "PROGRADING_SHORELINE/_DELTA_FRONT"
2563.5 "6609_11-1" 55.03000 "Sandstone" "Shale" -999.25  90.0000 10.00000     0.0 "m"     "m"     "STACKED_UPPER_SHOREFACE_SEQUENCES/OR_PROXIMAL_MOUTHBAR"   "PROGRADING_SHORELINE/_DELTA_FRONT"
2563.6 "6609_11-1" 54.49000 "Sandstone" "Shale" -999.25  90.0000 10.00000     0.0 "m"     "m"     "STACKED_UPPER_SHOREFACE_SEQUENCES/OR_PROXIMAL_MOUTHBAR"   "PROGRADING_SHORELINE/_DELTA_FRONT"
2563.7 "6609_11-1" 53.94000 "Sandstone" "Shale" -999.25  90.0000 10.00000     0.0 "m"     "m"     "STACKED_UPPER_SHOREFACE_SEQUENCES/OR_PROXIMAL_MOUTHBAR"   "PROGRADING_SHORELINE/_DELTA_FRONT"
2563.8 "6609_11-1" 53.40000 "Sandstone" "Shale" -999.25  90.0000 10.00000     0.0 "m"     "m"     "STACKED_UPPER_SHOREFACE_SEQUENCES/OR_PROXIMAL_MOUTHBAR"   "PROGRADING_SHORELINE/_DELTA_FRONT"
2563.9 "6609_11-1" 52.86000 "Sandstone" "Shale" -999.25  90.0000 10.00000     0.0 "m"     "m"     "STACKED_UPPER_SHOREFACE_SEQUENCES/OR_PROXIMAL_MOUTHBAR"   "PROGRADING_SHORELINE/_DELTA_FRONT"
2564.0 "6609_11-1" 52.32000 "Sandstone" "Shale" -999.25  90.0000 10.00000     0.0 "m"     "m"     "STACKED_UPPER_SHOREFACE_SEQUENCES/OR_PROXIMAL_MOUTHBAR"   "PROGRADING_SHORELINE/_DELTA_FRONT"
2564.1 "6609_11-1" 51.78000 "Sandstone" "Shale" -999.25  90.0000 10.00000     0.0 "m"     "m"     "STACKED_UPPER_SHOREFACE_SEQUENCES/OR_PROXIMAL_MOUTHBAR"   "PROGRADING_SHORELINE/_DELTA_FRONT"
2564.2 "6609_11-1" 51.24000 "Sandstone" "Shale" -999.25  90.0000 10.00000     0.0 "m"     "m"     "STACKED_UPPER_SHOREFACE_SEQUENCES/OR_PROXIMAL_MOUTHBAR"   "PROGRADING_SHORELINE/_DELTA_FRONT"
2564.3 "6609_11-1" 50.70000 "Sandstone" "Shale" -999.25  90.0000 10.00000     0.0 "m"     "m"     "STACKED_UPPER_SHOREFACE_SEQUENCES/OR_PROXIMAL_MOUTHBAR"   "PROGRADING_SHORELINE/_DELTA_FRONT"
2564.4 "6609_11-1" 50.47000 "Sandstone" "Shale" -999.25  90.0000 10.00000     0.0 "m"     "m"     "STACKED_UPPER_SHOREFACE_SEQUENCES/OR_PROXIMAL_MOUTHBAR"   "PROGRADING_SHORELINE/_DELTA_FRONT"
2564.5 "6609_11-1" 50.65000 "Sandstone" -999.25 -999.25 100.0000      0.0     0.0 "c"     "c"     "STACKED_UPPER_SHOREFACE_SEQUENCES/OR_PROXIMAL_MOUTHBAR"   "PROGRADING_SHORELINE/_DELTA_FRONT"
2564.6 "6609_11-1" 50.98000 "Sandstone" -999.25 -999.25 100.0000      0.0     0.0 "c"     "c"     "STACKED_UPPER_SHOREFACE_SEQUENCES/OR_PROXIMAL_MOUTHBAR"   "PROGRADING_SHORELINE/_DELTA_FRONT"
2564.7 "6609_11-1" 51.42000 "Sandstone" -999.25 -999.25 100.0000      0.0     0.0 "c"     "c"     "STACKED_UPPER_SHOREFACE_SEQUENCES/OR_PROXIMAL_MOUTHBAR"   "PROGRADING_SHORELINE/_DELTA_FRONT"
