~Version
VERS  .                                 3.0 : CWLS LAS ASCII Standard - Version 3.0
WRAP  . NO                                  : One line per depth step
DLM   . SPACE                               : Column data section delimiter
SOURCE. Converted to LAS by Log Studio 4.76 : GeoProvider

~Well
STRT.         2548.0 : Start depth
STOP.         2734.0 : Stop depth
STEP.              1 : Step
NULL.        -999.25 : No-value
COMP.                : Company
WELL. 6609/11-1      : Well
FLD .                : Field
LOC .                : Location
LATI.                : Latitude
LONG.                : Longitude
GDAT.                : Geodetic datum
CNTY.                : County
STAT.                : State
CTRY.                : Country
SRVC. GeoProvider AS : Service company
DATE.                : Date
API .                : API number
RUN .                : Run number

~Parameters
WellboreName.  : Wellbore name
RigName     .  : Rig name
StartDate   .  : Start date

~Curves
DEPTH.m            .  : null {F}Depth mMD
Hole_ID.-          .  : null {S}Hole ID
GR.API             .  : null {F}Gamma Ray
Lithology1.-       .  : null {S}Lithology 1
Lithology2.-       .  : null {S}Lithology 2
Lithology3.-       .  : null {S}Lithology 3
Lithology1.%       .  : null {F}Lithology 1 percentage
Lithology2.%       .  : null {F}Lithology 2 percentage
Lithology3.%       .  : null {F}Lithology 3 percentage
Grain_size_Top.-   .  : null {S}Grain size at the top 
Grain_size_Base.-  .  : null {S}Grain size at the bottom
Sub_Environment.-  .  : null {S}Sub Environment
Gross_Environment.-.  : null {S}Gross Environment

~Ascii
# ...
2552.2 "6609_11-1" 56.20000 "Sandstone" -999.25 -999.25 100.0000      0.0     0.0 "m"     "m"     "STACKED_UPPER_SHOREFACE_SEQUENCES/OR_PROXIMAL_MOUTHBAR"   "PROGRADING_SHORELINE/_DELTA_FRONT"
2552.3 "6609_11-1" 56.28000 "Sandstone" -999.25 -999.25 100.0000      0.0     0.0 "m"     "m"     "STACKED_UPPER_SHOREFACE_SEQUENCES/OR_PROXIMAL_MOUTHBAR"   "PROGRADING_SHORELINE/_DELTA_FRONT"
2552.4 "6609_11-1" 56.04000 "Sandstone" -999.25 -999.25 100.0000      0.0     0.0 "m"     "m"     "STACKED_UPPER_SHOREFACE_SEQUENCES/OR_PROXIMAL_MOUTHBAR"   "PROGRADING_SHORELINE/_DELTA_FRONT"
2552.5 "6609_11-1" 55.63000 "Sandstone" -999.25 -999.25 100.0000      0.0     0.0 "m"     "m"     "STACKED_UPPER_SHOREFACE_SEQUENCES/OR_PROXIMAL_MOUTHBAR"   "PROGRADING_SHORELINE/_DELTA_FRONT"
2552.6 "6609_11-1" 55.22000 "Sandstone" -999.25 -999.25 100.0000      0.0     0.0 "m"     "m"     "STACKED_UPPER_SHOREFACE_SEQUENCES/OR_PROXIMAL_MOUTHBAR"   "PROGRADING_SHORELINE/_DELTA_FRONT"
2552.7 "6609_11-1" 54.81000 "Sandstone" -999.25 -999.25 100.0000      0.0     0.0 "m"     "m"     "STACKED_UPPER_SHOREFACE_SEQUENCES/OR_PROXIMAL_MOUTHBAR"   "PROGRADING_SHORELINE/_DELTA_FRONT"
2552.8 "6609_11-1" 54.40000 "Sandstone" -999.25 -999.25 100.0000      0.0     0.0 "f/m"   "m"     "STACKED_UPPER_SHOREFACE_SEQUENCES/OR_PROXIMAL_MOUTHBAR"   "PROGRADING_SHORELINE/_DELTA_FRONT"
2552.9 "6609_11-1" 54.47000 "Sandstone" -999.25 -999.25 100.0000      0.0     0.0 "f/m"   "m"     "STACKED_UPPER_SHOREFACE_SEQUENCES/OR_PROXIMAL_MOUTHBAR"   "PROGRADING_SHORELINE/_DELTA_FRONT"
2553.0 "6609_11-1" 55.13000 "Sandstone" -999.25 -999.25 100.0000      0.0     0.0 "f/m"   "m"     "STACKED_UPPER_SHOREFACE_SEQUENCES/OR_PROXIMAL_MOUTHBAR"   "PROGRADING_SHORELINE/_DELTA_FRONT"
2553.1 "6609_11-1" 55.80000 "Sandstone" -999.25 -999.25 100.0000      0.0     0.0 "f/m"   "m"     "STACKED_UPPER_SHOREFACE_SEQUENCES/OR_PROXIMAL_MOUTHBAR"   "PROGRADING_SHORELINE/_DELTA_FRONT"
2553.2 "6609_11-1" 56.47000 "Sandstone" -999.25 -999.25 100.0000      0.0     0.0 "f/m"   "m"     "STACKED_UPPER_SHOREFACE_SEQUENCES/OR_PROXIMAL_MOUTHBAR"   "PROGRADING_SHORELINE/_DELTA_FRONT"
2553.3 "6609_11-1" 57.13000 "Sandstone" -999.25 -999.25 100.0000      0.0     0.0 "f/m"   "m"     "STACKED_UPPER_SHOREFACE_SEQUENCES/OR_PROXIMAL_MOUTHBAR"   "PROGRADING_SHORELINE/_DELTA_FRONT"
2553.4 "6609_11-1" 57.80000 "Sandstone" -999.25 -999.25 100.0000      0.0     0.0 "f/m"   "m"     "STACKED_UPPER_SHOREFACE_SEQUENCES/OR_PROXIMAL_MOUTHBAR"   "PROGRADING_SHORELINE/_DELTA_FRONT"
2553.5 "6609_11-1" 58.46000 "Sandstone" -999.25 -999.25 100.0000      0.0     0.0 "f/m"   "m"     "STACKED_UPPER_SHOREFACE_SEQUENCES/OR_PROXIMAL_MOUTHBAR"   "PROGRADING_SHORELINE/_DELTA_FRONT"
2553.6 "6609_11-1" 59.13000 "Sandstone" -999.25 -999.25 100.0000      0.0     0.0 "f/m"   "m"     "STACKED_UPPER_SHOREFACE_SEQUENCES/OR_PROXIMAL_MOUTHBAR"   "PROGRADING_SHORELINE/_DELTA_FRONT"
2553.7 "6609_11-1" 58.48000 "Sandstone" -999.25 -999.25 100.0000      0.0     0.0 "f/m"   "m"     "STACKED_UPPER_SHOREFACE_SEQUENCES/OR_PROXIMAL_MOUTHBAR"   "PROGRADING_SHORELINE/_DELTA_FRONT"
2553.8 "6609_11-1" 56.80000 "Sandstone" -999.25 -999.25 100.0000      0.0     0.0 "f/m"   "m"     "STACKED_UPPER_SHOREFACE_SEQUENCES/OR_PROXIMAL_MOUTHBAR"   "PROGRADING_SHORELINE/_DELTA_FRONT"
2553.9 "6609_11-1" 55.12000 "Sandstone" "Shale" -999.25  95.0000  5.00000     0.0 "f/m"   "f/m"   "STACKED_UPPER_SHOREFACE_SEQUENCES/OR_PROXIMAL_MOUTHBAR"   "PROGRADING_SHORELINE/_DELTA_FRONT"
2554.0 "6609_11-1" 53.44000 "Sandstone" "Shale" -999.25  95.0000  5.00000     0.0 "f/m"   "f/m"   "STACKED_UPPER_SHOREFACE_SEQUENCES/OR_PROXIMAL_MOUTHBAR"   "PROGRADING_SHORELINE/_DELTA_FRONT"
2554.1 "6609_11-1" 51.76000 "Sandstone" "Shale" -999.25  95.0000  5.00000     0.0 "f/m"   "f/m"   "STACKED_UPPER_SHOREFACE_SEQUENCES/OR_PROXIMAL_MOUTHBAR"   "PROGRADING_SHORELINE/_DELTA_FRONT"
2554.2 "6609_11-1" 51.23000 "Sandstone" "Shale" -999.25  95.0000  5.00000     0.0 "f/m"   "f/m"   "STACKED_UPPER_SHOREFACE_SEQUENCES/OR_PROXIMAL_MOUTHBAR"   "PROGRADING_SHORELINE/_DELTA_FRONT"
2554.3 "6609_11-1" 51.53000 "Sandstone" "Shale" -999.25  95.0000  5.00000     0.0 "f/m"   "f/m"   "STACKED_UPPER_SHOREFACE_SEQUENCES/OR_PROXIMAL_MOUTHBAR"   "PROGRADING_SHORELINE/_DELTA_FRONT"
2554.4 "6609_11-1" 51.84000 "Sandstone" "Shale" -999.25  95.0000  5.00000     0.0 "f/m"   "f/m"   "STACKED_UPPER_SHOREFACE_SEQUENCES/OR_PROXIMAL_MOUTHBAR"   "PROGRADING_SHORELINE/_DELTA_FRONT"
2554.5 "6609_11-1" 52.14000 "Sandstone" "Shale" -999.25  95.0000  5.00000     0.0 "f/m"   "f/m"   "STACKED_UPPER_SHOREFACE_SEQUENCES/OR_PROXIMAL_MOUTHBAR"   "PROGRADING_SHORELINE/_DELTA_FRONT"
2554.6 "6609_11-1" 52.44000 "Sandstone" "Shale" -999.25  95.0000  5.00000     0.0 "f/m"   "f/m"   "STACKED_UPPER_SHOREFACE_SEQUENCES/OR_PROXIMAL_MOUTHBAR"   "PROGRADING_SHORELINE/_DELTA_FRONT"
2554.7 "6609_11-1" 52.78000 "Sandstone" "Shale" -999.25  95.0000  5.00000     0.0 "f/m"   "f/m"   "STACKED_UPPER_SHOREFACE_SEQUENCES/OR_PROXIMAL_MOUTHBAR"   "PROGRADING_SHORELINE/_DELTA_FRONT"
2554.8 "6609_11-1" 53.24000 "Sandstone" "Shale" -999.25  95.0000  5.00000     0.0 "f/m"   "f/m"   "STACKED_UPPER_SHOREFACE_SEQUENCES/OR_PROXIMAL_MOUTHBAR"   "PROGRADING_SHORELINE/_DELTA_FRONT"
2554.9 "6609_11-1" 53.71000 "Sandstone" "Shale" -999.25  95.0000  5.00000     0.0 "f/m"   "f/m"   "STACKED_UPPER_SHOREFACE_SEQUENCES/OR_PROXIMAL_MOUTHBAR"   "PROGRADING_SHORELINE/_DELTA_FRONT"
2555.0 "6609_11-1" 54.17000 "Sandstone" "Shale" -999.25  95.0000  5.00000     0.0 "f/m"   "f/m"   "STACKED_UPPER_SHOREFACE_SEQUENCES/OR_PROXIMAL_MOUTHBAR"   "PROGRADING_SHORELINE/_DELTA_FRONT"
2555.1 "6609_11-1" 54.20000 "Sandstone" "Shale" -999.25  95.0000  5.00000     0.0 "f/m"   "f/m"   "STACKED_UPPER_SHOREFACE_SEQUENCES/OR_PROXIMAL_MOUTHBAR"   "PROGRADING_SHORELINE/_DELTA_FRONT"
2555.2 "6609_11-1" 54.00000 "Sandstone" "Shale" -999.25  95.0000  5.00000     0.0 "f/m"   "f/m"   "STACKED_UPPER_SHOREFACE_SEQUENCES/OR_PROXIMAL_MOUTHBAR"   "PROGRADING_SHORELINE/_DELTA_FRONT"
2555.3 "6609_11-1" 53.79000 "Sandstone" "Shale" -999.25  95.0000  5.00000     0.0 "f/m"   "f/m"   "STACKED_UPPER_SHOREFACE_SEQUENCES/OR_PROXIMAL_MOUTHBAR"   "PROGRADING_SHORELINE/_DELTA_FRONT"
2555.4 "6609_11-1" 53.59000 "Sandstone" "Shale" -999.25  95.0000  5.00000     0.0 "f/m"   "f/m"   "STACKED_UPPER_SHOREFACE_SEQUENCES/OR_PROXIMAL_MOUTHBAR"   "PROGRADING_SHORELINE/_DELTA_FRONT"
2555.5 "6609_11-1" 53.38000 "Sandstone" "Shale" -999.25  95.0000  5.00000     0.0 "f/m"   "f/m"   "STACKED_UPPER_SHOREFACE_SEQUENCES/OR_PROXIMAL_MOUTHBAR"   "PROGRADING_SHORELINE/_DELTA_FRONT"
2555.6 "6609_11-1" 53.19000 "Sandstone" "Shale" -999.25  95.0000  5.00000     0.0 "f/m"   "f/m"   "STACKED_UPPER_SHOREFACE_SEQUENCES/OR_PROXIMAL_MOUTHBAR"   "PROGRADING_SHORELINE/_DELTA_FRONT"
2555.7 "6609_11-1" 53.30000 "Sandstone" "Shale" -999.25  95.0000  5.00000     0.0 "f/m"   "f/m"   "STACKED_UPPER_SHOREFACE_SEQUENCES/OR_PROXIMAL_MOUTHBAR"   "PROGRADING_SHORELINE/_DELTA_FRONT"
2555.8 "6609_11-1" 53.40000 "Sandstone" "Shale" -999.25  95.0000  5.00000     0.0 "f/m"   "f/m"   "STACKED_UPPER_SHOREFACE_SEQUENCES/OR_PROXIMAL_MOUTHBAR"   "PROGRADING_SHORELINE/_DELTA_FRONT"
2555.9 "6609_11-1" 53.51000 "Sandstone" "Shale" -999.25  95.0000  5.00000     0.0 "f/m"   "f/m"   "STACKED_UPPER_SHOREFACE_SEQUENCES/OR_PROXIMAL_MOUTHBAR"   "PROGRADING_SHORELINE/_DELTA_FRONT"
2556.0 "6609_11-1" 53.61000 "Sandstone" -999.25 -999.25 100.0000      0.0     0.0 "m"     "m"     "STACKED_UPPER_SHOREFACE_SEQUENCES/OR_PROXIMAL_MOUTHBAR"   "PROGRADING_SHORELINE/_DELTA_FRONT"
2556.1 "6609_11-1" 53.72000 "Sandstone" -999.25 -999.25 100.0000      0.0     0.0 "m"     "m"     "STACKED_UPPER_SHOREFACE_SEQUENCES/OR_PROXIMAL_MOUTHBAR"   "PROGRADING_SHORELINE/_DELTA_FRONT"
2556.2 "6609_11-1" 53.82000 "Sandstone" -999.25 -999.25 100.0000      0.0     0.0 "m"     "m"     "STACKED_UPPER_SHOREFACE_SEQUENCES/OR_PROXIMAL_MOUTHBAR"   "PROGRADING_SHORELINE/_DELTA_FRONT"
2556.3 "6609_11-1" 54.46000 "Sandstone" -999.25 -999.25 100.0000      0.0     0.0 "m"     "m"     "STACKED_UPPER_SHOREFACE_SEQUENCES/OR_PROXIMAL_MOUTHBAR"   "PROGRADING_SHORELINE/_DELTA_FRONT"
