~Version
VERS  .                                 3.0 : CWLS LAS ASCII Standard - Version 3.0
WRAP  . NO                                  : One line per depth step
DLM   . SPACE                               : Column data section delimiter
SOURCE. Converted to LAS by Log Studio 4.76 : GeoProvider

~Well
STRT.         2548.0 : Start depth
STOP.         2734.0 : Stop depth
STEP.              1 : Step
NULL.        -999.25 : No-value
COMP.                : Company
WELL. 6609/11-1      : Well
FLD .                : Field
LOC .                : Location
LATI.                : Latitude
LONG.                : Longitude
GDAT.                : Geodetic datum
CNTY.                : County
STAT.                : State
CTRY.                : Country
SRVC. GeoProvider AS : Service company
DATE.                : Date
API .                : API number
RUN .                : Run number

~Parameters
WellboreName.  : Wellbore name
RigName     .  : Rig name
StartDate   .  : Start date

~Curves
DEPTH.m            .  : null {F}Depth mMD
Hole_ID.-          .  : null {S}Hole ID
GR.API             .  : null {F}Gamma Ray
Lithology1.-       .  : null {S}Lithology 1
Lithology2.-       .  : null {S}Lithology 2
Lithology3.-       .  : null {S}Lithology 3
Lithology1.%       .  : null {F}Lithology 1 percentage
Lithology2.%       .  : null {F}Lithology 2 percentage
Lithology3.%       .  : null {F}Lithology 3 percentage
Grain_size_Top.-   .  : null {S}Grain size at the top 
Grain_size_Base.-  .  : null {S}Grain size at the bottom
Sub_Environment.-  .  : null {S}Sub Environment
Gross_Environment.-.  : null {S}Gross Environment

~Ascii
# ...
2719.4 "6609_11-1"  -999.25 "Sandstone" "Shale" -999.25  50.0000 50.00000     0.0 -999.25 -999.25 "PROXIMAL_MOUTHBAR_HIGH_SEDIMENT_DISCHARGE_RAPID_DEPOSITION" "PROGRADING_DELTA_FRONT"         
2719.5 "6609_11-1"  -999.25 "Sandstone" -999.25 -999.25 100.0000      0.0     0.0 "f"     "vf"    "PROXIMAL_MOUTHBAR_HIGH_SEDIMENT_DISCHARGE_RAPID_DEPOSITION" "PROGRADING_DELTA_FRONT"         
2719.6 "6609_11-1"  -999.25 "Sandstone" -999.25 -999.25 100.0000      0.0     0.0 "f"     "vf"    "PROXIMAL_MOUTHBAR_HIGH_SEDIMENT_DISCHARGE_RAPID_DEPOSITION" "PROGRADING_DELTA_FRONT"         
2719.7 "6609_11-1"  -999.25 "Sandstone" -999.25 -999.25 100.0000      0.0     0.0 "f"     "vf"    "PROXIMAL_MOUTHBAR_HIGH_SEDIMENT_DISCHARGE_RAPID_DEPOSITION" "PROGRADING_DELTA_FRONT"         
2719.8 "6609_11-1"  -999.25 "Sandstone" -999.25 -999.25 100.0000      0.0     0.0 "f"     "vf"    "PROXIMAL_MOUTHBAR_HIGH_SEDIMENT_DISCHARGE_RAPID_DEPOSITION" "PROGRADING_DELTA_FRONT"         
2719.9 "6609_11-1"  -999.25 "Sandstone" -999.25 -999.25 100.0000      0.0     0.0 "f"     "vf"    "PROXIMAL_MOUTHBAR_HIGH_SEDIMENT_DISCHARGE_RAPID_DEPOSITION" "PROGRADING_DELTA_FRONT"         
2720.0 "6609_11-1" 62.66000 "Sandstone" -999.25 -999.25 100.0000      0.0     0.0 "f"     "vf"    "PROXIMAL_MOUTHBAR_HIGH_SEDIMENT_DISCHARGE_RAPID_DEPOSITION" "PROGRADING_DELTA_FRONT"         
2720.1 "6609_11-1" 63.16000 "Sandstone" -999.25 -999.25 100.0000      0.0     0.0 "f"     "vf"    "PROXIMAL_MOUTHBAR_HIGH_SEDIMENT_DISCHARGE_RAPID_DEPOSITION" "PROGRADING_DELTA_FRONT"         
2720.2 "6609_11-1" 63.66000 "Sandstone" -999.25 -999.25 100.0000      0.0     0.0 "f"     "f"     "PROXIMAL_MOUTHBAR_HIGH_SEDIMENT_DISCHARGE_RAPID_DEPOSITION" "PROGRADING_DELTA_FRONT"         
2720.3 "6609_11-1" 64.17000 "Sandstone" -999.25 -999.25 100.0000      0.0     0.0 "f"     "f"     "PROXIMAL_MOUTHBAR_HIGH_SEDIMENT_DISCHARGE_RAPID_DEPOSITION" "PROGRADING_DELTA_FRONT"         
2720.4 "6609_11-1" 64.67000 "Sandstone" -999.25 -999.25 100.0000      0.0     0.0 "f"     "f"     "PROXIMAL_MOUTHBAR_HIGH_SEDIMENT_DISCHARGE_RAPID_DEPOSITION" "PROGRADING_DELTA_FRONT"         
2720.5 "6609_11-1" 65.17000 "Sandstone" -999.25 -999.25 100.0000      0.0     0.0 "f"     "f"     "PROXIMAL_MOUTHBAR_HIGH_SEDIMENT_DISCHARGE_RAPID_DEPOSITION" "PROGRADING_DELTA_FRONT"         
2720.6 "6609_11-1" 65.67000 "Sandstone" -999.25 -999.25 100.0000      0.0     0.0 "f"     "f"     "PROXIMAL_MOUTHBAR_HIGH_SEDIMENT_DISCHARGE_RAPID_DEPOSITION" "PROGRADING_DELTA_FRONT"         
2720.7 "6609_11-1" 66.11000 "Sandstone" -999.25 -999.25 100.0000      0.0     0.0 "f"     "f"     "PROXIMAL_MOUTHBAR_HIGH_SEDIMENT_DISCHARGE_RAPID_DEPOSITION" "PROGRADING_DELTA_FRONT"         
2720.8 "6609_11-1" 66.43000 "Sandstone" -999.25 -999.25 100.0000      0.0     0.0 "f"     "f"     "PROXIMAL_MOUTHBAR_HIGH_SEDIMENT_DISCHARGE_RAPID_DEPOSITION" "PROGRADING_DELTA_FRONT"         
2720.9 "6609_11-1" 66.75000 "Sandstone" -999.25 -999.25 100.0000      0.0     0.0 "f"     "f"     "PROXIMAL_MOUTHBAR_HIGH_SEDIMENT_DISCHARGE_RAPID_DEPOSITION" "PROGRADING_DELTA_FRONT"         
2721.0 "6609_11-1" 67.06000 "Sandstone" -999.25 -999.25 100.0000      0.0     0.0 "f"     "f"     "PROXIMAL_MOUTHBAR_HIGH_SEDIMENT_DISCHARGE_RAPID_DEPOSITION" "PROGRADING_DELTA_FRONT"         
2721.1 "6609_11-1" 67.38000 "Sandstone" -999.25 -999.25 100.0000      0.0     0.0 "f"     "f"     "PROXIMAL_MOUTHBAR_HIGH_SEDIMENT_DISCHARGE_RAPID_DEPOSITION" "PROGRADING_DELTA_FRONT"         
2721.2 "6609_11-1" 68.73000 "Sandstone" -999.25 -999.25 100.0000      0.0     0.0 "f"     "f"     "PROXIMAL_MOUTHBAR_HIGH_SEDIMENT_DISCHARGE_RAPID_DEPOSITION" "PROGRADING_DELTA_FRONT"         
2721.3 "6609_11-1" 70.26000 "Sandstone" -999.25 -999.25 100.0000      0.0     0.0 "f"     "f"     "PROXIMAL_MOUTHBAR_HIGH_SEDIMENT_DISCHARGE_RAPID_DEPOSITION" "PROGRADING_DELTA_FRONT"         
2721.4 "6609_11-1" 72.74000 "Sandstone" -999.25 -999.25 100.0000      0.0     0.0 "f"     "f"     "PROXIMAL_MOUTHBAR_HIGH_SEDIMENT_DISCHARGE_RAPID_DEPOSITION" "PROGRADING_DELTA_FRONT"         
2721.5 "6609_11-1" 75.21000 "Sandstone" -999.25 -999.25 100.0000      0.0     0.0 "f"     "f"     "PROXIMAL_MOUTHBAR_HIGH_SEDIMENT_DISCHARGE_RAPID_DEPOSITION" "PROGRADING_DELTA_FRONT"         
2721.6 "6609_11-1" 77.69000 "Sandstone" -999.25 -999.25 100.0000      0.0     0.0 "f"     "f"     "PROXIMAL_MOUTHBAR_HIGH_SEDIMENT_DISCHARGE_RAPID_DEPOSITION" "PROGRADING_DELTA_FRONT"         
2721.7 "6609_11-1" 80.16000 "Sandstone" -999.25 -999.25 100.0000      0.0     0.0 "f"     "f"     "PROXIMAL_MOUTHBAR_HIGH_SEDIMENT_DISCHARGE_RAPID_DEPOSITION" "PROGRADING_DELTA_FRONT"         
2721.8 "6609_11-1" 81.59000 "Sandstone" -999.25 -999.25 100.0000      0.0     0.0 "f"     "f"     "PROXIMAL_MOUTHBAR_HIGH_SEDIMENT_DISCHARGE_RAPID_DEPOSITION" "PROGRADING_DELTA_FRONT"         
2721.9 "6609_11-1" 79.77000 "Sandstone" -999.25 -999.25 100.0000      0.0     0.0 "f"     "f"     "PROXIMAL_MOUTHBAR_HIGH_SEDIMENT_DISCHARGE_RAPID_DEPOSITION" "PROGRADING_DELTA_FRONT"         
2722.0 "6609_11-1" 77.95000 "Sandstone" -999.25 -999.25 100.0000      0.0     0.0 "f"     "f"     "PROXIMAL_MOUTHBAR_HIGH_SEDIMENT_DISCHARGE_RAPID_DEPOSITION" "PROGRADING_DELTA_FRONT"         
2722.1 "6609_11-1" 76.13000 "Sandstone" -999.25 -999.25 100.0000      0.0     0.0 "f"     "f"     "PROXIMAL_MOUTHBAR_HIGH_SEDIMENT_DISCHARGE_RAPID_DEPOSITION" "PROGRADING_DELTA_FRONT"         
2722.2 "6609_11-1" 74.31000 "Sandstone" -999.25 -999.25 100.0000      0.0     0.0 "f"     "f"     "PROXIMAL_MOUTHBAR_HIGH_SEDIMENT_DISCHARGE_RAPID_DEPOSITION" "PROGRADING_DELTA_FRONT"         
2722.3 "6609_11-1" 73.01000 "Sandstone" -999.25 -999.25 100.0000      0.0     0.0 "f"     "f"     "PROXIMAL_MOUTHBAR_HIGH_SEDIMENT_DISCHARGE_RAPID_DEPOSITION" "PROGRADING_DELTA_FRONT"         
2722.4 "6609_11-1" 73.47000 "Sandstone" -999.25 -999.25 100.0000      0.0     0.0 "f"     "f"     "PROXIMAL_MOUTHBAR_HIGH_SEDIMENT_DISCHARGE_RAPID_DEPOSITION" "PROGRADING_DELTA_FRONT"         
2722.5 "6609_11-1" 73.93000 "Sandstone" -999.25 -999.25 100.0000      0.0     0.0 "f"     "f"     "PROXIMAL_MOUTHBAR_HIGH_SEDIMENT_DISCHARGE_RAPID_DEPOSITION" "PROGRADING_DELTA_FRONT"         
2722.6 "6609_11-1" 74.24000 "Sandstone" -999.25 -999.25 100.0000      0.0     0.0 "f"     "f"     "PROXIMAL_MOUTHBAR_HIGH_SEDIMENT_DISCHARGE_RAPID_DEPOSITION" "PROGRADING_DELTA_FRONT"         
2722.7 "6609_11-1" 73.44000 "Sandstone" -999.25 -999.25 100.0000      0.0     0.0 "f"     "f"     "PROXIMAL_MOUTHBAR_HIGH_SEDIMENT_DISCHARGE_RAPID_DEPOSITION" "PROGRADING_DELTA_FRONT"         
2722.8 "6609_11-1" 71.77000 "Sandstone" -999.25 -999.25 100.0000      0.0     0.0 "f"     "f"     "PROXIMAL_MOUTHBAR_HIGH_SEDIMENT_DISCHARGE_RAPID_DEPOSITION" "PROGRADING_DELTA_FRONT"         
2722.9 "6609_11-1" 70.10000 "Sandstone" -999.25 -999.25 100.0000      0.0     0.0 "f"     "f"     "PROXIMAL_MOUTHBAR_HIGH_SEDIMENT_DISCHARGE_RAPID_DEPOSITION" "PROGRADING_DELTA_FRONT"         
2723.0 "6609_11-1" 68.42000 "Sandstone" -999.25 -999.25 100.0000      0.0     0.0 "f"     "f"     "PROXIMAL_MOUTHBAR_HIGH_SEDIMENT_DISCHARGE_RAPID_DEPOSITION" "PROGRADING_DELTA_FRONT"         
2723.1 "6609_11-1" 66.84000 "Sandstone" -999.25 -999.25 100.0000      0.0     0.0 "f"     "f"     "PROXIMAL_MOUTHBAR_HIGH_SEDIMENT_DISCHARGE_RAPID_DEPOSITION" "PROGRADING_DELTA_FRONT"         
2723.2 "6609_11-1" 67.45000 "Sandstone" -999.25 -999.25 100.0000      0.0     0.0 "f"     "f"     "PROXIMAL_MOUTHBAR_HIGH_SEDIMENT_DISCHARGE_RAPID_DEPOSITION" "PROGRADING_DELTA_FRONT"         
2723.3 "6609_11-1" 68.05000 "Sandstone" -999.25 -999.25 100.0000      0.0     0.0 "f"     "f"     "PROXIMAL_MOUTHBAR_HIGH_SEDIMENT_DISCHARGE_RAPID_DEPOSITION" "PROGRADING_DELTA_FRONT"         
2723.4 "6609_11-1" 68.65000 "Sandstone" -999.25 -999.25 100.0000      0.0     0.0 "f"     "f"     "PROXIMAL_MOUTHBAR_HIGH_SEDIMENT_DISCHARGE_RAPID_DEPOSITION" "PROGRADING_DELTA_FRONT"         
2723.5 "6609_11-1" 68.84000 "Sandstone" -999.25 -999.25 100.0000      0.0     0.0 "f"     "f"     "PROXIMAL_MOUTHBAR_HIGH_SEDIMENT_DISCHARGE_RAPID_DEPOSITION" "PROGRADING_DELTA_FRONT"         
