~Version
VERS  .                                 3.0 : CWLS LAS ASCII Standard - Version 3.0
WRAP  . NO                                  : One line per depth step
DLM   . SPACE                               : Column data section delimiter
SOURCE. Converted to LAS by Log Studio 4.76 : GeoProvider

~Well
STRT.         2548.0 : Start depth
STOP.         2734.0 : Stop depth
STEP.              1 : Step
NULL.        -999.25 : No-value
COMP.                : Company
WELL. 6609/11-1      : Well
FLD .                : Field
LOC .                : Location
LATI.                : Latitude
LONG.                : Longitude
GDAT.                : Geodetic datum
CNTY.                : County
STAT.                : State
CTRY.                : Country
SRVC. GeoProvider AS : Service company
DATE.                : Date
API .                : API number
RUN .                : Run number

~Parameters
WellboreName.  : Wellbore name
RigName     .  : Rig name
StartDate   .  : Start date

~Curves
DEPTH.m            .  : null {F}Depth mMD
Hole_ID.-          .  : null {S}Hole ID
GR.API             .  : null {F}Gamma Ray
Lithology1.-       .  : null {S}Lithology 1
Lithology2.-       .  : null {S}Lithology 2
Lithology3.-       .  : null {S}Lithology 3
Lithology1.%       .  : null {F}Lithology 1 percentage
Lithology2.%       .  : null {F}Lithology 2 percentage
Lithology3.%       .  : null {F}Lithology 3 percentage
Grain_size_Top.-   .  : null {S}Grain size at the top 
Grain_size_Base.-  .  : null {S}Grain size at the bottom
Sub_Environment.-  .  : null {S}Sub Environment
Gross_Environment.-.  : null {S}Gross Environment

~Ascii
2548.0 "6609_11-1" 63.49000 "Sandstone" -999.25 -999.25 100.0000      0.0     0.0 "m/c"   "m/c"   "STACKED_UPPER_SHOREFACE_SEQUENCES/OR_PROXIMAL_MOUTHBAR"   "PROGRADING_SHORELINE/_DELTA_FRONT"
2548.1 "6609_11-1" 64.03000 "Sandstone" -999.25 -999.25 100.0000      0.0     0.0 "m/c"   "m/c"   "STACKED_UPPER_SHOREFACE_SEQUENCES/OR_PROXIMAL_MOUTHBAR"   "PROGRADING_SHORELINE/_DELTA_FRONT"
2548.2 "6609_11-1" 64.57000 "Sandstone" -999.25 -999.25 100.0000      0.0     0.0 "m/c"   "m/c"   "STACKED_UPPER_SHOREFACE_SEQUENCES/OR_PROXIMAL_MOUTHBAR"   "PROGRADING_SHORELINE/_DELTA_FRONT"
2548.3 "6609_11-1" 65.12000 "Sandstone" -999.25 -999.25 100.0000      0.0     0.0 "m/c"   "m/c"   "STACKED_UPPER_SHOREFACE_SEQUENCES/OR_PROXIMAL_MOUTHBAR"   "PROGRADING_SHORELINE/_DELTA_FRONT"
2548.4 "6609_11-1" 65.05000 "Sandstone" -999.25 -999.25 100.0000      0.0     0.0 "m/c"   "m/c"   "STACKED_UPPER_SHOREFACE_SEQUENCES/OR_PROXIMAL_MOUTHBAR"   "PROGRADING_SHORELINE/_DELTA_FRONT"
2548.5 "6609_11-1" 64.92000 "Sandstone" -999.25 -999.25 100.0000      0.0     0.0 "f"     "f"     "STACKED_UPPER_SHOREFACE_SEQUENCES/OR_PROXIMAL_MOUTHBAR"   "PROGRADING_SHORELINE/_DELTA_FRONT"
2548.6 "6609_11-1" 64.80000 "Sandstone" -999.25 -999.25 100.0000      0.0     0.0 "f"     "f"     "STACKED_UPPER_SHOREFACE_SEQUENCES/OR_PROXIMAL_MOUTHBAR"   "PROGRADING_SHORELINE/_DELTA_FRONT"
2548.7 "6609_11-1" 64.67000 "Sandstone" -999.25 -999.25 100.0000      0.0     0.0 "f"     "f"     "STACKED_UPPER_SHOREFACE_SEQUENCES/OR_PROXIMAL_MOUTHBAR"   "PROGRADING_SHORELINE/_DELTA_FRONT"
2548.8 "6609_11-1" 64.54000 "Sandstone" -999.25 -999.25 100.0000      0.0     0.0 "f"     "f"     "STACKED_UPPER_SHOREFACE_SEQUENCES/OR_PROXIMAL_MOUTHBAR"   "PROGRADING_SHORELINE/_DELTA_FRONT"
2548.9 "6609_11-1" 64.70000 "Sandstone" -999.25 -999.25 100.0000      0.0     0.0 "f"     "f"     "STACKED_UPPER_SHOREFACE_SEQUENCES/OR_PROXIMAL_MOUTHBAR"   "PROGRADING_SHORELINE/_DELTA_FRONT"
2549.0 "6609_11-1" 64.96000 "Sandstone" -999.25 -999.25 100.0000      0.0     0.0 "m/c"   "m/c"   "STACKED_UPPER_SHOREFACE_SEQUENCES/OR_PROXIMAL_MOUTHBAR"   "PROGRADING_SHORELINE/_DELTA_FRONT"
2549.1 "6609_11-1" 64.97000 "Sandstone" -999.25 -999.25 100.0000      0.0     0.0 "m/c"   "m/c"   "STACKED_UPPER_SHOREFACE_SEQUENCES/OR_PROXIMAL_MOUTHBAR"   "PROGRADING_SHORELINE/_DELTA_FRONT"
2549.2 "6609_11-1" 64.13000 "Sandstone" -999.25 -999.25 100.0000      0.0     0.0 "m/c"   "m/c"   "STACKED_UPPER_SHOREFACE_SEQUENCES/OR_PROXIMAL_MOUTHBAR"   "PROGRADING_SHORELINE/_DELTA_FRONT"
2549.3 "6609_11-1" 63.28000 "Sandstone" -999.25 -999.25 100.0000      0.0     0.0 "m/c"   "m/c"   "STACKED_UPPER_SHOREFACE_SEQUENCES/OR_PROXIMAL_MOUTHBAR"   "PROGRADING_SHORELINE/_DELTA_FRONT"
2549.4 "6609_11-1" 63.79000 "Sandstone" -999.25 -999.25 100.0000      0.0     0.0 "m/c"   "m/c"   "STACKED_UPPER_SHOREFACE_SEQUENCES/OR_PROXIMAL_MOUTHBAR"   "PROGRADING_SHORELINE/_DELTA_FRONT"
2549.5 "6609_11-1" 65.18000 "Sandstone" -999.25 -999.25 100.0000      0.0     0.0 "m/c"   "m/c"   "STACKED_UPPER_SHOREFACE_SEQUENCES/OR_PROXIMAL_MOUTHBAR"   "PROGRADING_SHORELINE/_DELTA_FRONT"
2549.6 "6609_11-1" 64.54000 "Sandstone" "Shale" -999.25  20.0000 80.00000     0.0 "f/m"   "f/m"   "STACKED_UPPER_SHOREFACE_SEQUENCES/OR_PROXIMAL_MOUTHBAR"   "PROGRADING_SHORELINE/_DELTA_FRONT"
2549.7 "6609_11-1" 63.89000 "Sandstone" "Shale" -999.25  20.0000 80.00000     0.0 "f/m"   "f/m"   "STACKED_UPPER_SHOREFACE_SEQUENCES/OR_PROXIMAL_MOUTHBAR"   "PROGRADING_SHORELINE/_DELTA_FRONT"
2549.8 "6609_11-1" 63.34000 "Sandstone" -999.25 -999.25 100.0000      0.0     0.0 "m"     "m"     "STACKED_UPPER_SHOREFACE_SEQUENCES/OR_PROXIMAL_MOUTHBAR"   "PROGRADING_SHORELINE/_DELTA_FRONT"
2549.9 "6609_11-1" 63.20000 "Sandstone" -999.25 -999.25 100.0000      0.0     0.0 "m"     "m"     "STACKED_UPPER_SHOREFACE_SEQUENCES/OR_PROXIMAL_MOUTHBAR"   "PROGRADING_SHORELINE/_DELTA_FRONT"
2550.0 "6609_11-1" 63.06000 "Sandstone" -999.25 -999.25 100.0000      0.0     0.0 "m"     "m"     "STACKED_UPPER_SHOREFACE_SEQUENCES/OR_PROXIMAL_MOUTHBAR"   "PROGRADING_SHORELINE/_DELTA_FRONT"
2550.1 "6609_11-1" 62.92000 "Sandstone" -999.25 -999.25 100.0000      0.0     0.0 "m"     "m"     "STACKED_UPPER_SHOREFACE_SEQUENCES/OR_PROXIMAL_MOUTHBAR"   "PROGRADING_SHORELINE/_DELTA_FRONT"
2550.2 "6609_11-1" 63.71000 "Sandstone" -999.25 -999.25 100.0000      0.0     0.0 "m"     "m"     "STACKED_UPPER_SHOREFACE_SEQUENCES/OR_PROXIMAL_MOUTHBAR"   "PROGRADING_SHORELINE/_DELTA_FRONT"
2550.3 "6609_11-1" 65.03000 "Sandstone" -999.25 -999.25 100.0000      0.0     0.0 "m"     "m"     "STACKED_UPPER_SHOREFACE_SEQUENCES/OR_PROXIMAL_MOUTHBAR"   "PROGRADING_SHORELINE/_DELTA_FRONT"
2550.4 "6609_11-1" 66.35000 "Sandstone" -999.25 -999.25 100.0000      0.0     0.0 "m"     "m"     "STACKED_UPPER_SHOREFACE_SEQUENCES/OR_PROXIMAL_MOUTHBAR"   "PROGRADING_SHORELINE/_DELTA_FRONT"
2550.5 "6609_11-1" 67.67000 "Sandstone" -999.25 -999.25 100.0000      0.0     0.0 "m"     "m"     "STACKED_UPPER_SHOREFACE_SEQUENCES/OR_PROXIMAL_MOUTHBAR"   "PROGRADING_SHORELINE/_DELTA_FRONT"
2550.6 "6609_11-1" 68.43000 "Sandstone" -999.25 -999.25 100.0000      0.0     0.0 "m"     "m"     "STACKED_UPPER_SHOREFACE_SEQUENCES/OR_PROXIMAL_MOUTHBAR"   "PROGRADING_SHORELINE/_DELTA_FRONT"
2550.7 "6609_11-1" 67.77000 "Sandstone" -999.25 -999.25 100.0000      0.0     0.0 "m"     "m"     "STACKED_UPPER_SHOREFACE_SEQUENCES/OR_PROXIMAL_MOUTHBAR"   "PROGRADING_SHORELINE/_DELTA_FRONT"
2550.8 "6609_11-1" 67.11000 "Sandstone" -999.25 -999.25 100.0000      0.0     0.0 "m"     "m"     "STACKED_UPPER_SHOREFACE_SEQUENCES/OR_PROXIMAL_MOUTHBAR"   "PROGRADING_SHORELINE/_DELTA_FRONT"
2550.9 "6609_11-1" 67.10000 "Sandstone" -999.25 -999.25 100.0000      0.0     0.0 "m"     "m"     "STACKED_UPPER_SHOREFACE_SEQUENCES/OR_PROXIMAL_MOUTHBAR"   "PROGRADING_SHORELINE/_DELTA_FRONT"
2551.0 "6609_11-1" 67.25000 "Sandstone" -999.25 -999.25 100.0000      0.0     0.0 "m"     "m"     "STACKED_UPPER_SHOREFACE_SEQUENCES/OR_PROXIMAL_MOUTHBAR"   "PROGRADING_SHORELINE/_DELTA_FRONT"
2551.1 "6609_11-1" 67.41000 "Sandstone" -999.25 -999.25 100.0000      0.0     0.0 "m"     "m"     "STACKED_UPPER_SHOREFACE_SEQUENCES/OR_PROXIMAL_MOUTHBAR"   "PROGRADING_SHORELINE/_DELTA_FRONT"
2551.2 "6609_11-1" 66.48000 "Sandstone" -999.25 -999.25 100.0000      0.0     0.0 "m"     "m"     "STACKED_UPPER_SHOREFACE_SEQUENCES/OR_PROXIMAL_MOUTHBAR"   "PROGRADING_SHORELINE/_DELTA_FRONT"
2551.3 "6609_11-1" 65.02000 "Sandstone" -999.25 -999.25 100.0000      0.0     0.0 "m"     "m"     "STACKED_UPPER_SHOREFACE_SEQUENCES/OR_PROXIMAL_MOUTHBAR"   "PROGRADING_SHORELINE/_DELTA_FRONT"
2551.4 "6609_11-1" 63.56000 "Sandstone" -999.25 -999.25 100.0000      0.0     0.0 "m"     "m"     "STACKED_UPPER_SHOREFACE_SEQUENCES/OR_PROXIMAL_MOUTHBAR"   "PROGRADING_SHORELINE/_DELTA_FRONT"
2551.5 "6609_11-1" 62.11000 "Sandstone" -999.25 -999.25 100.0000      0.0     0.0 "m"     "m"     "STACKED_UPPER_SHOREFACE_SEQUENCES/OR_PROXIMAL_MOUTHBAR"   "PROGRADING_SHORELINE/_DELTA_FRONT"
2551.6 "6609_11-1" 60.65000 "Sandstone" -999.25 -999.25 100.0000      0.0     0.0 "m"     "m"     "STACKED_UPPER_SHOREFACE_SEQUENCES/OR_PROXIMAL_MOUTHBAR"   "PROGRADING_SHORELINE/_DELTA_FRONT"
2551.7 "6609_11-1" 59.20000 "Sandstone" -999.25 -999.25 100.0000      0.0     0.0 "m"     "m"     "STACKED_UPPER_SHOREFACE_SEQUENCES/OR_PROXIMAL_MOUTHBAR"   "PROGRADING_SHORELINE/_DELTA_FRONT"
2551.8 "6609_11-1" 57.74000 "Sandstone" -999.25 -999.25 100.0000      0.0     0.0 "m"     "m"     "STACKED_UPPER_SHOREFACE_SEQUENCES/OR_PROXIMAL_MOUTHBAR"   "PROGRADING_SHORELINE/_DELTA_FRONT"
2551.9 "6609_11-1" 56.28000 "Sandstone" -999.25 -999.25 100.0000      0.0     0.0 "m"     "m"     "STACKED_UPPER_SHOREFACE_SEQUENCES/OR_PROXIMAL_MOUTHBAR"   "PROGRADING_SHORELINE/_DELTA_FRONT"
2552.0 "6609_11-1" 56.04000 "Sandstone" -999.25 -999.25 100.0000      0.0     0.0 "m"     "m"     "STACKED_UPPER_SHOREFACE_SEQUENCES/OR_PROXIMAL_MOUTHBAR"   "PROGRADING_SHORELINE/_DELTA_FRONT"
2552.1 "6609_11-1" 56.12000 "Sandstone" -999.25 -999.25 100.0000      0.0     0.0 "m"     "m"     "STACKED_UPPER_SHOREFACE_SEQUENCES/OR_PROXIMAL_MOUTHBAR"   "PROGRADING_SHORELINE/_DELTA_FRONT"
