~Version
VERS  .                                 3.0 : CWLS LAS ASCII Standard - Version 3.0
WRAP  . NO                                  : One line per depth step
DLM   . SPACE                               : Column data section delimiter
SOURCE. Converted to LAS by Log Studio 4.76 : GeoProvider

~Well
STRT.         2548.0 : Start depth
STOP.         2734.0 : Stop depth
STEP.              1 : Step
NULL.        -999.25 : No-value
COMP.                : Company
WELL. 6609/11-1      : Well
FLD .                : Field
LOC .                : Location
LATI.                : Latitude
LONG.                : Longitude
GDAT.                : Geodetic datum
CNTY.                : County
STAT.                : State
CTRY.                : Country
SRVC. GeoProvider AS : Service company
DATE.                : Date
API .                : API number
RUN .                : Run number

~Parameters
WellboreName.  : Wellbore name
RigName     .  : Rig name
StartDate   .  : Start date

~Curves
DEPTH.m            .  : null {F}Depth mMD
Hole_ID.-          .  : null {S}Hole ID
GR.API             .  : null {F}Gamma Ray
Lithology1.-       .  : null {S}Lithology 1
Lithology2.-       .  : null {S}Lithology 2
Lithology3.-       .  : null {S}Lithology 3
Lithology1.%       .  : null {F}Lithology 1 percentage
Lithology2.%       .  : null {F}Lithology 2 percentage
Lithology3.%       .  : null {F}Lithology 3 percentage
Grain_size_Top.-   .  : null {S}Grain size at the top 
Grain_size_Base.-  .  : null {S}Grain size at the bottom
Sub_Environment.-  .  : null {S}Sub Environment
Gross_Environment.-.  : null {S}Gross Environment

~Ascii
# ...
2723.6 "6609_11-1" 68.23000 "Sandstone" -999.25 -999.25 100.0000      0.0     0.0 "f"     "f"     "PROXIMAL_MOUTHBAR_HIGH_SEDIMENT_DISCHARGE_RAPID_DEPOSITION" "PROGRADING_DELTA_FRONT"         
2723.7 "6609_11-1" 67.61000 "Sandstone" -999.25 -999.25 100.0000      0.0     0.0 "f"     "f"     "PROXIMAL_MOUTHBAR_HIGH_SEDIMENT_DISCHARGE_RAPID_DEPOSITION" "PROGRADING_DELTA_FRONT"         
2723.8 "6609_11-1" 67.00000 "Sandstone" -999.25 -999.25 100.0000      0.0     0.0 "f"     "f"     "PROXIMAL_MOUTHBAR_HIGH_SEDIMENT_DISCHARGE_RAPID_DEPOSITION" "PROGRADING_DELTA_FRONT"         
2723.9 "6609_11-1" 66.38000 "Sandstone" -999.25 -999.25 100.0000      0.0     0.0 "f"     "f"     "PROXIMAL_MOUTHBAR_HIGH_SEDIMENT_DISCHARGE_RAPID_DEPOSITION" "PROGRADING_DELTA_FRONT"         
2724.0 "6609_11-1" 65.86000 "Sandstone" -999.25 -999.25 100.0000      0.0     0.0 "f"     "f"     "PROXIMAL_MOUTHBAR_HIGH_SEDIMENT_DISCHARGE_RAPID_DEPOSITION" "PROGRADING_DELTA_FRONT"         
2724.1 "6609_11-1" 66.78000 "Sandstone" -999.25 -999.25 100.0000      0.0     0.0 "f"     "f"     "PROXIMAL_MOUTHBAR_HIGH_SEDIMENT_DISCHARGE_RAPID_DEPOSITION" "PROGRADING_DELTA_FRONT"         
2724.2 "6609_11-1" 67.69000 "Sandstone" -999.25 -999.25 100.0000      0.0     0.0 "f"     "f"     "PROXIMAL_MOUTHBAR_HIGH_SEDIMENT_DISCHARGE_RAPID_DEPOSITION" "PROGRADING_DELTA_FRONT"         
2724.3 "6609_11-1" 68.61000 "Sandstone" -999.25 -999.25 100.0000      0.0     0.0 "f"     "f"     "PROXIMAL_MOUTHBAR_HIGH_SEDIMENT_DISCHARGE_RAPID_DEPOSITION" "PROGRADING_DELTA_FRONT"         
2724.4 "6609_11-1" 69.52000 "Sandstone" -999.25 -999.25 100.0000      0.0     0.0 "f"     "f"     "PROXIMAL_MOUTHBAR_HIGH_SEDIMENT_DISCHARGE_RAPID_DEPOSITION" "PROGRADING_DELTA_FRONT"         
2724.5 "6609_11-1" 70.43000 "Sandstone" -999.25 -999.25 100.0000      0.0     0.0 "f"     "f"     "PROXIMAL_MOUTHBAR_HIGH_SEDIMENT_DISCHARGE_RAPID_DEPOSITION" "PROGRADING_DELTA_FRONT"         
2724.6 "6609_11-1" 70.62000 "Sandstone" -999.25 -999.25 100.0000      0.0     0.0 "f"     "f"     "PROXIMAL_MOUTHBAR_HIGH_SEDIMENT_DISCHARGE_RAPID_DEPOSITION" "PROGRADING_DELTA_FRONT"         
2724.7 "6609_11-1" 70.13000 "Sandstone" -999.25 -999.25 100.0000      0.0     0.0 "f"     "f"     "PROXIMAL_MOUTHBAR_HIGH_SEDIMENT_DISCHARGE_RAPID_DEPOSITION" "PROGRADING_DELTA_FRONT"         
2724.8 "6609_11-1" 69.64000 "Sandstone" -999.25 -999.25 100.0000      0.0     0.0 "m"     "f"     "PROXIMAL_MOUTHBAR_HIGH_SEDIMENT_DISCHARGE_RAPID_DEPOSITION" "PROGRADING_DELTA_FRONT"         
2724.9 "6609_11-1" 69.15000 "Sandstone" -999.25 -999.25 100.0000      0.0     0.0 "m"     "f"     "PROXIMAL_MOUTHBAR_HIGH_SEDIMENT_DISCHARGE_RAPID_DEPOSITION" "PROGRADING_DELTA_FRONT"         
2725.0 "6609_11-1" 68.66000 "Sandstone" -999.25 -999.25 100.0000      0.0     0.0 "m"     "f"     "PROXIMAL_MOUTHBAR_HIGH_SEDIMENT_DISCHARGE_RAPID_DEPOSITION" "PROGRADING_DELTA_FRONT"         
2725.1 "6609_11-1" 68.17000 "Sandstone" -999.25 -999.25 100.0000      0.0     0.0 "m"     "f"     "PROXIMAL_MOUTHBAR_HIGH_SEDIMENT_DISCHARGE_RAPID_DEPOSITION" "PROGRADING_DELTA_FRONT"         
2725.2 "6609_11-1" 67.68000 "Sandstone" -999.25 -999.25 100.0000      0.0     0.0 "m"     "f"     "PROXIMAL_MOUTHBAR_HIGH_SEDIMENT_DISCHARGE_RAPID_DEPOSITION" "PROGRADING_DELTA_FRONT"         
2725.3 "6609_11-1" 67.19000 "Sandstone" -999.25 -999.25 100.0000      0.0     0.0 "m"     "f"     "PROXIMAL_MOUTHBAR_HIGH_SEDIMENT_DISCHARGE_RAPID_DEPOSITION" "PROGRADING_DELTA_FRONT"         
2725.4 "6609_11-1" 66.70000 "Sandstone" -999.25 -999.25 100.0000      0.0     0.0 "m"     "f"     "PROXIMAL_MOUTHBAR_HIGH_SEDIMENT_DISCHARGE_RAPID_DEPOSITION" "PROGRADING_DELTA_FRONT"         
2725.5 "6609_11-1" 66.21000 "Sandstone" -999.25 -999.25 100.0000      0.0     0.0 "m"     "f"     "PROXIMAL_MOUTHBAR_HIGH_SEDIMENT_DISCHARGE_RAPID_DEPOSITION" "PROGRADING_DELTA_FRONT"         
2725.6 "6609_11-1" 65.72000 "Sandstone" -999.25 -999.25 100.0000      0.0     0.0 "m"     "f"     "PROXIMAL_MOUTHBAR_HIGH_SEDIMENT_DISCHARGE_RAPID_DEPOSITION" "PROGRADING_DELTA_FRONT"         
2725.7 "6609_11-1" 65.23000 "Sandstone" -999.25 -999.25 100.0000      0.0     0.0 "f"     "f"     "PROXIMAL_MOUTHBAR_HIGH_SEDIMENT_DISCHARGE_RAPID_DEPOSITION" "PROGRADING_DELTA_FRONT"         
2725.8 "6609_11-1" 64.80000 "Sandstone" -999.25 -999.25 100.0000      0.0     0.0 "f"     "f"     "PROXIMAL_MOUTHBAR_HIGH_SEDIMENT_DISCHARGE_RAPID_DEPOSITION" "PROGRADING_DELTA_FRONT"         
2725.9 "6609_11-1" 64.88000 "Sandstone" -999.25 -999.25 100.0000      0.0     0.0 "f"     "f"     "PROXIMAL_MOUTHBAR_HIGH_SEDIMENT_DISCHARGE_RAPID_DEPOSITION" "PROGRADING_DELTA_FRONT"         
2726.0 "6609_11-1" 64.96000 "Sandstone" -999.25 -999.25 100.0000      0.0     0.0 "f"     "f"     "PROXIMAL_MOUTHBAR_HIGH_SEDIMENT_DISCHARGE_RAPID_DEPOSITION" "PROGRADING_DELTA_FRONT"         
2726.1 "6609_11-1" 65.04000 "Sandstone" -999.25 -999.25 100.0000      0.0     0.0 "f"     "f"     "PROXIMAL_MOUTHBAR_HIGH_SEDIMENT_DISCHARGE_RAPID_DEPOSITION" "PROGRADING_DELTA_FRONT"         
2726.2 "6609_11-1" 65.12000 "Sandstone" -999.25 -999.25 100.0000      0.0     0.0 "f"     "f"     "PROXIMAL_MOUTHBAR_HIGH_SEDIMENT_DISCHARGE_RAPID_DEPOSITION" "PROGRADING_DELTA_FRONT"         
2726.3 "6609_11-1" 65.24000 "Sandstone" -999.25 -999.25 100.0000      0.0     0.0 "f"     "f"     "PROXIMAL_MOUTHBAR_HIGH_SEDIMENT_DISCHARGE_RAPID_DEPOSITION" "PROGRADING_DELTA_FRONT"         
2726.4 "6609_11-1" 65.74000 "Sandstone" -999.25 -999.25 100.0000      0.0     0.0 "f"     "f"     "PROXIMAL_MOUTHBAR_HIGH_SEDIMENT_DISCHARGE_RAPID_DEPOSITION" "PROGRADING_DELTA_FRONT"         
2726.5 "6609_11-1" 66.24000 "Sandstone" -999.25 -999.25 100.0000      0.0     0.0 "f"     "f"     "PROXIMAL_MOUTHBAR_HIGH_SEDIMENT_DISCHARGE_RAPID_DEPOSITION" "PROGRADING_DELTA_FRONT"         
2726.6 "6609_11-1" 66.74000 "Sandstone" -999.25 -999.25 100.0000      0.0     0.0 "f"     "f"     "PROXIMAL_MOUTHBAR_HIGH_SEDIMENT_DISCHARGE_RAPID_DEPOSITION" "PROGRADING_DELTA_FRONT"         
2726.7 "6609_11-1" 67.23000 "Sandstone" -999.25 -999.25 100.0000      0.0     0.0 "f"     "f"     "PROXIMAL_MOUTHBAR_HIGH_SEDIMENT_DISCHARGE_RAPID_DEPOSITION" "PROGRADING_DELTA_FRONT"         
2726.8 "6609_11-1" 67.73000 "Sandstone" -999.25 -999.25 100.0000      0.0     0.0 "f"     "f"     "PROXIMAL_MOUTHBAR_HIGH_SEDIMENT_DISCHARGE_RAPID_DEPOSITION" "PROGRADING_DELTA_FRONT"         
2726.9 "6609_11-1" 68.23000 "Sandstone" -999.25 -999.25 100.0000      0.0     0.0 "f"     "f"     "PROXIMAL_MOUTHBAR_HIGH_SEDIMENT_DISCHARGE_RAPID_DEPOSITION" "PROGRADING_DELTA_FRONT"         
2727.0 "6609_11-1" 68.73000 "Sandstone" -999.25 -999.25 100.0000      0.0     0.0 "f"     "f"     "PROXIMAL_MOUTHBAR_HIGH_SEDIMENT_DISCHARGE_RAPID_DEPOSITION" "PROGRADING_DELTA_FRONT"         
2727.1 "6609_11-1" 69.23000 "Sandstone" -999.25 -999.25 100.0000      0.0     0.0 "f"     "f"     "PROXIMAL_MOUTHBAR_HIGH_SEDIMENT_DISCHARGE_RAPID_DEPOSITION" "PROGRADING_DELTA_FRONT"         
2727.2 "6609_11-1" 69.73000 "Sandstone" -999.25 -999.25 100.0000      0.0     0.0 "f"     "f"     "PROXIMAL_MOUTHBAR_HIGH_SEDIMENT_DISCHARGE_RAPID_DEPOSITION" "PROGRADING_DELTA_FRONT"         
2727.3 "6609_11-1" 69.92000 "Sandstone" -999.25 -999.25 100.0000      0.0     0.0 "f"     "f"     "PROXIMAL_MOUTHBAR_HIGH_SEDIMENT_DISCHARGE_RAPID_DEPOSITION" "PROGRADING_DELTA_FRONT"         
2727.4 "6609_11-1" 69.46000 "Sandstone" -999.25 -999.25 100.0000      0.0     0.0 "f"     "f"     "PROXIMAL_MOUTHBAR_HIGH_SEDIMENT_DISCHARGE_RAPID_DEPOSITION" "PROGRADING_DELTA_FRONT"         
2727.5 "6609_11-1" 69.01000 "Sandstone" -999.25 -999.25 100.0000      0.0     0.0 "f"     "f"     "PROXIMAL_MOUTHBAR_HIGH_SEDIMENT_DISCHARGE_RAPID_DEPOSITION" "PROGRADING_DELTA_FRONT"         
2727.6 "6609_11-1" 68.55000 "Sandstone" "Shale" -999.25  95.0000  5.00000     0.0 "f"     "f"     "PROXIMAL_MOUTHBAR_HIGH_SEDIMENT_DISCHARGE_RAPID_DEPOSITION" "PROGRADING_DELTA_FRONT"         
2727.7 "6609_11-1" 68.09000 "Sandstone" "Shale" -999.25  95.0000  5.00000     0.0 "f"     "f"     "PROXIMAL_MOUTHBAR_HIGH_SEDIMENT_DISCHARGE_RAPID_DEPOSITION" "PROGRADING_DELTA_FRONT"         
