~Version
VERS  .                                 3.0 : CWLS LAS ASCII Standard - Version 3.0
WRAP  . NO                                  : One line per depth step
DLM   . SPACE                               : Column data section delimiter
SOURCE. Converted to LAS by Log Studio 4.76 : GeoProvider

~Well
STRT.         4370.0 : Start depth
STOP.         4658.9 : Stop depth
STEP.              1 : Step
NULL.        -999.25 : No-value
COMP.                : Company
WELL. 6406/8-1       : Well
FLD .                : Field
LOC .                : Location
LATI.                : Latitude
LONG.                : Longitude
GDAT.                : Geodetic datum
CNTY.                : County
STAT.                : State
CTRY.                : Country
SRVC. GeoProvider AS : Service company
DATE.                : Date
API .                : API number
RUN .                : Run number

~Parameters
WellboreName.  : Wellbore name
RigName     .  : Rig name
StartDate   .  : Start date

~Curves
DEPTH.m            .  : null {F}Depth mMD
Hole_ID.-          .  : null {S}Hole ID
GR.API             .  : null {F}Gamma Ray
Lithology1.-       .  : null {S}Lithology 1
Lithology2.-       .  : null {S}Lithology 2
Lithology3.-       .  : null {S}Lithology 3
Lithology1.%       .  : null {F}Lithology 1 percentage
Lithology2.%       .  : null {F}Lithology 2 percentage
Lithology3.%       .  : null {F}Lithology 3 percentage
Grain_size_Top.-   .  : null {S}Grain size at the top 
Grain_size_Base.-  .  : null {S}Grain size at the bottom
Sub_Environment.-  .  : null {S}Sub Environment
Gross_Environment.-.  : null {S}Gross Environment

~Ascii
# ...
4470.5 "6406_8-1"  25.8700 "Sandstone" "Shale"   "Limestone"  40.0000 20.00000 40.00000 "m"       "f/m"     "Tidal_inlet_and_(flood?)_tidal_delta"                                                                                          "PROGRADING_TIDE-DOMINATED_COASTLINE"                                                                                        
4470.6 "6406_8-1"  24.8000 "Sandstone" "Shale"   "Limestone"  40.0000 20.00000 40.00000 "m"       "f/m"     "Tidal_inlet_and_(flood?)_tidal_delta"                                                                                          "PROGRADING_TIDE-DOMINATED_COASTLINE"                                                                                        
4470.7 "6406_8-1"  24.2800 "Sandstone" "Shale"   "Limestone"  40.0000 20.00000 40.00000 "m"       "f/m"     "Tidal_inlet_and_(flood?)_tidal_delta"                                                                                          "PROGRADING_TIDE-DOMINATED_COASTLINE"                                                                                        
4470.8 "6406_8-1"  23.7600 "Sandstone" "Shale"   "Limestone"  40.0000 20.00000 40.00000 "m"       "f/m"     "Tidal_inlet_and_(flood?)_tidal_delta"                                                                                          "PROGRADING_TIDE-DOMINATED_COASTLINE"                                                                                        
4470.9 "6406_8-1"  23.3000 "Sandstone" "Shale"   "Limestone"  40.0000 20.00000 40.00000 "m"       "f/m"     "Tidal_inlet_and_(flood?)_tidal_delta"                                                                                          "PROGRADING_TIDE-DOMINATED_COASTLINE"                                                                                        
4471.0 "6406_8-1"  23.4000 "Sandstone" "Shale"   "Limestone"  40.0000 20.00000 40.00000 "m"       "f/m"     "Tidal_inlet_and_(flood?)_tidal_delta"                                                                                          "PROGRADING_TIDE-DOMINATED_COASTLINE"                                                                                        
4471.1 "6406_8-1"  23.4900 "Sandstone" "Shale"   "Limestone"  40.0000 20.00000 40.00000 "m"       "f/m"     "Tidal_inlet_and_(flood?)_tidal_delta"                                                                                          "PROGRADING_TIDE-DOMINATED_COASTLINE"                                                                                        
4471.2 "6406_8-1"  23.8000 "Sandstone" "Shale"   "Limestone"  40.0000 20.00000 40.00000 "m"       "f/m"     "Tidal_inlet_and_(flood?)_tidal_delta"                                                                                          "PROGRADING_TIDE-DOMINATED_COASTLINE"                                                                                        
4471.3 "6406_8-1"  24.1600 "Sandstone" "Shale"   "Limestone"  40.0000 20.00000 40.00000 "m"       "f/m"     "Tidal_inlet_and_(flood?)_tidal_delta"                                                                                          "PROGRADING_TIDE-DOMINATED_COASTLINE"                                                                                        
4471.4 "6406_8-1"  24.2800 "Sandstone" "Shale"   "Limestone"  40.0000 20.00000 40.00000 "m"       "f/m"     "Tidal_inlet_and_(flood?)_tidal_delta"                                                                                          "PROGRADING_TIDE-DOMINATED_COASTLINE"                                                                                        
4471.5 "6406_8-1"  24.3800 "Sandstone" "Shale"   "Limestone"  40.0000 20.00000 40.00000 "m"       "f/m"     "Tidal_inlet_and_(flood?)_tidal_delta"                                                                                          "PROGRADING_TIDE-DOMINATED_COASTLINE"                                                                                        
4471.6 "6406_8-1"  23.4100 "Sandstone" "Shale"   "Limestone"  40.0000 20.00000 40.00000 "m"       "f/m"     "Tidal_inlet_and_(flood?)_tidal_delta"                                                                                          "PROGRADING_TIDE-DOMINATED_COASTLINE"                                                                                        
4471.7 "6406_8-1"  22.7800 "Sandstone" "Shale"   "Limestone"  40.0000 20.00000 40.00000 "m"       "f/m"     "Tidal_inlet_and_(flood?)_tidal_delta"                                                                                          "PROGRADING_TIDE-DOMINATED_COASTLINE"                                                                                        
4471.8 "6406_8-1"  24.0000 "Sandstone" "Shale"   "Limestone"  40.0000 20.00000 40.00000 "m"       "f/m"     "Tidal_inlet_and_(flood?)_tidal_delta"                                                                                          "PROGRADING_TIDE-DOMINATED_COASTLINE"                                                                                        
4471.9 "6406_8-1"  25.8000 "Sandstone" "Shale"   "Limestone"  40.0000 20.00000 40.00000 "m"       "f/m"     "Tidal_inlet_and_(flood?)_tidal_delta"                                                                                          "PROGRADING_TIDE-DOMINATED_COASTLINE"                                                                                        
4472.0 "6406_8-1"  27.1600 "Sandstone" "Shale"   "Limestone"  40.0000 20.00000 40.00000 "m"       "f/m"     "Tidal_inlet_and_(flood?)_tidal_delta"                                                                                          "PROGRADING_TIDE-DOMINATED_COASTLINE"                                                                                        
4472.1 "6406_8-1"  27.6900 "Sandstone" "Shale"   "Limestone"  40.0000 20.00000 40.00000 "m"       "f/m"     "Tidal_inlet_and_(flood?)_tidal_delta"                                                                                          "PROGRADING_TIDE-DOMINATED_COASTLINE"                                                                                        
4472.2 "6406_8-1"  28.2200 "Sandstone" "Shale"   "Limestone"  40.0000 20.00000 40.00000 "m"       "f/m"     "Tidal_inlet_and_(flood?)_tidal_delta"                                                                                          "PROGRADING_TIDE-DOMINATED_COASTLINE"                                                                                        
4472.3 "6406_8-1"  28.6900 "Sandstone" "Shale"   "Limestone"  40.0000 20.00000 40.00000 "m"       "f/m"     "Tidal_inlet_and_(flood?)_tidal_delta"                                                                                          "PROGRADING_TIDE-DOMINATED_COASTLINE"                                                                                        
4472.4 "6406_8-1"  29.0300 "Sandstone" "Shale"   "Limestone"  40.0000 20.00000 40.00000 "m"       "f/m"     "Tidal_inlet_and_(flood?)_tidal_delta"                                                                                          "PROGRADING_TIDE-DOMINATED_COASTLINE"                                                                                        
4472.5 "6406_8-1"  29.3800 "Sandstone" "Shale"   "Limestone"  40.0000 20.00000 40.00000 "m"       "f/m"     "Tidal_inlet_and_(flood?)_tidal_delta"                                                                                          "PROGRADING_TIDE-DOMINATED_COASTLINE"                                                                                        
4472.6 "6406_8-1"  30.2100 "Sandstone" "Shale"   "Limestone"  40.0000 20.00000 40.00000 "m"       "f/m"     "Tidal_inlet_and_(flood?)_tidal_delta"                                                                                          "PROGRADING_TIDE-DOMINATED_COASTLINE"                                                                                        
4472.7 "6406_8-1"  31.2700 "Sandstone" "Shale"   "Limestone"  40.0000 20.00000 40.00000 "m"       "f/m"     "Tidal_inlet_and_(flood?)_tidal_delta"                                                                                          "PROGRADING_TIDE-DOMINATED_COASTLINE"                                                                                        
