~Version
VERS  .                                 3.0 : CWLS LAS ASCII Standard - Version 3.0
WRAP  . NO                                  : One line per depth step
DLM   . SPACE                               : Column data section delimiter
SOURCE. Converted to LAS by Log Studio 4.76 : GeoProvider

~Well
STRT.         4370.0 : Start depth
STOP.         4658.9 : Stop depth
STEP.              1 : Step
NULL.        -999.25 : No-value
COMP.                : Company
WELL. 6406/8-1       : Well
FLD .                : Field
LOC .                : Location
LATI.                : Latitude
LONG.                : Longitude
GDAT.                : Geodetic datum
CNTY.                : County
STAT.                : State
CTRY.                : Country
SRVC. GeoProvider AS : Service company
DATE.                : Date
API .                : API number
RUN .                : Run number

~Parameters
WellboreName.  : Wellbore name
RigName     .  : Rig name
StartDate   .  : Start date

~Curves
DEPTH.m            .  : null {F}Depth mMD
Hole_ID.-          .  : null {S}Hole ID
GR.API             .  : null {F}Gamma Ray
Lithology1.-       .  : null {S}Lithology 1
Lithology2.-       .  : null {S}Lithology 2
Lithology3.-       .  : null {S}Lithology 3
Lithology1.%       .  : null {F}Lithology 1 percentage
Lithology2.%       .  : null {F}Lithology 2 percentage
Lithology3.%       .  : null {F}Lithology 3 percentage
Grain_size_Top.-   .  : null {S}Grain size at the top 
Grain_size_Base.-  .  : null {S}Grain size at the bottom
Sub_Environment.-  .  : null {S}Sub Environment
Gross_Environment.-.  : null {S}Gross Environment

~Ascii
# ...
4484.3 "6406_8-1"  15.6000 "Sandstone" "Limestone" "Shale"    45.0000 20.00000 35.00000 "silt/vf" "m"       "Tidal_influenced_upper_shoreface_and_foreshore._Rapid_fluctuatuons_in_energy_level._Tidal_sandflat."                           "TIDAL_INFLUENCED_PROGRADING_SHORELINE_SYSTEM"                                                                               
4484.4 "6406_8-1"  14.1700 "Sandstone" "Limestone" "Shale"    45.0000 20.00000 35.00000 "silt/vf" "m"       "Tidal_influenced_upper_shoreface_and_foreshore._Rapid_fluctuatuons_in_energy_level._Tidal_sandflat."                           "TIDAL_INFLUENCED_PROGRADING_SHORELINE_SYSTEM"                                                                               
4484.5 "6406_8-1"  12.7300 "Sandstone" "Limestone" "Shale"    45.0000 20.00000 35.00000 "silt/vf" "m"       "Tidal_influenced_upper_shoreface_and_foreshore._Rapid_fluctuatuons_in_energy_level._Tidal_sandflat."                           "TIDAL_INFLUENCED_PROGRADING_SHORELINE_SYSTEM"                                                                               
4484.6 "6406_8-1"  11.3000 "Sandstone" "Limestone" "Shale"    45.0000 20.00000 35.00000 "silt/vf" "m"       "Tidal_influenced_upper_shoreface_and_foreshore._Rapid_fluctuatuons_in_energy_level._Tidal_sandflat."                           "TIDAL_INFLUENCED_PROGRADING_SHORELINE_SYSTEM"                                                                               
4484.7 "6406_8-1"   9.8800 "Sandstone" "Limestone" "Shale"    45.0000 20.00000 35.00000 "silt/vf" "m"       "Tidal_influenced_upper_shoreface_and_foreshore._Rapid_fluctuatuons_in_energy_level._Tidal_sandflat."                           "TIDAL_INFLUENCED_PROGRADING_SHORELINE_SYSTEM"                                                                               
4484.8 "6406_8-1"   9.7400 "Sandstone" "Limestone" "Shale"    45.0000 20.00000 35.00000 "silt/vf" "m"       "Tidal_influenced_upper_shoreface_and_foreshore._Rapid_fluctuatuons_in_energy_level._Tidal_sandflat."                           "TIDAL_INFLUENCED_PROGRADING_SHORELINE_SYSTEM"                                                                               
4484.9 "6406_8-1"  10.2900 "Sandstone" "Limestone" "Shale"    45.0000 20.00000 35.00000 "silt/vf" "m"       "Tidal_influenced_upper_shoreface_and_foreshore._Rapid_fluctuatuons_in_energy_level._Tidal_sandflat."                           "TIDAL_INFLUENCED_PROGRADING_SHORELINE_SYSTEM"                                                                               
4485.0 "6406_8-1"  12.0800 "Sandstone" "Limestone" "Shale"    45.0000 20.00000 35.00000 "silt/vf" "m"       "Tidal_influenced_upper_shoreface_and_foreshore._Rapid_fluctuatuons_in_energy_level._Tidal_sandflat."                           "TIDAL_INFLUENCED_PROGRADING_SHORELINE_SYSTEM"                                                                               
4485.1 "6406_8-1"  12.8600 "Sandstone" "Limestone" "Shale"    45.0000 20.00000 35.00000 "silt/vf" "m"       "Tidal_influenced_upper_shoreface_and_foreshore._Rapid_fluctuatuons_in_energy_level._Tidal_sandflat."                           "TIDAL_INFLUENCED_PROGRADING_SHORELINE_SYSTEM"                                                                               
4485.2 "6406_8-1"  13.3100 "Sandstone" "Limestone" "Shale"    45.0000 20.00000 35.00000 "silt/vf" "m"       "Tidal_influenced_upper_shoreface_and_foreshore._Rapid_fluctuatuons_in_energy_level._Tidal_sandflat."                           "TIDAL_INFLUENCED_PROGRADING_SHORELINE_SYSTEM"                                                                               
4485.3 "6406_8-1"  12.3900 "Sandstone" "Limestone" "Shale"    45.0000 20.00000 35.00000 "silt/vf" "m"       "Tidal_influenced_upper_shoreface_and_foreshore._Rapid_fluctuatuons_in_energy_level._Tidal_sandflat."                           "TIDAL_INFLUENCED_PROGRADING_SHORELINE_SYSTEM"                                                                               
4485.4 "6406_8-1"  11.3500 "Sandstone" "Limestone" "Shale"    45.0000 20.00000 35.00000 "silt/vf" "m"       "Tidal_influenced_upper_shoreface_and_foreshore._Rapid_fluctuatuons_in_energy_level._Tidal_sandflat."                           "TIDAL_INFLUENCED_PROGRADING_SHORELINE_SYSTEM"                                                                               
4485.5 "6406_8-1"  10.9200 "Sandstone" "Limestone" "Shale"    45.0000 20.00000 35.00000 "silt/vf" "m"       "Tidal_influenced_upper_shoreface_and_foreshore._Rapid_fluctuatuons_in_energy_level._Tidal_sandflat."                           "TIDAL_INFLUENCED_PROGRADING_SHORELINE_SYSTEM"                                                                               
4485.6 "6406_8-1"  10.8300 "Sandstone" "Limestone" "Shale"    45.0000 20.00000 35.00000 "silt/vf" "m"       "Tidal_influenced_upper_shoreface_and_foreshore._Rapid_fluctuatuons_in_energy_level._Tidal_sandflat."                           "TIDAL_INFLUENCED_PROGRADING_SHORELINE_SYSTEM"                                                                               
4485.7 "6406_8-1"  11.2200 "Sandstone" "Limestone" "Shale"    45.0000 20.00000 35.00000 "silt/vf" "m"       "Tidal_influenced_upper_shoreface_and_foreshore._Rapid_fluctuatuons_in_energy_level._Tidal_sandflat."                           "TIDAL_INFLUENCED_PROGRADING_SHORELINE_SYSTEM"                                                                               
4485.8 "6406_8-1"  12.5200 "Sandstone" "Limestone" "Shale"    45.0000 20.00000 35.00000 "silt/vf" "m"       "Tidal_influenced_upper_shoreface_and_foreshore._Rapid_fluctuatuons_in_energy_level._Tidal_sandflat."                           "TIDAL_INFLUENCED_PROGRADING_SHORELINE_SYSTEM"                                                                               
4485.9 "6406_8-1"  14.5600 "Sandstone" "Limestone" "Shale"    45.0000 20.00000 35.00000 "silt/vf" "m"       "Tidal_influenced_upper_shoreface_and_foreshore._Rapid_fluctuatuons_in_energy_level._Tidal_sandflat."                           "TIDAL_INFLUENCED_PROGRADING_SHORELINE_SYSTEM"                                                                               
4486.0 "6406_8-1"  17.4400 "Sandstone" "Limestone" "Shale"    45.0000 20.00000 35.00000 "silt/vf" "m"       "Tidal_influenced_upper_shoreface_and_foreshore._Rapid_fluctuatuons_in_energy_level._Tidal_sandflat."                           "TIDAL_INFLUENCED_PROGRADING_SHORELINE_SYSTEM"                                                                               
4486.1 "6406_8-1"  18.9400 "Sandstone" "Limestone" "Shale"    45.0000 20.00000 35.00000 "silt/vf" "m"       "Tidal_influenced_upper_shoreface_and_foreshore._Rapid_fluctuatuons_in_energy_level._Tidal_sandflat."                           "TIDAL_INFLUENCED_PROGRADING_SHORELINE_SYSTEM"                                                                               
4486.2 "6406_8-1"  19.1400 "Sandstone" "Limestone" "Shale"    45.0000 20.00000 35.00000 "silt/vf" "m"       "Tidal_influenced_upper_shoreface_and_foreshore._Rapid_fluctuatuons_in_energy_level._Tidal_sandflat."                           "TIDAL_INFLUENCED_PROGRADING_SHORELINE_SYSTEM"                                                                               
4486.3 "6406_8-1"  19.3400 "Sandstone" "Limestone" "Shale"    45.0000 20.00000 35.00000 "silt/vf" "m"       "Tidal_influenced_upper_shoreface_and_foreshore._Rapid_fluctuatuons_in_energy_level._Tidal_sandflat."                           "TIDAL_INFLUENCED_PROGRADING_SHORELINE_SYSTEM"                                                                               
4486.4 "6406_8-1"  19.5300 "Sandstone" "Limestone" "Shale"    45.0000 20.00000 35.00000 "silt/vf" "m"       "Tidal_influenced_upper_shoreface_and_foreshore._Rapid_fluctuatuons_in_energy_level._Tidal_sandflat."                           "TIDAL_INFLUENCED_PROGRADING_SHORELINE_SYSTEM"                                                                               
4486.5 "6406_8-1"  19.6700 "Sandstone" "Limestone" "Shale"    45.0000 20.00000 35.00000 "silt/vf" "m"       "Tidal_influenced_upper_shoreface_and_foreshore._Rapid_fluctuatuons_in_energy_level._Tidal_sandflat."                           "TIDAL_INFLUENCED_PROGRADING_SHORELINE_SYSTEM"                                                                               
