~Version
VERS  .                                 3.0 : CWLS LAS ASCII Standard - Version 3.0
WRAP  . NO                                  : One line per depth step
DLM   . SPACE                               : Column data section delimiter
SOURCE. Converted to LAS by Log Studio 4.76 : GeoProvider

~Well
STRT.         4370.0 : Start depth
STOP.         4658.9 : Stop depth
STEP.              1 : Step
NULL.        -999.25 : No-value
COMP.                : Company
WELL. 6406/8-1       : Well
FLD .                : Field
LOC .                : Location
LATI.                : Latitude
LONG.                : Longitude
GDAT.                : Geodetic datum
CNTY.                : County
STAT.                : State
CTRY.                : Country
SRVC. GeoProvider AS : Service company
DATE.                : Date
API .                : API number
RUN .                : Run number

~Parameters
WellboreName.  : Wellbore name
RigName     .  : Rig name
StartDate   .  : Start date

~Curves
DEPTH.m            .  : null {F}Depth mMD
Hole_ID.-          .  : null {S}Hole ID
GR.API             .  : null {F}Gamma Ray
Lithology1.-       .  : null {S}Lithology 1
Lithology2.-       .  : null {S}Lithology 2
Lithology3.-       .  : null {S}Lithology 3
Lithology1.%       .  : null {F}Lithology 1 percentage
Lithology2.%       .  : null {F}Lithology 2 percentage
Lithology3.%       .  : null {F}Lithology 3 percentage
Grain_size_Top.-   .  : null {S}Grain size at the top 
Grain_size_Base.-  .  : null {S}Grain size at the bottom
Sub_Environment.-  .  : null {S}Sub Environment
Gross_Environment.-.  : null {S}Gross Environment

~Ascii
# ...
4626.9 "6406_8-1"  -999.25 -999.25   -999.25   -999.25   100.0000      0.0      0.0 -999.25   -999.25   "Fallout_of_suspended_material_in_quiet_deepwater_conditions."                                                                  "OFFSHORE_MARINE"                                                                                                            
4627.0 "6406_8-1"  -999.25 -999.25   -999.25   -999.25   100.0000      0.0      0.0 -999.25   -999.25   "Fallout_of_suspended_material_in_quiet_deepwater_conditions."                                                                  "OFFSHORE_MARINE"                                                                                                            
4627.1 "6406_8-1"  -999.25 -999.25   -999.25   -999.25   100.0000      0.0      0.0 -999.25   -999.25   "Fallout_of_suspended_material_in_quiet_deepwater_conditions."                                                                  "OFFSHORE_MARINE"                                                                                                            
4627.2 "6406_8-1"  -999.25 -999.25   -999.25   -999.25   100.0000      0.0      0.0 -999.25   -999.25   "Fallout_of_suspended_material_in_quiet_deepwater_conditions."                                                                  "OFFSHORE_MARINE"                                                                                                            
4627.3 "6406_8-1"  -999.25 -999.25   -999.25   -999.25   100.0000      0.0      0.0 -999.25   -999.25   "Fallout_of_suspended_material_in_quiet_deepwater_conditions."                                                                  "OFFSHORE_MARINE"                                                                                                            
4627.4 "6406_8-1"  -999.25 -999.25   -999.25   -999.25   100.0000      0.0      0.0 -999.25   -999.25   "Fallout_of_suspended_material_in_quiet_deepwater_conditions."                                                                  "OFFSHORE_MARINE"                                                                                                            
4627.5 "6406_8-1"  -999.25 -999.25   -999.25   -999.25   100.0000      0.0      0.0 -999.25   -999.25   "Fallout_of_suspended_material_in_quiet_deepwater_conditions."                                                                  "OFFSHORE_MARINE"                                                                                                            
4627.6 "6406_8-1"  -999.25 -999.25   -999.25   -999.25   100.0000      0.0      0.0 -999.25   -999.25   "Fallout_of_suspended_material_in_quiet_deepwater_conditions."                                                                  "OFFSHORE_MARINE"                                                                                                            
4627.7 "6406_8-1"  -999.25 -999.25   -999.25   -999.25   100.0000      0.0      0.0 -999.25   -999.25   "Fallout_of_suspended_material_in_quiet_deepwater_conditions."                                                                  "OFFSHORE_MARINE"                                                                                                            
4627.8 "6406_8-1"  -999.25 -999.25   -999.25   -999.25   100.0000      0.0      0.0 -999.25   -999.25   "Fallout_of_suspended_material_in_quiet_deepwater_conditions."                                                                  "OFFSHORE_MARINE"                                                                                                            
4627.9 "6406_8-1"  -999.25 -999.25   -999.25   -999.25   100.0000      0.0      0.0 -999.25   -999.25   "Fallout_of_suspended_material_in_quiet_deepwater_conditions."                                                                  "OFFSHORE_MARINE"                                                                                                            
4628.0 "6406_8-1"  -999.25 -999.25   -999.25   -999.25   100.0000      0.0      0.0 -999.25   -999.25   "Fallout_of_suspended_material_in_quiet_deepwater_conditions."                                                                  "OFFSHORE_MARINE"                                                                                                            
4628.1 "6406_8-1"  -999.25 -999.25   -999.25   -999.25   100.0000      0.0      0.0 -999.25   -999.25   "Fallout_of_suspended_material_in_quiet_deepwater_conditions."                                                                  "OFFSHORE_MARINE"                                                                                                            
4628.2 "6406_8-1"  -999.25 -999.25   -999.25   -999.25   100.0000      0.0      0.0 -999.25   -999.25   "Fallout_of_suspended_material_in_quiet_deepwater_conditions."                                                                  "OFFSHORE_MARINE"                                                                                                            
4628.3 "6406_8-1"  -999.25 -999.25   -999.25   -999.25   100.0000      0.0      0.0 -999.25   -999.25   "Fallout_of_suspended_material_in_quiet_deepwater_conditions."                                                                  "OFFSHORE_MARINE"                                                                                                            
4628.4 "6406_8-1"  -999.25 -999.25   -999.25   -999.25   100.0000      0.0      0.0 -999.25   -999.25   "Fallout_of_suspended_material_in_quiet_deepwater_conditions."                                                                  "OFFSHORE_MARINE"                                                                                                            
4628.5 "6406_8-1"  -999.25 -999.25   -999.25   -999.25   100.0000      0.0      0.0 -999.25   -999.25   "Fallout_of_suspended_material_in_quiet_deepwater_conditions."                                                                  "OFFSHORE_MARINE"                                                                                                            
4628.6 "6406_8-1"  -999.25 -999.25   -999.25   -999.25   100.0000      0.0      0.0 -999.25   -999.25   "Fallout_of_suspended_material_in_quiet_deepwater_conditions."                                                                  "OFFSHORE_MARINE"                                                                                                            
4628.7 "6406_8-1"  -999.25 -999.25   -999.25   -999.25   100.0000      0.0      0.0 -999.25   -999.25   "Fallout_of_suspended_material_in_quiet_deepwater_conditions."                                                                  "OFFSHORE_MARINE"                                                                                                            
4628.8 "6406_8-1"  -999.25 -999.25   -999.25   -999.25   100.0000      0.0      0.0 -999.25   -999.25   "Fallout_of_suspended_material_in_quiet_deepwater_conditions."                                                                  "OFFSHORE_MARINE"                                                                                                            
4628.9 "6406_8-1"  -999.25 -999.25   -999.25   -999.25   100.0000      0.0      0.0 -999.25   -999.25   "Fallout_of_suspended_material_in_quiet_deepwater_conditions."                                                                  "OFFSHORE_MARINE"                                                                                                            
4629.0 "6406_8-1"  -999.25 -999.25   -999.25   -999.25   100.0000      0.0      0.0 -999.25   -999.25   "Fallout_of_suspended_material_in_quiet_deepwater_conditions."                                                                  "OFFSHORE_MARINE"                                                                                                            
4629.1 "6406_8-1"  -999.25 -999.25   -999.25   -999.25   100.0000      0.0      0.0 -999.25   -999.25   "Fallout_of_suspended_material_in_quiet_deepwater_conditions."                                                                  "OFFSHORE_MARINE"                                                                                                            
