~Version
VERS  .                                 3.0 : CWLS LAS ASCII Standard - Version 3.0
WRAP  . NO                                  : One line per depth step
DLM   . SPACE                               : Column data section delimiter
SOURCE. Converted to LAS by Log Studio 4.76 : GeoProvider

~Well
STRT.         4370.0 : Start depth
STOP.         4658.9 : Stop depth
STEP.              1 : Step
NULL.        -999.25 : No-value
COMP.                : Company
WELL. 6406/8-1       : Well
FLD .                : Field
LOC .                : Location
LATI.                : Latitude
LONG.                : Longitude
GDAT.                : Geodetic datum
CNTY.                : County
STAT.                : State
CTRY.                : Country
SRVC. GeoProvider AS : Service company
DATE.                : Date
API .                : API number
RUN .                : Run number

~Parameters
WellboreName.  : Wellbore name
RigName     .  : Rig name
StartDate   .  : Start date

~Curves
DEPTH.m            .  : null {F}Depth mMD
Hole_ID.-          .  : null {S}Hole ID
GR.API             .  : null {F}Gamma Ray
Lithology1.-       .  : null {S}Lithology 1
Lithology2.-       .  : null {S}Lithology 2
Lithology3.-       .  : null {S}Lithology 3
Lithology1.%       .  : null {F}Lithology 1 percentage
Lithology2.%       .  : null {F}Lithology 2 percentage
Lithology3.%       .  : null {F}Lithology 3 percentage
Grain_size_Top.-   .  : null {S}Grain size at the top 
Grain_size_Base.-  .  : null {S}Grain size at the bottom
Sub_Environment.-  .  : null {S}Sub Environment
Gross_Environment.-.  : null {S}Gross Environment

~Ascii
# ...
4427.3 "6406_8-1"  33.6800 "Sandstone" -999.25   -999.25   100.0000      0.0      0.0 "f/m"     "c/vc"    "Upper_shore-face,_probably_dominated_by_longshore_bars_and_longshore_through_(wave-generated_currents)._High_sedimentation_rate" "CYCLIC_SHALLOW_MARINE_SEDIMENTATION,_WAVE_DOMINANCE_THE_CYCLICITY_IS_PROBABLY_DUE_TO_RAPID_FLUCTATIONS_IN_RELATIVE_SEA-LEVEL."
4427.4 "6406_8-1"  35.4000 "Sandstone" -999.25   -999.25   100.0000      0.0      0.0 "f/m"     "c/vc"    "Upper_shore-face,_probably_dominated_by_longshore_bars_and_longshore_through_(wave-generated_currents)._High_sedimentation_rate" "CYCLIC_SHALLOW_MARINE_SEDIMENTATION,_WAVE_DOMINANCE_THE_CYCLICITY_IS_PROBABLY_DUE_TO_RAPID_FLUCTATIONS_IN_RELATIVE_SEA-LEVEL."
4427.5 "6406_8-1"  35.8800 "Sandstone" -999.25   -999.25   100.0000      0.0      0.0 "f/m"     "c/vc"    "Upper_shore-face,_probably_dominated_by_longshore_bars_and_longshore_through_(wave-generated_currents)._High_sedimentation_rate" "CYCLIC_SHALLOW_MARINE_SEDIMENTATION,_WAVE_DOMINANCE_THE_CYCLICITY_IS_PROBABLY_DUE_TO_RAPID_FLUCTATIONS_IN_RELATIVE_SEA-LEVEL."
4427.6 "6406_8-1"  35.8800 "Sandstone" -999.25   -999.25   100.0000      0.0      0.0 "f/m"     "c/vc"    "Upper_shore-face,_probably_dominated_by_longshore_bars_and_longshore_through_(wave-generated_currents)._High_sedimentation_rate" "CYCLIC_SHALLOW_MARINE_SEDIMENTATION,_WAVE_DOMINANCE_THE_CYCLICITY_IS_PROBABLY_DUE_TO_RAPID_FLUCTATIONS_IN_RELATIVE_SEA-LEVEL."
4427.7 "6406_8-1"  35.5500 "Sandstone" -999.25   -999.25   100.0000      0.0      0.0 "f/m"     "c/vc"    "Upper_shore-face,_probably_dominated_by_longshore_bars_and_longshore_through_(wave-generated_currents)._High_sedimentation_rate" "CYCLIC_SHALLOW_MARINE_SEDIMENTATION,_WAVE_DOMINANCE_THE_CYCLICITY_IS_PROBABLY_DUE_TO_RAPID_FLUCTATIONS_IN_RELATIVE_SEA-LEVEL."
4427.8 "6406_8-1"  34.9300 "Sandstone" -999.25   -999.25   100.0000      0.0      0.0 "f/m"     "c/vc"    "Upper_shore-face,_probably_dominated_by_longshore_bars_and_longshore_through_(wave-generated_currents)._High_sedimentation_rate" "CYCLIC_SHALLOW_MARINE_SEDIMENTATION,_WAVE_DOMINANCE_THE_CYCLICITY_IS_PROBABLY_DUE_TO_RAPID_FLUCTATIONS_IN_RELATIVE_SEA-LEVEL."
4427.9 "6406_8-1"  33.9900 "Sandstone" -999.25   -999.25   100.0000      0.0      0.0 "f/m"     "c/vc"    "Upper_shore-face,_probably_dominated_by_longshore_bars_and_longshore_through_(wave-generated_currents)._High_sedimentation_rate" "CYCLIC_SHALLOW_MARINE_SEDIMENTATION,_WAVE_DOMINANCE_THE_CYCLICITY_IS_PROBABLY_DUE_TO_RAPID_FLUCTATIONS_IN_RELATIVE_SEA-LEVEL."
4428.0 "6406_8-1"  32.4200 "Sandstone" -999.25   -999.25   100.0000      0.0      0.0 "f/m"     "c/vc"    "Upper_shore-face,_probably_dominated_by_longshore_bars_and_longshore_through_(wave-generated_currents)._High_sedimentation_rate" "CYCLIC_SHALLOW_MARINE_SEDIMENTATION,_WAVE_DOMINANCE_THE_CYCLICITY_IS_PROBABLY_DUE_TO_RAPID_FLUCTATIONS_IN_RELATIVE_SEA-LEVEL."
4428.1 "6406_8-1"  30.2800 "Sandstone" -999.25   -999.25   100.0000      0.0      0.0 "f/m"     "c/vc"    "Upper_shore-face,_probably_dominated_by_longshore_bars_and_longshore_through_(wave-generated_currents)._High_sedimentation_rate" "CYCLIC_SHALLOW_MARINE_SEDIMENTATION,_WAVE_DOMINANCE_THE_CYCLICITY_IS_PROBABLY_DUE_TO_RAPID_FLUCTATIONS_IN_RELATIVE_SEA-LEVEL."
4428.2 "6406_8-1"  28.1000 "Sandstone" -999.25   -999.25   100.0000      0.0      0.0 "f/m"     "c/vc"    "Upper_shore-face,_probably_dominated_by_longshore_bars_and_longshore_through_(wave-generated_currents)._High_sedimentation_rate" "CYCLIC_SHALLOW_MARINE_SEDIMENTATION,_WAVE_DOMINANCE_THE_CYCLICITY_IS_PROBABLY_DUE_TO_RAPID_FLUCTATIONS_IN_RELATIVE_SEA-LEVEL."
4428.3 "6406_8-1"  25.5500 "Sandstone" -999.25   -999.25   100.0000      0.0      0.0 "f/m"     "c/vc"    "Upper_shore-face,_probably_dominated_by_longshore_bars_and_longshore_through_(wave-generated_currents)._High_sedimentation_rate" "CYCLIC_SHALLOW_MARINE_SEDIMENTATION,_WAVE_DOMINANCE_THE_CYCLICITY_IS_PROBABLY_DUE_TO_RAPID_FLUCTATIONS_IN_RELATIVE_SEA-LEVEL."
4428.4 "6406_8-1"  24.3500 "Sandstone" -999.25   -999.25   100.0000      0.0      0.0 "f/m"     "c/vc"    "Upper_shore-face,_probably_dominated_by_longshore_bars_and_longshore_through_(wave-generated_currents)._High_sedimentation_rate" "CYCLIC_SHALLOW_MARINE_SEDIMENTATION,_WAVE_DOMINANCE_THE_CYCLICITY_IS_PROBABLY_DUE_TO_RAPID_FLUCTATIONS_IN_RELATIVE_SEA-LEVEL."
4428.5 "6406_8-1"  23.5100 "Sandstone" -999.25   -999.25   100.0000      0.0      0.0 "f/m"     "c/vc"    "Upper_shore-face,_probably_dominated_by_longshore_bars_and_longshore_through_(wave-generated_currents)._High_sedimentation_rate" "CYCLIC_SHALLOW_MARINE_SEDIMENTATION,_WAVE_DOMINANCE_THE_CYCLICITY_IS_PROBABLY_DUE_TO_RAPID_FLUCTATIONS_IN_RELATIVE_SEA-LEVEL."
4428.6 "6406_8-1"  23.1600 "Sandstone" -999.25   -999.25   100.0000      0.0      0.0 "f/m"     "c/vc"    "Upper_shore-face,_probably_dominated_by_longshore_bars_and_longshore_through_(wave-generated_currents)._High_sedimentation_rate" "CYCLIC_SHALLOW_MARINE_SEDIMENTATION,_WAVE_DOMINANCE_THE_CYCLICITY_IS_PROBABLY_DUE_TO_RAPID_FLUCTATIONS_IN_RELATIVE_SEA-LEVEL."
4428.7 "6406_8-1"  23.4100 "Sandstone" -999.25   -999.25   100.0000      0.0      0.0 "f/m"     "c/vc"    "Upper_shore-face,_probably_dominated_by_longshore_bars_and_longshore_through_(wave-generated_currents)._High_sedimentation_rate" "CYCLIC_SHALLOW_MARINE_SEDIMENTATION,_WAVE_DOMINANCE_THE_CYCLICITY_IS_PROBABLY_DUE_TO_RAPID_FLUCTATIONS_IN_RELATIVE_SEA-LEVEL."
4428.8 "6406_8-1"  24.0700 "Sandstone" -999.25   -999.25   100.0000      0.0      0.0 "f/m"     "c/vc"    "Upper_shore-face,_probably_dominated_by_longshore_bars_and_longshore_through_(wave-generated_currents)._High_sedimentation_rate" "CYCLIC_SHALLOW_MARINE_SEDIMENTATION,_WAVE_DOMINANCE_THE_CYCLICITY_IS_PROBABLY_DUE_TO_RAPID_FLUCTATIONS_IN_RELATIVE_SEA-LEVEL."
4428.9 "6406_8-1"  24.9300 "Sandstone" -999.25   -999.25   100.0000      0.0      0.0 "f/m"     "c/vc"    "Upper_shore-face,_probably_dominated_by_longshore_bars_and_longshore_through_(wave-generated_currents)._High_sedimentation_rate" "CYCLIC_SHALLOW_MARINE_SEDIMENTATION,_WAVE_DOMINANCE_THE_CYCLICITY_IS_PROBABLY_DUE_TO_RAPID_FLUCTATIONS_IN_RELATIVE_SEA-LEVEL."
4429.0 "6406_8-1"  25.9800 "Sandstone" -999.25   -999.25   100.0000      0.0      0.0 "f/m"     "c/vc"    "Upper_shore-face,_probably_dominated_by_longshore_bars_and_longshore_through_(wave-generated_currents)._High_sedimentation_rate" "CYCLIC_SHALLOW_MARINE_SEDIMENTATION,_WAVE_DOMINANCE_THE_CYCLICITY_IS_PROBABLY_DUE_TO_RAPID_FLUCTATIONS_IN_RELATIVE_SEA-LEVEL."
4429.1 "6406_8-1"  27.4800 "Sandstone" -999.25   -999.25   100.0000      0.0      0.0 "f/m"     "c/vc"    "Upper_shore-face,_probably_dominated_by_longshore_bars_and_longshore_through_(wave-generated_currents)._High_sedimentation_rate" "CYCLIC_SHALLOW_MARINE_SEDIMENTATION,_WAVE_DOMINANCE_THE_CYCLICITY_IS_PROBABLY_DUE_TO_RAPID_FLUCTATIONS_IN_RELATIVE_SEA-LEVEL."
4429.2 "6406_8-1"  29.2900 "Sandstone" -999.25   -999.25   100.0000      0.0      0.0 "f/m"     "c/vc"    "Upper_shore-face,_probably_dominated_by_longshore_bars_and_longshore_through_(wave-generated_currents)._High_sedimentation_rate" "CYCLIC_SHALLOW_MARINE_SEDIMENTATION,_WAVE_DOMINANCE_THE_CYCLICITY_IS_PROBABLY_DUE_TO_RAPID_FLUCTATIONS_IN_RELATIVE_SEA-LEVEL."
4429.3 "6406_8-1"  30.9900 "Sandstone" -999.25   -999.25   100.0000      0.0      0.0 "f/m"     "c/vc"    "Upper_shore-face,_probably_dominated_by_longshore_bars_and_longshore_through_(wave-generated_currents)._High_sedimentation_rate" "CYCLIC_SHALLOW_MARINE_SEDIMENTATION,_WAVE_DOMINANCE_THE_CYCLICITY_IS_PROBABLY_DUE_TO_RAPID_FLUCTATIONS_IN_RELATIVE_SEA-LEVEL."
4429.4 "6406_8-1"  32.5700 "Sandstone" -999.25   -999.25   100.0000      0.0      0.0 "f/m"     "c/vc"    "Upper_shore-face,_probably_dominated_by_longshore_bars_and_longshore_through_(wave-generated_currents)._High_sedimentation_rate" "CYCLIC_SHALLOW_MARINE_SEDIMENTATION,_WAVE_DOMINANCE_THE_CYCLICITY_IS_PROBABLY_DUE_TO_RAPID_FLUCTATIONS_IN_RELATIVE_SEA-LEVEL."
