~Version
VERS  .                                 3.0 : CWLS LAS ASCII Standard - Version 3.0
WRAP  . NO                                  : One line per depth step
DLM   . SPACE                               : Column data section delimiter
SOURCE. Converted to LAS by Log Studio 4.76 : GeoProvider

~Well
STRT.         4370.0 : Start depth
STOP.         4658.9 : Stop depth
STEP.              1 : Step
NULL.        -999.25 : No-value
COMP.                : Company
WELL. 6406/8-1       : Well
FLD .                : Field
LOC .                : Location
LATI.                : Latitude
LONG.                : Longitude
GDAT.                : Geodetic datum
CNTY.                : County
STAT.                : State
CTRY.                : Country
SRVC. GeoProvider AS : Service company
DATE.                : Date
API .                : API number
RUN .                : Run number

~Parameters
WellboreName.  : Wellbore name
RigName     .  : Rig name
StartDate   .  : Start date

~Curves
DEPTH.m            .  : null {F}Depth mMD
Hole_ID.-          .  : null {S}Hole ID
GR.API             .  : null {F}Gamma Ray
Lithology1.-       .  : null {S}Lithology 1
Lithology2.-       .  : null {S}Lithology 2
Lithology3.-       .  : null {S}Lithology 3
Lithology1.%       .  : null {F}Lithology 1 percentage
Lithology2.%       .  : null {F}Lithology 2 percentage
Lithology3.%       .  : null {F}Lithology 3 percentage
Grain_size_Top.-   .  : null {S}Grain size at the top 
Grain_size_Base.-  .  : null {S}Grain size at the bottom
Sub_Environment.-  .  : null {S}Sub Environment
Gross_Environment.-.  : null {S}Gross Environment

~Ascii
4370.0 "6406_8-1"  48.9500 "Sandstone" "Shale"   -999.25    90.0000 10.00000      0.0 -999.25   -999.25   "Bay"                                                                                                                           "CYCLIC_SEDIMENTATION_IN_A_LOW-ENERGY_SHORELINE_SYSTEM_SUBAERIAL_EXPOSURE_AT_TOP"                                            
4370.1 "6406_8-1"  44.6100 "Sandstone" "Shale"   -999.25    90.0000 10.00000      0.0 -999.25   -999.25   "Bay"                                                                                                                           "CYCLIC_SEDIMENTATION_IN_A_LOW-ENERGY_SHORELINE_SYSTEM_SUBAERIAL_EXPOSURE_AT_TOP"                                            
4370.2 "6406_8-1"  38.6700 "Sandstone" "Shale"   -999.25    90.0000 10.00000      0.0 -999.25   -999.25   "Bay"                                                                                                                           "CYCLIC_SEDIMENTATION_IN_A_LOW-ENERGY_SHORELINE_SYSTEM_SUBAERIAL_EXPOSURE_AT_TOP"                                            
4370.3 "6406_8-1"  31.9700 "Sandstone" "Shale"   -999.25    90.0000 10.00000      0.0 -999.25   -999.25   "Bay"                                                                                                                           "CYCLIC_SEDIMENTATION_IN_A_LOW-ENERGY_SHORELINE_SYSTEM_SUBAERIAL_EXPOSURE_AT_TOP"                                            
4370.4 "6406_8-1"  21.3000 "Sandstone" "Shale"   -999.25    90.0000 10.00000      0.0 -999.25   -999.25   "Bay"                                                                                                                           "CYCLIC_SEDIMENTATION_IN_A_LOW-ENERGY_SHORELINE_SYSTEM_SUBAERIAL_EXPOSURE_AT_TOP"                                            
4370.5 "6406_8-1"  10.7700 "Sandstone" "Shale"   -999.25    90.0000 10.00000      0.0 -999.25   -999.25   "Bay"                                                                                                                           "CYCLIC_SEDIMENTATION_IN_A_LOW-ENERGY_SHORELINE_SYSTEM_SUBAERIAL_EXPOSURE_AT_TOP"                                            
4370.6 "6406_8-1"   7.4000 "Sandstone" "Shale"   -999.25    90.0000 10.00000      0.0 -999.25   -999.25   "Bay"                                                                                                                           "CYCLIC_SEDIMENTATION_IN_A_LOW-ENERGY_SHORELINE_SYSTEM_SUBAERIAL_EXPOSURE_AT_TOP"                                            
4370.7 "6406_8-1"   6.0300 "Sandstone" "Shale"   -999.25    90.0000 10.00000      0.0 -999.25   -999.25   "Bay"                                                                                                                           "CYCLIC_SEDIMENTATION_IN_A_LOW-ENERGY_SHORELINE_SYSTEM_SUBAERIAL_EXPOSURE_AT_TOP"                                            
4370.8 "6406_8-1"   5.6100 "Sandstone" "Shale"   -999.25    90.0000 10.00000      0.0 -999.25   -999.25   "Bay"                                                                                                                           "CYCLIC_SEDIMENTATION_IN_A_LOW-ENERGY_SHORELINE_SYSTEM_SUBAERIAL_EXPOSURE_AT_TOP"                                            
4370.9 "6406_8-1"   5.2000 "Sandstone" "Shale"   -999.25    90.0000 10.00000      0.0 -999.25   -999.25   "Bay"                                                                                                                           "CYCLIC_SEDIMENTATION_IN_A_LOW-ENERGY_SHORELINE_SYSTEM_SUBAERIAL_EXPOSURE_AT_TOP"                                            
4371.0 "6406_8-1"   5.3800 "Sandstone" "Shale"   -999.25    90.0000 10.00000      0.0 -999.25   -999.25   "Bay"                                                                                                                           "CYCLIC_SEDIMENTATION_IN_A_LOW-ENERGY_SHORELINE_SYSTEM_SUBAERIAL_EXPOSURE_AT_TOP"                                            
4371.1 "6406_8-1"   5.8100 "Sandstone" "Shale"   -999.25    90.0000 10.00000      0.0 -999.25   -999.25   "Bay"                                                                                                                           "CYCLIC_SEDIMENTATION_IN_A_LOW-ENERGY_SHORELINE_SYSTEM_SUBAERIAL_EXPOSURE_AT_TOP"                                            
4371.2 "6406_8-1"   6.2500 "Sandstone" "Shale"   -999.25    90.0000 10.00000      0.0 -999.25   -999.25   "Bay"                                                                                                                           "CYCLIC_SEDIMENTATION_IN_A_LOW-ENERGY_SHORELINE_SYSTEM_SUBAERIAL_EXPOSURE_AT_TOP"                                            
4371.3 "6406_8-1"   8.1700 "Sandstone" "Shale"   -999.25    75.0000 25.00000      0.0 "silt"    "f"       "Bay"                                                                                                                           "CYCLIC_SEDIMENTATION_IN_A_LOW-ENERGY_SHORELINE_SYSTEM_SUBAERIAL_EXPOSURE_AT_TOP"                                            
4371.4 "6406_8-1"  11.1800 "Sandstone" "Shale"   -999.25    75.0000 25.00000      0.0 "silt"    "f"       "Bay"                                                                                                                           "CYCLIC_SEDIMENTATION_IN_A_LOW-ENERGY_SHORELINE_SYSTEM_SUBAERIAL_EXPOSURE_AT_TOP"                                            
4371.5 "6406_8-1"  14.1800 "Sandstone" "Shale"   -999.25    75.0000 25.00000      0.0 "silt"    "f"       "Coastal_plain"                                                                                                                 "CYCLIC_SEDIMENTATION_IN_A_LOW-ENERGY_SHORELINE_SYSTEM_SUBAERIAL_EXPOSURE_AT_TOP"                                            
4371.6 "6406_8-1"  17.1100 "Sandstone" "Shale"   -999.25    75.0000 25.00000      0.0 "silt"    "f"       "Coastal_plain"                                                                                                                 "CYCLIC_SEDIMENTATION_IN_A_LOW-ENERGY_SHORELINE_SYSTEM_SUBAERIAL_EXPOSURE_AT_TOP"                                            
4371.7 "6406_8-1"  19.5400 "Sandstone" "Shale"   -999.25    75.0000 25.00000      0.0 "silt"    "f"       "Coastal_plain"                                                                                                                 "CYCLIC_SEDIMENTATION_IN_A_LOW-ENERGY_SHORELINE_SYSTEM_SUBAERIAL_EXPOSURE_AT_TOP"                                            
4371.8 "6406_8-1"  23.6600 "Sandstone" "Shale"   -999.25    75.0000 25.00000      0.0 "silt"    "f"       "Coastal_plain"                                                                                                                 "CYCLIC_SEDIMENTATION_IN_A_LOW-ENERGY_SHORELINE_SYSTEM_SUBAERIAL_EXPOSURE_AT_TOP"                                            
4371.9 "6406_8-1"  30.8000 "Sandstone" "Shale"   -999.25    75.0000 25.00000      0.0 "silt"    "f"       "Coastal_plain"                                                                                                                 "CYCLIC_SEDIMENTATION_IN_A_LOW-ENERGY_SHORELINE_SYSTEM_SUBAERIAL_EXPOSURE_AT_TOP"                                            
4372.0 "6406_8-1"  33.1600 "Sandstone" "Shale"   -999.25    75.0000 25.00000      0.0 "silt"    "f"       "Coastal_plain"                                                                                                                 "CYCLIC_SEDIMENTATION_IN_A_LOW-ENERGY_SHORELINE_SYSTEM_SUBAERIAL_EXPOSURE_AT_TOP"                                            
4372.1 "6406_8-1"  34.1800 "Sandstone" "Shale"   -999.25    75.0000 25.00000      0.0 "silt"    "f"       "Coastal_plain"                                                                                                                 "CYCLIC_SEDIMENTATION_IN_A_LOW-ENERGY_SHORELINE_SYSTEM_SUBAERIAL_EXPOSURE_AT_TOP"                                            
4372.2 "6406_8-1"  33.8700 "Sandstone" "Shale"   -999.25    75.0000 25.00000      0.0 "silt"    "f"       "Coastal_plain"                                                                                                                 "CYCLIC_SEDIMENTATION_IN_A_LOW-ENERGY_SHORELINE_SYSTEM_SUBAERIAL_EXPOSURE_AT_TOP"                                            
