~Version
VERS  .                                 3.0 : CWLS LAS ASCII Standard - Version 3.0
WRAP  . NO                                  : One line per depth step
DLM   . SPACE                               : Column data section delimiter
SOURCE. Converted to LAS by Log Studio 4.76 : GeoProvider

~Well
STRT.         4370.0 : Start depth
STOP.         4658.9 : Stop depth
STEP.              1 : Step
NULL.        -999.25 : No-value
COMP.                : Company
WELL. 6406/8-1       : Well
FLD .                : Field
LOC .                : Location
LATI.                : Latitude
LONG.                : Longitude
GDAT.                : Geodetic datum
CNTY.                : County
STAT.                : State
CTRY.                : Country
SRVC. GeoProvider AS : Service company
DATE.                : Date
API .                : API number
RUN .                : Run number

~Parameters
WellboreName.  : Wellbore name
RigName     .  : Rig name
StartDate   .  : Start date

~Curves
DEPTH.m            .  : null {F}Depth mMD
Hole_ID.-          .  : null {S}Hole ID
GR.API             .  : null {F}Gamma Ray
Lithology1.-       .  : null {S}Lithology 1
Lithology2.-       .  : null {S}Lithology 2
Lithology3.-       .  : null {S}Lithology 3
Lithology1.%       .  : null {F}Lithology 1 percentage
Lithology2.%       .  : null {F}Lithology 2 percentage
Lithology3.%       .  : null {F}Lithology 3 percentage
Grain_size_Top.-   .  : null {S}Grain size at the top 
Grain_size_Base.-  .  : null {S}Grain size at the bottom
Sub_Environment.-  .  : null {S}Sub Environment
Gross_Environment.-.  : null {S}Gross Environment

~Ascii
# ...
4498.1 "6406_8-1"  49.4000 "Sandstone" "Limestone" "Shale"    45.0000 20.00000 35.00000 "silt/vf" "m"       "Lower_shoreface,_mixed_influence_of_waves_and_tides."                                                                          "TIDAL_INFLUENCED_PROGRADING_SHORELINE_SYSTEM"                                                                               
4498.2 "6406_8-1"  51.6600 "Sandstone" "Limestone" "Shale"    45.0000 20.00000 35.00000 "silt/vf" "m"       "Lower_shoreface,_mixed_influence_of_waves_and_tides."                                                                          "TIDAL_INFLUENCED_PROGRADING_SHORELINE_SYSTEM"                                                                               
4498.3 "6406_8-1"  55.2700 "Sandstone" "Limestone" "Shale"    45.0000 20.00000 35.00000 "silt/vf" "m"       "Lower_shoreface,_mixed_influence_of_waves_and_tides."                                                                          "TIDAL_INFLUENCED_PROGRADING_SHORELINE_SYSTEM"                                                                               
4498.4 "6406_8-1"  59.3200 "Sandstone" "Limestone" "Shale"    45.0000 20.00000 35.00000 "silt/vf" "m"       "Lower_shoreface,_mixed_influence_of_waves_and_tides."                                                                          "TIDAL_INFLUENCED_PROGRADING_SHORELINE_SYSTEM"                                                                               
4498.5 "6406_8-1"  61.2100 "Sandstone" "Limestone" "Shale"    45.0000 20.00000 35.00000 "silt/vf" "m"       "Lower_shoreface,_mixed_influence_of_waves_and_tides."                                                                          "TIDAL_INFLUENCED_PROGRADING_SHORELINE_SYSTEM"                                                                               
4498.6 "6406_8-1"  61.7800 -999.25   -999.25   -999.25   100.0000      0.0      0.0 -999.25   -999.25   -999.25                                                                                                                         -999.25                                                                                                                      
4498.7 "6406_8-1"  61.2600 -999.25   -999.25   -999.25   100.0000      0.0      0.0 -999.25   -999.25   -999.25                                                                                                                         -999.25                                                                                                                      
4498.8 "6406_8-1"  60.4300 -999.25   -999.25   -999.25   100.0000      0.0      0.0 -999.25   -999.25   -999.25                                                                                                                         -999.25                                                                                                                      
4498.9 "6406_8-1"  59.9000 -999.25   -999.25   -999.25   100.0000      0.0      0.0 -999.25   -999.25   -999.25                                                                                                                         -999.25                                                                                                                      
4499.0 "6406_8-1"  59.9100 -999.25   -999.25   -999.25   100.0000      0.0      0.0 -999.25   -999.25   -999.25                                                                                                                         -999.25                                                                                                                      
4499.1 "6406_8-1"  60.6000 -999.25   -999.25   -999.25   100.0000      0.0      0.0 -999.25   -999.25   -999.25                                                                                                                         -999.25                                                                                                                      
4499.2 "6406_8-1"  61.8400 -999.25   -999.25   -999.25   100.0000      0.0      0.0 -999.25   -999.25   -999.25                                                                                                                         -999.25                                                                                                                      
4499.3 "6406_8-1"  63.4600 -999.25   -999.25   -999.25   100.0000      0.0      0.0 -999.25   -999.25   -999.25                                                                                                                         -999.25                                                                                                                      
4499.4 "6406_8-1"  64.9900 -999.25   -999.25   -999.25   100.0000      0.0      0.0 -999.25   -999.25   -999.25                                                                                                                         -999.25                                                                                                                      
4499.5 "6406_8-1"  66.0600 -999.25   -999.25   -999.25   100.0000      0.0      0.0 -999.25   -999.25   -999.25                                                                                                                         -999.25                                                                                                                      
4499.6 "6406_8-1"  66.1400 -999.25   -999.25   -999.25   100.0000      0.0      0.0 -999.25   -999.25   -999.25                                                                                                                         -999.25                                                                                                                      
4499.7 "6406_8-1"  65.7900 -999.25   -999.25   -999.25   100.0000      0.0      0.0 -999.25   -999.25   -999.25                                                                                                                         -999.25                                                                                                                      
4499.8 "6406_8-1"  65.2200 -999.25   -999.25   -999.25   100.0000      0.0      0.0 -999.25   -999.25   -999.25                                                                                                                         -999.25                                                                                                                      
4499.9 "6406_8-1"  65.1800 -999.25   -999.25   -999.25   100.0000      0.0      0.0 -999.25   -999.25   -999.25                                                                                                                         -999.25                                                                                                                      
4500.0 "6406_8-1"  65.2200 -999.25   -999.25   -999.25   100.0000      0.0      0.0 -999.25   -999.25   -999.25                                                                                                                         -999.25                                                                                                                      
4500.1 "6406_8-1"  -999.25 -999.25   -999.25   -999.25   100.0000      0.0      0.0 -999.25   -999.25   -999.25                                                                                                                         -999.25                                                                                                                      
4500.2 "6406_8-1"  -999.25 -999.25   -999.25   -999.25   100.0000      0.0      0.0 -999.25   -999.25   -999.25                                                                                                                         -999.25                                                                                                                      
4500.3 "6406_8-1"  -999.25 -999.25   -999.25   -999.25   100.0000      0.0      0.0 -999.25   -999.25   -999.25                                                                                                                         -999.25                                                                                                                      
