~Version
VERS  .                                 3.0 : CWLS LAS ASCII Standard - Version 3.0
WRAP  . NO                                  : One line per depth step
DLM   . SPACE                               : Column data section delimiter
SOURCE. Converted to LAS by Log Studio 4.76 : GeoProvider

~Well
STRT.         4370.0 : Start depth
STOP.         4658.9 : Stop depth
STEP.              1 : Step
NULL.        -999.25 : No-value
COMP.                : Company
WELL. 6406/8-1       : Well
FLD .                : Field
LOC .                : Location
LATI.                : Latitude
LONG.                : Longitude
GDAT.                : Geodetic datum
CNTY.                : County
STAT.                : State
CTRY.                : Country
SRVC. GeoProvider AS : Service company
DATE.                : Date
API .                : API number
RUN .                : Run number

~Parameters
WellboreName.  : Wellbore name
RigName     .  : Rig name
StartDate   .  : Start date

~Curves
DEPTH.m            .  : null {F}Depth mMD
Hole_ID.-          .  : null {S}Hole ID
GR.API             .  : null {F}Gamma Ray
Lithology1.-       .  : null {S}Lithology 1
Lithology2.-       .  : null {S}Lithology 2
Lithology3.-       .  : null {S}Lithology 3
Lithology1.%       .  : null {F}Lithology 1 percentage
Lithology2.%       .  : null {F}Lithology 2 percentage
Lithology3.%       .  : null {F}Lithology 3 percentage
Grain_size_Top.-   .  : null {S}Grain size at the top 
Grain_size_Base.-  .  : null {S}Grain size at the bottom
Sub_Environment.-  .  : null {S}Sub Environment
Gross_Environment.-.  : null {S}Gross Environment

~Ascii
# ...
4456.7 "6406_8-1"  15.5900 "Sandstone" "Limestone" "Shale"    65.0000 15.00000 20.00000 "m/c"     "f"       "Estaurine_(?)_sequence_capped_by_tidal_sandridge."                                                                             "TRANSGRESSIVE_TO_AGGRADDING_SHALLOW_MARINE_SYSTEM._DIMINISHING_TIDAL_INFLUENCE"                                             
4456.8 "6406_8-1"  17.1200 "Sandstone" "Limestone" "Shale"    65.0000 15.00000 20.00000 "m/c"     "f"       "Estaurine_(?)_sequence_capped_by_tidal_sandridge."                                                                             "TRANSGRESSIVE_TO_AGGRADDING_SHALLOW_MARINE_SYSTEM._DIMINISHING_TIDAL_INFLUENCE"                                             
4456.9 "6406_8-1"  19.4100 "Sandstone" "Limestone" "Shale"    65.0000 15.00000 20.00000 "m/c"     "f"       "Estaurine_(?)_sequence_capped_by_tidal_sandridge."                                                                             "TRANSGRESSIVE_TO_AGGRADDING_SHALLOW_MARINE_SYSTEM._DIMINISHING_TIDAL_INFLUENCE"                                             
4457.0 "6406_8-1"  22.7600 "Sandstone" "Limestone" "Shale"    65.0000 15.00000 20.00000 "m/c"     "f"       "Estaurine_(?)_sequence_capped_by_tidal_sandridge."                                                                             "TRANSGRESSIVE_TO_AGGRADDING_SHALLOW_MARINE_SYSTEM._DIMINISHING_TIDAL_INFLUENCE"                                             
4457.1 "6406_8-1"  26.3300 "Sandstone" "Limestone" "Shale"    65.0000 15.00000 20.00000 "m/c"     "f"       "Estaurine_(?)_sequence_capped_by_tidal_sandridge."                                                                             "TRANSGRESSIVE_TO_AGGRADDING_SHALLOW_MARINE_SYSTEM._DIMINISHING_TIDAL_INFLUENCE"                                             
4457.2 "6406_8-1"  29.9000 "Sandstone" "Limestone" "Shale"    65.0000 15.00000 20.00000 "m/c"     "f"       "Estaurine_(?)_sequence_capped_by_tidal_sandridge."                                                                             "TRANSGRESSIVE_TO_AGGRADDING_SHALLOW_MARINE_SYSTEM._DIMINISHING_TIDAL_INFLUENCE"                                             
4457.3 "6406_8-1"  33.6500 "Sandstone" "Limestone" "Shale"    65.0000 15.00000 20.00000 "m/c"     "f"       "Estaurine_(?)_sequence_capped_by_tidal_sandridge."                                                                             "TRANSGRESSIVE_TO_AGGRADDING_SHALLOW_MARINE_SYSTEM._DIMINISHING_TIDAL_INFLUENCE"                                             
4457.4 "6406_8-1"  38.2600 "Sandstone" "Limestone" "Shale"    65.0000 15.00000 20.00000 "m/c"     "f"       "Estaurine_(?)_sequence_capped_by_tidal_sandridge."                                                                             "TRANSGRESSIVE_TO_AGGRADDING_SHALLOW_MARINE_SYSTEM._DIMINISHING_TIDAL_INFLUENCE"                                             
4457.5 "6406_8-1"  43.1800 "Sandstone" "Limestone" "Shale"    65.0000 15.00000 20.00000 "m/c"     "f"       "Estaurine_(?)_sequence_capped_by_tidal_sandridge."                                                                             "TRANSGRESSIVE_TO_AGGRADDING_SHALLOW_MARINE_SYSTEM._DIMINISHING_TIDAL_INFLUENCE"                                             
4457.6 "6406_8-1"  53.1500 "Sandstone" "Limestone" "Shale"    65.0000 15.00000 20.00000 "m/c"     "f"       "Estaurine_(?)_sequence_capped_by_tidal_sandridge."                                                                             "TRANSGRESSIVE_TO_AGGRADDING_SHALLOW_MARINE_SYSTEM._DIMINISHING_TIDAL_INFLUENCE"                                             
4457.7 "6406_8-1"  58.6200 "Sandstone" "Limestone" "Shale"    65.0000 15.00000 20.00000 "m/c"     "f"       "Estaurine_(?)_sequence_capped_by_tidal_sandridge."                                                                             "TRANSGRESSIVE_TO_AGGRADDING_SHALLOW_MARINE_SYSTEM._DIMINISHING_TIDAL_INFLUENCE"                                             
4457.8 "6406_8-1"  65.2600 "Sandstone" "Limestone" "Shale"    65.0000 15.00000 20.00000 "m/c"     "f"       "Estaurine_(?)_sequence_capped_by_tidal_sandridge."                                                                             "TRANSGRESSIVE_TO_AGGRADDING_SHALLOW_MARINE_SYSTEM._DIMINISHING_TIDAL_INFLUENCE"                                             
4457.9 "6406_8-1"  71.8700 "Sandstone" "Limestone" "Shale"    65.0000 15.00000 20.00000 "m/c"     "f"       "Estaurine_(?)_sequence_capped_by_tidal_sandridge."                                                                             "TRANSGRESSIVE_TO_AGGRADDING_SHALLOW_MARINE_SYSTEM._DIMINISHING_TIDAL_INFLUENCE"                                             
4458.0 "6406_8-1"  77.8400 "Sandstone" "Limestone" "Shale"    65.0000 15.00000 20.00000 "m/c"     "f"       "Estaurine_(?)_sequence_capped_by_tidal_sandridge."                                                                             "TRANSGRESSIVE_TO_AGGRADDING_SHALLOW_MARINE_SYSTEM._DIMINISHING_TIDAL_INFLUENCE"                                             
4458.1 "6406_8-1"  82.4900 "Sandstone" "Limestone" "Shale"    65.0000 15.00000 20.00000 "m/c"     "f"       "Estaurine_(?)_sequence_capped_by_tidal_sandridge."                                                                             "TRANSGRESSIVE_TO_AGGRADDING_SHALLOW_MARINE_SYSTEM._DIMINISHING_TIDAL_INFLUENCE"                                             
4458.2 "6406_8-1"  86.1300 "Sandstone" "Limestone" "Shale"    65.0000 15.00000 20.00000 "m/c"     "f"       "Estaurine_(?)_sequence_capped_by_tidal_sandridge."                                                                             "TRANSGRESSIVE_TO_AGGRADDING_SHALLOW_MARINE_SYSTEM._DIMINISHING_TIDAL_INFLUENCE"                                             
4458.3 "6406_8-1"  88.4700 "Sandstone" "Limestone" "Shale"    65.0000 15.00000 20.00000 "m/c"     "f"       "Estaurine_(?)_sequence_capped_by_tidal_sandridge."                                                                             "TRANSGRESSIVE_TO_AGGRADDING_SHALLOW_MARINE_SYSTEM._DIMINISHING_TIDAL_INFLUENCE"                                             
4458.4 "6406_8-1"  89.6200 "Sandstone" "Limestone" "Shale"    65.0000 15.00000 20.00000 "m/c"     "f"       "Estaurine_(?)_sequence_capped_by_tidal_sandridge."                                                                             "TRANSGRESSIVE_TO_AGGRADDING_SHALLOW_MARINE_SYSTEM._DIMINISHING_TIDAL_INFLUENCE"                                             
4458.5 "6406_8-1"  90.0700 "Sandstone" "Limestone" "Shale"    65.0000 15.00000 20.00000 "m/c"     "f"       "Estaurine_(?)_sequence_capped_by_tidal_sandridge."                                                                             "TRANSGRESSIVE_TO_AGGRADDING_SHALLOW_MARINE_SYSTEM._DIMINISHING_TIDAL_INFLUENCE"                                             
4458.6 "6406_8-1"  90.0400 "Sandstone" "Limestone" "Shale"    65.0000 15.00000 20.00000 "m/c"     "f"       "Estaurine_(?)_sequence_capped_by_tidal_sandridge."                                                                             "TRANSGRESSIVE_TO_AGGRADDING_SHALLOW_MARINE_SYSTEM._DIMINISHING_TIDAL_INFLUENCE"                                             
4458.7 "6406_8-1"  89.5300 "Sandstone" "Limestone" "Shale"    65.0000 15.00000 20.00000 "m/c"     "f"       "Estaurine_(?)_sequence_capped_by_tidal_sandridge."                                                                             "TRANSGRESSIVE_TO_AGGRADDING_SHALLOW_MARINE_SYSTEM._DIMINISHING_TIDAL_INFLUENCE"                                             
4458.8 "6406_8-1"  87.7300 "Sandstone" "Limestone" "Shale"    65.0000 15.00000 20.00000 "m/c"     "f"       "Estaurine_(?)_sequence_capped_by_tidal_sandridge."                                                                             "TRANSGRESSIVE_TO_AGGRADDING_SHALLOW_MARINE_SYSTEM._DIMINISHING_TIDAL_INFLUENCE"                                             
4458.9 "6406_8-1"  84.9100 "Sandstone" "Limestone" "Shale"    65.0000 15.00000 20.00000 "m/c"     "f"       "Estaurine_(?)_sequence_capped_by_tidal_sandridge."                                                                             "TRANSGRESSIVE_TO_AGGRADDING_SHALLOW_MARINE_SYSTEM._DIMINISHING_TIDAL_INFLUENCE"                                             
