~Version
VERS  .                                 3.0 : CWLS LAS ASCII Standard - Version 3.0
WRAP  . NO                                  : One line per depth step
DLM   . SPACE                               : Column data section delimiter
SOURCE. Converted to LAS by Log Studio 4.76 : GeoProvider

~Well
STRT.         4370.0 : Start depth
STOP.         4658.9 : Stop depth
STEP.              1 : Step
NULL.        -999.25 : No-value
COMP.                : Company
WELL. 6406/8-1       : Well
FLD .                : Field
LOC .                : Location
LATI.                : Latitude
LONG.                : Longitude
GDAT.                : Geodetic datum
CNTY.                : County
STAT.                : State
CTRY.                : Country
SRVC. GeoProvider AS : Service company
DATE.                : Date
API .                : API number
RUN .                : Run number

~Parameters
WellboreName.  : Wellbore name
RigName     .  : Rig name
StartDate   .  : Start date

~Curves
DEPTH.m            .  : null {F}Depth mMD
Hole_ID.-          .  : null {S}Hole ID
GR.API             .  : null {F}Gamma Ray
Lithology1.-       .  : null {S}Lithology 1
Lithology2.-       .  : null {S}Lithology 2
Lithology3.-       .  : null {S}Lithology 3
Lithology1.%       .  : null {F}Lithology 1 percentage
Lithology2.%       .  : null {F}Lithology 2 percentage
Lithology3.%       .  : null {F}Lithology 3 percentage
Grain_size_Top.-   .  : null {S}Grain size at the top 
Grain_size_Base.-  .  : null {S}Grain size at the bottom
Sub_Environment.-  .  : null {S}Sub Environment
Gross_Environment.-.  : null {S}Gross Environment

~Ascii
# ...
4656.5 "6406_8-1" 119.9200 "Sandstone" "Shale"   -999.25    10.0000 90.00000      0.0 "clay/silt" "clay/silt" "Fallout_of_suspended_material_in_quiet_deepwater_conditions."                                                                  "OFFSHORE_MARINE"                                                                                                            
4656.6 "6406_8-1" 121.0700 "Sandstone" "Shale"   -999.25    10.0000 90.00000      0.0 "clay/silt" "clay/silt" "Fallout_of_suspended_material_in_quiet_deepwater_conditions."                                                                  "OFFSHORE_MARINE"                                                                                                            
4656.7 "6406_8-1" 122.2700 "Sandstone" "Shale"   -999.25    10.0000 90.00000      0.0 "clay/silt" "clay/silt" "Fallout_of_suspended_material_in_quiet_deepwater_conditions."                                                                  "OFFSHORE_MARINE"                                                                                                            
4656.8 "6406_8-1" 123.4600 "Sandstone" "Shale"   -999.25    10.0000 90.00000      0.0 "clay/silt" "clay/silt" "Fallout_of_suspended_material_in_quiet_deepwater_conditions."                                                                  "OFFSHORE_MARINE"                                                                                                            
4656.9 "6406_8-1" 124.1400 "Sandstone" "Shale"   -999.25    10.0000 90.00000      0.0 "clay/silt" "clay/silt" "Fallout_of_suspended_material_in_quiet_deepwater_conditions."                                                                  "OFFSHORE_MARINE"                                                                                                            
4657.0 "6406_8-1" 124.7500 "Sandstone" "Shale"   -999.25    10.0000 90.00000      0.0 "clay/silt" "clay/silt" "Fallout_of_suspended_material_in_quiet_deepwater_conditions."                                                                  "OFFSHORE_MARINE"                                                                                                            
4657.1 "6406_8-1" 125.3700 "Sandstone" "Shale"   -999.25    10.0000 90.00000      0.0 "clay/silt" "clay/silt" "Fallout_of_suspended_material_in_quiet_deepwater_conditions."                                                                  "OFFSHORE_MARINE"                                                                                                            
4657.2 "6406_8-1" 125.9800 "Sandstone" "Shale"   -999.25    10.0000 90.00000      0.0 "clay/silt" "clay/silt" "Fallout_of_suspended_material_in_quiet_deepwater_conditions."                                                                  "OFFSHORE_MARINE"                                                                                                            
4657.3 "6406_8-1" 126.5900 "Sandstone" "Shale"   -999.25    10.0000 90.00000      0.0 "clay/silt" "clay/silt" "Fallout_of_suspended_material_in_quiet_deepwater_conditions."                                                                  "OFFSHORE_MARINE"                                                                                                            
4657.4 "6406_8-1" 126.9700 "Sandstone" "Shale"   -999.25    10.0000 90.00000      0.0 "clay/silt" "clay/silt" "Fallout_of_suspended_material_in_quiet_deepwater_conditions."                                                                  "OFFSHORE_MARINE"                                                                                                            
4657.5 "6406_8-1" 127.2100 "Sandstone" "Shale"   -999.25    10.0000 90.00000      0.0 "clay/silt" "clay/silt" "Fallout_of_suspended_material_in_quiet_deepwater_conditions."                                                                  "OFFSHORE_MARINE"                                                                                                            
4657.6 "6406_8-1" 124.3000 "Sandstone" "Shale"   -999.25    10.0000 90.00000      0.0 "clay/silt" "clay/silt" "Fallout_of_suspended_material_in_quiet_deepwater_conditions."                                                                  "OFFSHORE_MARINE"                                                                                                            
4657.7 "6406_8-1" 124.5500 "Sandstone" "Shale"   -999.25    10.0000 90.00000      0.0 "clay/silt" "clay/silt" "Fallout_of_suspended_material_in_quiet_deepwater_conditions."                                                                  "OFFSHORE_MARINE"                                                                                                            
4657.8 "6406_8-1" 125.6100 "Sandstone" "Shale"   -999.25    10.0000 90.00000      0.0 "clay/silt" "clay/silt" "Fallout_of_suspended_material_in_quiet_deepwater_conditions."                                                                  "OFFSHORE_MARINE"                                                                                                            
4657.9 "6406_8-1" 126.8400 "Sandstone" "Shale"   -999.25    10.0000 90.00000      0.0 "clay/silt" "clay/silt" "Fallout_of_suspended_material_in_quiet_deepwater_conditions."                                                                  "OFFSHORE_MARINE"                                                                                                            
4658.0 "6406_8-1" 127.5300 "Sandstone" "Shale"   -999.25    10.0000 90.00000      0.0 "clay/silt" "clay/silt" "Fallout_of_suspended_material_in_quiet_deepwater_conditions."                                                                  "OFFSHORE_MARINE"                                                                                                            
4658.1 "6406_8-1" 127.7500 "Sandstone" "Shale"   -999.25    10.0000 90.00000      0.0 "clay/silt" "clay/silt" "Fallout_of_suspended_material_in_quiet_deepwater_conditions."                                                                  "OFFSHORE_MARINE"                                                                                                            
4658.2 "6406_8-1" 125.3900 "Sandstone" "Shale"   -999.25    10.0000 90.00000      0.0 "clay/silt" "clay/silt" "Fallout_of_suspended_material_in_quiet_deepwater_conditions."                                                                  "OFFSHORE_MARINE"                                                                                                            
4658.3 "6406_8-1" 121.1300 "Sandstone" "Shale"   -999.25    10.0000 90.00000      0.0 "clay/silt" "clay/silt" "Fallout_of_suspended_material_in_quiet_deepwater_conditions."                                                                  "OFFSHORE_MARINE"                                                                                                            
4658.4 "6406_8-1" 121.1000 "Sandstone" "Shale"   -999.25    10.0000 90.00000      0.0 "clay/silt" "clay/silt" "Fallout_of_suspended_material_in_quiet_deepwater_conditions."                                                                  "OFFSHORE_MARINE"                                                                                                            
4658.5 "6406_8-1" 121.2700 "Sandstone" "Shale"   -999.25    10.0000 90.00000      0.0 "clay/silt" "clay/silt" "Fallout_of_suspended_material_in_quiet_deepwater_conditions."                                                                  "OFFSHORE_MARINE"                                                                                                            
4658.6 "6406_8-1" 122.2700 "Sandstone" "Shale"   -999.25    10.0000 90.00000      0.0 "clay/silt" "clay/silt" "Fallout_of_suspended_material_in_quiet_deepwater_conditions."                                                                  "OFFSHORE_MARINE"                                                                                                            
