~Version
VERS  .                                 3.0 : CWLS LAS ASCII Standard - Version 3.0
WRAP  . NO                                  : One line per depth step
DLM   . SPACE                               : Column data section delimiter
SOURCE. Converted to LAS by Log Studio 4.76 : GeoProvider

~Well
STRT.         4370.0 : Start depth
STOP.         4658.9 : Stop depth
STEP.              1 : Step
NULL.        -999.25 : No-value
COMP.                : Company
WELL. 6406/8-1       : Well
FLD .                : Field
LOC .                : Location
LATI.                : Latitude
LONG.                : Longitude
GDAT.                : Geodetic datum
CNTY.                : County
STAT.                : State
CTRY.                : Country
SRVC. GeoProvider AS : Service company
DATE.                : Date
API .                : API number
RUN .                : Run number

~Parameters
WellboreName.  : Wellbore name
RigName     .  : Rig name
StartDate   .  : Start date

~Curves
DEPTH.m            .  : null {F}Depth mMD
Hole_ID.-          .  : null {S}Hole ID
GR.API             .  : null {F}Gamma Ray
Lithology1.-       .  : null {S}Lithology 1
Lithology2.-       .  : null {S}Lithology 2
Lithology3.-       .  : null {S}Lithology 3
Lithology1.%       .  : null {F}Lithology 1 percentage
Lithology2.%       .  : null {F}Lithology 2 percentage
Lithology3.%       .  : null {F}Lithology 3 percentage
Grain_size_Top.-   .  : null {S}Grain size at the top 
Grain_size_Base.-  .  : null {S}Grain size at the bottom
Sub_Environment.-  .  : null {S}Sub Environment
Gross_Environment.-.  : null {S}Gross Environment

~Ascii
# ...
4399.9 "6406_8-1"  35.3400 "Sandstone" "Shale"   -999.25    82.0000 18.00000      0.0 "silt/vf" "m"       "Foreshore/upper_shore_-_face,_possibly_containing_a_(?tidal)_sandridge"                                                        "CYCLIC_SHALLOW_MARINE_SEDIMENTATION,_WAVE_DOMINANCE_THE_CYCLICITY_IS_PROBABLY_DUE_TO_RAPID_FLUCTATIONS_IN_RELATIVE_SEA-LEVEL."
4400.0 "6406_8-1"  35.3400 "Sandstone" "Shale"   -999.25    82.0000 18.00000      0.0 "silt/vf" "m"       "Foreshore/upper_shore_-_face,_possibly_containing_a_(?tidal)_sandridge"                                                        "CYCLIC_SHALLOW_MARINE_SEDIMENTATION,_WAVE_DOMINANCE_THE_CYCLICITY_IS_PROBABLY_DUE_TO_RAPID_FLUCTATIONS_IN_RELATIVE_SEA-LEVEL."
4400.1 "6406_8-1"  34.4400 "Sandstone" "Shale"   -999.25    82.0000 18.00000      0.0 "silt/vf" "m"       "Foreshore/upper_shore_-_face,_possibly_containing_a_(?tidal)_sandridge"                                                        "CYCLIC_SHALLOW_MARINE_SEDIMENTATION,_WAVE_DOMINANCE_THE_CYCLICITY_IS_PROBABLY_DUE_TO_RAPID_FLUCTATIONS_IN_RELATIVE_SEA-LEVEL."
4400.2 "6406_8-1"  32.3100 "Sandstone" "Shale"   -999.25    82.0000 18.00000      0.0 "silt/vf" "m"       "Foreshore/upper_shore_-_face,_possibly_containing_a_(?tidal)_sandridge"                                                        "CYCLIC_SHALLOW_MARINE_SEDIMENTATION,_WAVE_DOMINANCE_THE_CYCLICITY_IS_PROBABLY_DUE_TO_RAPID_FLUCTATIONS_IN_RELATIVE_SEA-LEVEL."
4400.3 "6406_8-1"  30.4200 "Sandstone" "Shale"   -999.25    82.0000 18.00000      0.0 "silt/vf" "m"       "Foreshore/upper_shore_-_face,_possibly_containing_a_(?tidal)_sandridge"                                                        "CYCLIC_SHALLOW_MARINE_SEDIMENTATION,_WAVE_DOMINANCE_THE_CYCLICITY_IS_PROBABLY_DUE_TO_RAPID_FLUCTATIONS_IN_RELATIVE_SEA-LEVEL."
4400.4 "6406_8-1"  30.0000 "Sandstone" "Shale"   -999.25    82.0000 18.00000      0.0 "silt/vf" "m"       "Foreshore/upper_shore_-_face,_possibly_containing_a_(?tidal)_sandridge"                                                        "CYCLIC_SHALLOW_MARINE_SEDIMENTATION,_WAVE_DOMINANCE_THE_CYCLICITY_IS_PROBABLY_DUE_TO_RAPID_FLUCTATIONS_IN_RELATIVE_SEA-LEVEL."
4400.5 "6406_8-1"  30.7400 "Sandstone" "Shale"   -999.25    82.0000 18.00000      0.0 "silt/vf" "m"       "Foreshore/upper_shore_-_face,_possibly_containing_a_(?tidal)_sandridge"                                                        "CYCLIC_SHALLOW_MARINE_SEDIMENTATION,_WAVE_DOMINANCE_THE_CYCLICITY_IS_PROBABLY_DUE_TO_RAPID_FLUCTATIONS_IN_RELATIVE_SEA-LEVEL."
4400.6 "6406_8-1"  33.8600 "Sandstone" "Shale"   -999.25    82.0000 18.00000      0.0 "silt/vf" "m"       "Foreshore/upper_shore_-_face,_possibly_containing_a_(?tidal)_sandridge"                                                        "CYCLIC_SHALLOW_MARINE_SEDIMENTATION,_WAVE_DOMINANCE_THE_CYCLICITY_IS_PROBABLY_DUE_TO_RAPID_FLUCTATIONS_IN_RELATIVE_SEA-LEVEL."
4400.7 "6406_8-1"  36.2200 "Sandstone" "Shale"   -999.25    82.0000 18.00000      0.0 "silt/vf" "m"       "Foreshore/upper_shore_-_face,_possibly_containing_a_(?tidal)_sandridge"                                                        "CYCLIC_SHALLOW_MARINE_SEDIMENTATION,_WAVE_DOMINANCE_THE_CYCLICITY_IS_PROBABLY_DUE_TO_RAPID_FLUCTATIONS_IN_RELATIVE_SEA-LEVEL."
4400.8 "6406_8-1"  37.6000 "Sandstone" "Shale"   -999.25    82.0000 18.00000      0.0 "silt/vf" "m"       "Foreshore/upper_shore_-_face,_possibly_containing_a_(?tidal)_sandridge"                                                        "CYCLIC_SHALLOW_MARINE_SEDIMENTATION,_WAVE_DOMINANCE_THE_CYCLICITY_IS_PROBABLY_DUE_TO_RAPID_FLUCTATIONS_IN_RELATIVE_SEA-LEVEL."
4400.9 "6406_8-1"  37.5600 "Sandstone" "Shale"   -999.25    82.0000 18.00000      0.0 "silt/vf" "m"       "Foreshore/upper_shore_-_face,_possibly_containing_a_(?tidal)_sandridge"                                                        "CYCLIC_SHALLOW_MARINE_SEDIMENTATION,_WAVE_DOMINANCE_THE_CYCLICITY_IS_PROBABLY_DUE_TO_RAPID_FLUCTATIONS_IN_RELATIVE_SEA-LEVEL."
4401.0 "6406_8-1"  33.9400 "Sandstone" "Shale"   -999.25    82.0000 18.00000      0.0 "silt/vf" "m"       "Foreshore/upper_shore_-_face,_possibly_containing_a_(?tidal)_sandridge"                                                        "CYCLIC_SHALLOW_MARINE_SEDIMENTATION,_WAVE_DOMINANCE_THE_CYCLICITY_IS_PROBABLY_DUE_TO_RAPID_FLUCTATIONS_IN_RELATIVE_SEA-LEVEL."
4401.1 "6406_8-1"  29.5500 "Sandstone" "Shale"   -999.25    82.0000 18.00000      0.0 "silt/vf" "m"       "Foreshore/upper_shore_-_face,_possibly_containing_a_(?tidal)_sandridge"                                                        "CYCLIC_SHALLOW_MARINE_SEDIMENTATION,_WAVE_DOMINANCE_THE_CYCLICITY_IS_PROBABLY_DUE_TO_RAPID_FLUCTATIONS_IN_RELATIVE_SEA-LEVEL."
4401.2 "6406_8-1"  24.2300 "Sandstone" "Shale"   -999.25    82.0000 18.00000      0.0 "silt/vf" "m"       "Foreshore/upper_shore_-_face,_possibly_containing_a_(?tidal)_sandridge"                                                        "CYCLIC_SHALLOW_MARINE_SEDIMENTATION,_WAVE_DOMINANCE_THE_CYCLICITY_IS_PROBABLY_DUE_TO_RAPID_FLUCTATIONS_IN_RELATIVE_SEA-LEVEL."
4401.3 "6406_8-1"  16.6600 "Sandstone" "Shale"   -999.25    82.0000 18.00000      0.0 "silt/vf" "m"       "Foreshore/upper_shore_-_face,_possibly_containing_a_(?tidal)_sandridge"                                                        "CYCLIC_SHALLOW_MARINE_SEDIMENTATION,_WAVE_DOMINANCE_THE_CYCLICITY_IS_PROBABLY_DUE_TO_RAPID_FLUCTATIONS_IN_RELATIVE_SEA-LEVEL."
4401.4 "6406_8-1"  12.2100 "Sandstone" "Shale"   -999.25    82.0000 18.00000      0.0 "silt/vf" "m"       "Foreshore/upper_shore_-_face,_possibly_containing_a_(?tidal)_sandridge"                                                        "CYCLIC_SHALLOW_MARINE_SEDIMENTATION,_WAVE_DOMINANCE_THE_CYCLICITY_IS_PROBABLY_DUE_TO_RAPID_FLUCTATIONS_IN_RELATIVE_SEA-LEVEL."
4401.5 "6406_8-1"  11.5200 "Sandstone" "Shale"   -999.25    82.0000 18.00000      0.0 "silt/vf" "m"       "Foreshore/upper_shore_-_face,_possibly_containing_a_(?tidal)_sandridge"                                                        "CYCLIC_SHALLOW_MARINE_SEDIMENTATION,_WAVE_DOMINANCE_THE_CYCLICITY_IS_PROBABLY_DUE_TO_RAPID_FLUCTATIONS_IN_RELATIVE_SEA-LEVEL."
4401.6 "6406_8-1"  12.1900 "Sandstone" "Shale"   -999.25    82.0000 18.00000      0.0 "silt/vf" "m"       "Foreshore/upper_shore_-_face,_possibly_containing_a_(?tidal)_sandridge"                                                        "CYCLIC_SHALLOW_MARINE_SEDIMENTATION,_WAVE_DOMINANCE_THE_CYCLICITY_IS_PROBABLY_DUE_TO_RAPID_FLUCTATIONS_IN_RELATIVE_SEA-LEVEL."
4401.7 "6406_8-1"  13.9100 "Sandstone" "Shale"   -999.25    82.0000 18.00000      0.0 "silt/vf" "m"       "Foreshore/upper_shore_-_face,_possibly_containing_a_(?tidal)_sandridge"                                                        "CYCLIC_SHALLOW_MARINE_SEDIMENTATION,_WAVE_DOMINANCE_THE_CYCLICITY_IS_PROBABLY_DUE_TO_RAPID_FLUCTATIONS_IN_RELATIVE_SEA-LEVEL."
4401.8 "6406_8-1"  14.3500 "Sandstone" "Shale"   -999.25    82.0000 18.00000      0.0 "silt/vf" "m"       "Foreshore/upper_shore_-_face,_possibly_containing_a_(?tidal)_sandridge"                                                        "CYCLIC_SHALLOW_MARINE_SEDIMENTATION,_WAVE_DOMINANCE_THE_CYCLICITY_IS_PROBABLY_DUE_TO_RAPID_FLUCTATIONS_IN_RELATIVE_SEA-LEVEL."
4401.9 "6406_8-1"  14.7900 "Sandstone" "Shale"   -999.25    82.0000 18.00000      0.0 "silt/vf" "m"       "Foreshore/upper_shore_-_face,_possibly_containing_a_(?tidal)_sandridge"                                                        "CYCLIC_SHALLOW_MARINE_SEDIMENTATION,_WAVE_DOMINANCE_THE_CYCLICITY_IS_PROBABLY_DUE_TO_RAPID_FLUCTATIONS_IN_RELATIVE_SEA-LEVEL."
4402.0 "6406_8-1"  14.8400 "Sandstone" "Shale"   -999.25    82.0000 18.00000      0.0 "silt/vf" "m"       "Foreshore/upper_shore_-_face,_possibly_containing_a_(?tidal)_sandridge"                                                        "CYCLIC_SHALLOW_MARINE_SEDIMENTATION,_WAVE_DOMINANCE_THE_CYCLICITY_IS_PROBABLY_DUE_TO_RAPID_FLUCTATIONS_IN_RELATIVE_SEA-LEVEL."
4402.1 "6406_8-1"  13.4700 "Sandstone" "Shale"   -999.25    82.0000 18.00000      0.0 "silt/vf" "m"       "Foreshore/upper_shore_-_face,_possibly_containing_a_(?tidal)_sandridge"                                                        "CYCLIC_SHALLOW_MARINE_SEDIMENTATION,_WAVE_DOMINANCE_THE_CYCLICITY_IS_PROBABLY_DUE_TO_RAPID_FLUCTATIONS_IN_RELATIVE_SEA-LEVEL."
