~Version
VERS  .                                 3.0 : CWLS LAS ASCII Standard - Version 3.0
WRAP  . NO                                  : One line per depth step
DLM   . SPACE                               : Column data section delimiter
SOURCE. Converted to LAS by Log Studio 4.76 : GeoProvider

~Well
STRT.         4370.0 : Start depth
STOP.         4658.9 : Stop depth
STEP.              1 : Step
NULL.        -999.25 : No-value
COMP.                : Company
WELL. 6406/8-1       : Well
FLD .                : Field
LOC .                : Location
LATI.                : Latitude
LONG.                : Longitude
GDAT.                : Geodetic datum
CNTY.                : County
STAT.                : State
CTRY.                : Country
SRVC. GeoProvider AS : Service company
DATE.                : Date
API .                : API number
RUN .                : Run number

~Parameters
WellboreName.  : Wellbore name
RigName     .  : Rig name
StartDate   .  : Start date

~Curves
DEPTH.m            .  : null {F}Depth mMD
Hole_ID.-          .  : null {S}Hole ID
GR.API             .  : null {F}Gamma Ray
Lithology1.-       .  : null {S}Lithology 1
Lithology2.-       .  : null {S}Lithology 2
Lithology3.-       .  : null {S}Lithology 3
Lithology1.%       .  : null {F}Lithology 1 percentage
Lithology2.%       .  : null {F}Lithology 2 percentage
Lithology3.%       .  : null {F}Lithology 3 percentage
Grain_size_Top.-   .  : null {S}Grain size at the top 
Grain_size_Base.-  .  : null {S}Grain size at the bottom
Sub_Environment.-  .  : null {S}Sub Environment
Gross_Environment.-.  : null {S}Gross Environment

~Ascii
# ...
4413.7 "6406_8-1"  14.5700 "Sandstone" "Shale"   -999.25    84.0000 16.00000      0.0 "silt/vf" "silt/vf" "Upper_shoreface"                                                                                                               "CYCLIC_SHALLOW_MARINE_SEDIMENTATION,_WAVE_DOMINANCE_THE_CYCLICITY_IS_PROBABLY_DUE_TO_RAPID_FLUCTATIONS_IN_RELATIVE_SEA-LEVEL."
4413.8 "6406_8-1"  12.1500 "Sandstone" "Shale"   -999.25    84.0000 16.00000      0.0 "silt/vf" "silt/vf" "Upper_shoreface"                                                                                                               "CYCLIC_SHALLOW_MARINE_SEDIMENTATION,_WAVE_DOMINANCE_THE_CYCLICITY_IS_PROBABLY_DUE_TO_RAPID_FLUCTATIONS_IN_RELATIVE_SEA-LEVEL."
4413.9 "6406_8-1"   8.7700 "Sandstone" "Shale"   -999.25    84.0000 16.00000      0.0 "silt/vf" "silt/vf" "Upper_shoreface"                                                                                                               "CYCLIC_SHALLOW_MARINE_SEDIMENTATION,_WAVE_DOMINANCE_THE_CYCLICITY_IS_PROBABLY_DUE_TO_RAPID_FLUCTATIONS_IN_RELATIVE_SEA-LEVEL."
4414.0 "6406_8-1"   8.7300 "Sandstone" "Shale"   -999.25    84.0000 16.00000      0.0 "silt/vf" "silt/vf" "Upper_shoreface"                                                                                                               "CYCLIC_SHALLOW_MARINE_SEDIMENTATION,_WAVE_DOMINANCE_THE_CYCLICITY_IS_PROBABLY_DUE_TO_RAPID_FLUCTATIONS_IN_RELATIVE_SEA-LEVEL."
4414.1 "6406_8-1"   9.1500 "Sandstone" "Shale"   -999.25    84.0000 16.00000      0.0 "silt/vf" "silt/vf" "Upper_shoreface"                                                                                                               "CYCLIC_SHALLOW_MARINE_SEDIMENTATION,_WAVE_DOMINANCE_THE_CYCLICITY_IS_PROBABLY_DUE_TO_RAPID_FLUCTATIONS_IN_RELATIVE_SEA-LEVEL."
4414.2 "6406_8-1"   9.8500 "Sandstone" "Shale"   -999.25    84.0000 16.00000      0.0 "silt/vf" "silt/vf" "Upper_shoreface"                                                                                                               "CYCLIC_SHALLOW_MARINE_SEDIMENTATION,_WAVE_DOMINANCE_THE_CYCLICITY_IS_PROBABLY_DUE_TO_RAPID_FLUCTATIONS_IN_RELATIVE_SEA-LEVEL."
4414.3 "6406_8-1"  10.9000 "Sandstone" "Shale"   -999.25    84.0000 16.00000      0.0 "silt/vf" "silt/vf" "Upper_shoreface"                                                                                                               "CYCLIC_SHALLOW_MARINE_SEDIMENTATION,_WAVE_DOMINANCE_THE_CYCLICITY_IS_PROBABLY_DUE_TO_RAPID_FLUCTATIONS_IN_RELATIVE_SEA-LEVEL."
4414.4 "6406_8-1"  13.4900 "Sandstone" "Shale"   -999.25    92.0000  8.00000      0.0 "vf"      "f"       -999.25                                                                                                                         "CYCLIC_SHALLOW_MARINE_SEDIMENTATION,_WAVE_DOMINANCE_THE_CYCLICITY_IS_PROBABLY_DUE_TO_RAPID_FLUCTATIONS_IN_RELATIVE_SEA-LEVEL."
4414.5 "6406_8-1"  15.3800 "Sandstone" "Shale"   -999.25    92.0000  8.00000      0.0 "vf"      "f"       -999.25                                                                                                                         "CYCLIC_SHALLOW_MARINE_SEDIMENTATION,_WAVE_DOMINANCE_THE_CYCLICITY_IS_PROBABLY_DUE_TO_RAPID_FLUCTATIONS_IN_RELATIVE_SEA-LEVEL."
4414.6 "6406_8-1"  16.7000 "Sandstone" "Shale"   -999.25    92.0000  8.00000      0.0 "vf"      "f"       -999.25                                                                                                                         "CYCLIC_SHALLOW_MARINE_SEDIMENTATION,_WAVE_DOMINANCE_THE_CYCLICITY_IS_PROBABLY_DUE_TO_RAPID_FLUCTATIONS_IN_RELATIVE_SEA-LEVEL."
4414.7 "6406_8-1"  17.4900 "Sandstone" "Shale"   -999.25    92.0000  8.00000      0.0 "vf"      "f"       -999.25                                                                                                                         "CYCLIC_SHALLOW_MARINE_SEDIMENTATION,_WAVE_DOMINANCE_THE_CYCLICITY_IS_PROBABLY_DUE_TO_RAPID_FLUCTATIONS_IN_RELATIVE_SEA-LEVEL."
4414.8 "6406_8-1"  18.2800 "Sandstone" "Shale"   -999.25    92.0000  8.00000      0.0 "vf"      "f"       -999.25                                                                                                                         "CYCLIC_SHALLOW_MARINE_SEDIMENTATION,_WAVE_DOMINANCE_THE_CYCLICITY_IS_PROBABLY_DUE_TO_RAPID_FLUCTATIONS_IN_RELATIVE_SEA-LEVEL."
4414.9 "6406_8-1"  17.6100 "Sandstone" "Shale"   -999.25    92.0000  8.00000      0.0 "vf"      "f"       "Foreshore/Tidal_sandbar"                                                                                                       "CYCLIC_SHALLOW_MARINE_SEDIMENTATION,_WAVE_DOMINANCE_THE_CYCLICITY_IS_PROBABLY_DUE_TO_RAPID_FLUCTATIONS_IN_RELATIVE_SEA-LEVEL."
4415.0 "6406_8-1"  15.8500 "Sandstone" "Shale"   -999.25    92.0000  8.00000      0.0 "vf"      "f"       "Foreshore/Tidal_sandbar"                                                                                                       "CYCLIC_SHALLOW_MARINE_SEDIMENTATION,_WAVE_DOMINANCE_THE_CYCLICITY_IS_PROBABLY_DUE_TO_RAPID_FLUCTATIONS_IN_RELATIVE_SEA-LEVEL."
4415.1 "6406_8-1"  13.4300 "Sandstone" "Shale"   -999.25    92.0000  8.00000      0.0 "vf"      "f"       "Foreshore/Tidal_sandbar"                                                                                                       "CYCLIC_SHALLOW_MARINE_SEDIMENTATION,_WAVE_DOMINANCE_THE_CYCLICITY_IS_PROBABLY_DUE_TO_RAPID_FLUCTATIONS_IN_RELATIVE_SEA-LEVEL."
4415.2 "6406_8-1"  11.6600 "Sandstone" "Shale"   -999.25    92.0000  8.00000      0.0 "vf"      "f"       "Foreshore/Tidal_sandbar"                                                                                                       "CYCLIC_SHALLOW_MARINE_SEDIMENTATION,_WAVE_DOMINANCE_THE_CYCLICITY_IS_PROBABLY_DUE_TO_RAPID_FLUCTATIONS_IN_RELATIVE_SEA-LEVEL."
4415.3 "6406_8-1"  10.7400 "Sandstone" "Shale"   -999.25    92.0000  8.00000      0.0 "vf"      "f"       "Foreshore/Tidal_sandbar"                                                                                                       "CYCLIC_SHALLOW_MARINE_SEDIMENTATION,_WAVE_DOMINANCE_THE_CYCLICITY_IS_PROBABLY_DUE_TO_RAPID_FLUCTATIONS_IN_RELATIVE_SEA-LEVEL."
4415.4 "6406_8-1"  10.5200 "Sandstone" "Shale"   -999.25    92.0000  8.00000      0.0 "vf"      "f"       "Foreshore/Tidal_sandbar"                                                                                                       "CYCLIC_SHALLOW_MARINE_SEDIMENTATION,_WAVE_DOMINANCE_THE_CYCLICITY_IS_PROBABLY_DUE_TO_RAPID_FLUCTATIONS_IN_RELATIVE_SEA-LEVEL."
4415.5 "6406_8-1"  10.5700 "Sandstone" "Shale"   -999.25    92.0000  8.00000      0.0 "vf"      "f"       "Foreshore/Tidal_sandbar"                                                                                                       "CYCLIC_SHALLOW_MARINE_SEDIMENTATION,_WAVE_DOMINANCE_THE_CYCLICITY_IS_PROBABLY_DUE_TO_RAPID_FLUCTATIONS_IN_RELATIVE_SEA-LEVEL."
4415.6 "6406_8-1"  11.4400 "Sandstone" "Shale"   -999.25    92.0000  8.00000      0.0 "vf"      "f"       "Foreshore/Tidal_sandbar"                                                                                                       "CYCLIC_SHALLOW_MARINE_SEDIMENTATION,_WAVE_DOMINANCE_THE_CYCLICITY_IS_PROBABLY_DUE_TO_RAPID_FLUCTATIONS_IN_RELATIVE_SEA-LEVEL."
4415.7 "6406_8-1"  12.6500 "Sandstone" "Shale"   -999.25    92.0000  8.00000      0.0 "vf"      "f"       "Foreshore/Tidal_sandbar"                                                                                                       "CYCLIC_SHALLOW_MARINE_SEDIMENTATION,_WAVE_DOMINANCE_THE_CYCLICITY_IS_PROBABLY_DUE_TO_RAPID_FLUCTATIONS_IN_RELATIVE_SEA-LEVEL."
4415.8 "6406_8-1"  13.7500 "Sandstone" "Shale"   -999.25    92.0000  8.00000      0.0 "vf"      "f"       "Foreshore/Tidal_sandbar"                                                                                                       "CYCLIC_SHALLOW_MARINE_SEDIMENTATION,_WAVE_DOMINANCE_THE_CYCLICITY_IS_PROBABLY_DUE_TO_RAPID_FLUCTATIONS_IN_RELATIVE_SEA-LEVEL."
4415.9 "6406_8-1"  14.3700 "Sandstone" "Shale"   -999.25    92.0000  8.00000      0.0 "vf"      "f"       "Foreshore/Tidal_sandbar"                                                                                                       "CYCLIC_SHALLOW_MARINE_SEDIMENTATION,_WAVE_DOMINANCE_THE_CYCLICITY_IS_PROBABLY_DUE_TO_RAPID_FLUCTATIONS_IN_RELATIVE_SEA-LEVEL."
