~Version
VERS  .                                 3.0 : CWLS LAS ASCII Standard - Version 3.0
WRAP  . NO                                  : One line per depth step
DLM   . SPACE                               : Column data section delimiter
SOURCE. Converted to LAS by Log Studio 4.76 : GeoProvider

~Well
STRT.         4370.0 : Start depth
STOP.         4658.9 : Stop depth
STEP.              1 : Step
NULL.        -999.25 : No-value
COMP.                : Company
WELL. 6406/8-1       : Well
FLD .                : Field
LOC .                : Location
LATI.                : Latitude
LONG.                : Longitude
GDAT.                : Geodetic datum
CNTY.                : County
STAT.                : State
CTRY.                : Country
SRVC. GeoProvider AS : Service company
DATE.                : Date
API .                : API number
RUN .                : Run number

~Parameters
WellboreName.  : Wellbore name
RigName     .  : Rig name
StartDate   .  : Start date

~Curves
DEPTH.m            .  : null {F}Depth mMD
Hole_ID.-          .  : null {S}Hole ID
GR.API             .  : null {F}Gamma Ray
Lithology1.-       .  : null {S}Lithology 1
Lithology2.-       .  : null {S}Lithology 2
Lithology3.-       .  : null {S}Lithology 3
Lithology1.%       .  : null {F}Lithology 1 percentage
Lithology2.%       .  : null {F}Lithology 2 percentage
Lithology3.%       .  : null {F}Lithology 3 percentage
Grain_size_Top.-   .  : null {S}Grain size at the top 
Grain_size_Base.-  .  : null {S}Grain size at the bottom
Sub_Environment.-  .  : null {S}Sub Environment
Gross_Environment.-.  : null {S}Gross Environment

~Ascii
# ...
4440.6 "6406_8-1"  25.5800 "Sandstone" "Shale"   -999.25    90.0000 10.00000      0.0 "vf"      "vf/f"    "Mouth_bar,_tidal_influenced"                                                                                                   "CYCLIC_SHALLOW_MARINE_SEDIMENTATION,_WAVE_DOMINANCE_THE_CYCLICITY_IS_PROBABLY_DUE_TO_RAPID_FLUCTATIONS_IN_RELATIVE_SEA-LEVEL."
4440.7 "6406_8-1"  24.0500 "Sandstone" "Shale"   -999.25    90.0000 10.00000      0.0 "vf"      "vf/f"    "Mouth_bar,_tidal_influenced"                                                                                                   "CYCLIC_SHALLOW_MARINE_SEDIMENTATION,_WAVE_DOMINANCE_THE_CYCLICITY_IS_PROBABLY_DUE_TO_RAPID_FLUCTATIONS_IN_RELATIVE_SEA-LEVEL."
4440.8 "6406_8-1"  22.6100 "Sandstone" "Shale"   -999.25    90.0000 10.00000      0.0 "vf"      "vf/f"    "Mouth_bar,_tidal_influenced"                                                                                                   "CYCLIC_SHALLOW_MARINE_SEDIMENTATION,_WAVE_DOMINANCE_THE_CYCLICITY_IS_PROBABLY_DUE_TO_RAPID_FLUCTATIONS_IN_RELATIVE_SEA-LEVEL."
4440.9 "6406_8-1"  22.0600 "Sandstone" "Shale"   -999.25    90.0000 10.00000      0.0 "vf"      "vf/f"    "Mouth_bar,_tidal_influenced"                                                                                                   "CYCLIC_SHALLOW_MARINE_SEDIMENTATION,_WAVE_DOMINANCE_THE_CYCLICITY_IS_PROBABLY_DUE_TO_RAPID_FLUCTATIONS_IN_RELATIVE_SEA-LEVEL."
4441.0 "6406_8-1"  22.6100 "Sandstone" "Shale"   -999.25    90.0000 10.00000      0.0 "vf"      "vf/f"    "Mouth_bar,_tidal_influenced"                                                                                                   "CYCLIC_SHALLOW_MARINE_SEDIMENTATION,_WAVE_DOMINANCE_THE_CYCLICITY_IS_PROBABLY_DUE_TO_RAPID_FLUCTATIONS_IN_RELATIVE_SEA-LEVEL."
4441.1 "6406_8-1"  25.3900 "Sandstone" "Shale"   -999.25    90.0000 10.00000      0.0 "vf"      "vf/f"    "Mouth_bar,_tidal_influenced"                                                                                                   "CYCLIC_SHALLOW_MARINE_SEDIMENTATION,_WAVE_DOMINANCE_THE_CYCLICITY_IS_PROBABLY_DUE_TO_RAPID_FLUCTATIONS_IN_RELATIVE_SEA-LEVEL."
4441.2 "6406_8-1"  28.2800 "Sandstone" "Shale"   -999.25    90.0000 10.00000      0.0 "vf"      "vf/f"    "Mouth_bar,_tidal_influenced"                                                                                                   "CYCLIC_SHALLOW_MARINE_SEDIMENTATION,_WAVE_DOMINANCE_THE_CYCLICITY_IS_PROBABLY_DUE_TO_RAPID_FLUCTATIONS_IN_RELATIVE_SEA-LEVEL."
4441.3 "6406_8-1"  29.4700 "Sandstone" "Shale"   -999.25    90.0000 10.00000      0.0 "vf"      "vf/f"    "Mouth_bar,_tidal_influenced"                                                                                                   "CYCLIC_SHALLOW_MARINE_SEDIMENTATION,_WAVE_DOMINANCE_THE_CYCLICITY_IS_PROBABLY_DUE_TO_RAPID_FLUCTATIONS_IN_RELATIVE_SEA-LEVEL."
4441.4 "6406_8-1"  29.5900 "Sandstone" "Shale"   -999.25    90.0000 10.00000      0.0 "vf"      "vf/f"    "Mouth_bar,_tidal_influenced"                                                                                                   "CYCLIC_SHALLOW_MARINE_SEDIMENTATION,_WAVE_DOMINANCE_THE_CYCLICITY_IS_PROBABLY_DUE_TO_RAPID_FLUCTATIONS_IN_RELATIVE_SEA-LEVEL."
4441.5 "6406_8-1"  28.4700 "Sandstone" "Shale"   -999.25    90.0000 10.00000      0.0 "vf"      "vf/f"    "Mouth_bar,_tidal_influenced"                                                                                                   "CYCLIC_SHALLOW_MARINE_SEDIMENTATION,_WAVE_DOMINANCE_THE_CYCLICITY_IS_PROBABLY_DUE_TO_RAPID_FLUCTATIONS_IN_RELATIVE_SEA-LEVEL."
4441.6 "6406_8-1"  27.2000 "Sandstone" "Shale"   -999.25    90.0000 10.00000      0.0 "vf"      "vf/f"    "Mouth_bar,_tidal_influenced"                                                                                                   "CYCLIC_SHALLOW_MARINE_SEDIMENTATION,_WAVE_DOMINANCE_THE_CYCLICITY_IS_PROBABLY_DUE_TO_RAPID_FLUCTATIONS_IN_RELATIVE_SEA-LEVEL."
4441.7 "6406_8-1"  26.2000 "Sandstone" "Shale"   -999.25    90.0000 10.00000      0.0 "vf"      "vf/f"    "Mouth_bar,_tidal_influenced"                                                                                                   "CYCLIC_SHALLOW_MARINE_SEDIMENTATION,_WAVE_DOMINANCE_THE_CYCLICITY_IS_PROBABLY_DUE_TO_RAPID_FLUCTATIONS_IN_RELATIVE_SEA-LEVEL."
4441.8 "6406_8-1"  26.0800 "Sandstone" "Shale"   -999.25    90.0000 10.00000      0.0 "vf"      "vf/f"    "Mouth_bar,_tidal_influenced"                                                                                                   "CYCLIC_SHALLOW_MARINE_SEDIMENTATION,_WAVE_DOMINANCE_THE_CYCLICITY_IS_PROBABLY_DUE_TO_RAPID_FLUCTATIONS_IN_RELATIVE_SEA-LEVEL."
4441.9 "6406_8-1"  26.7500 "Sandstone" "Shale"   -999.25    90.0000 10.00000      0.0 "vf"      "vf/f"    "Mouth_bar,_tidal_influenced"                                                                                                   "CYCLIC_SHALLOW_MARINE_SEDIMENTATION,_WAVE_DOMINANCE_THE_CYCLICITY_IS_PROBABLY_DUE_TO_RAPID_FLUCTATIONS_IN_RELATIVE_SEA-LEVEL."
4442.0 "6406_8-1"  29.9600 "Sandstone" "Shale"   -999.25    90.0000 10.00000      0.0 "vf"      "vf/f"    "Mouth_bar,_tidal_influenced"                                                                                                   "CYCLIC_SHALLOW_MARINE_SEDIMENTATION,_WAVE_DOMINANCE_THE_CYCLICITY_IS_PROBABLY_DUE_TO_RAPID_FLUCTATIONS_IN_RELATIVE_SEA-LEVEL."
4442.1 "6406_8-1"  34.9500 "Sandstone" "Shale"   -999.25    90.0000 10.00000      0.0 "vf"      "vf/f"    "Mouth_bar,_tidal_influenced"                                                                                                   "CYCLIC_SHALLOW_MARINE_SEDIMENTATION,_WAVE_DOMINANCE_THE_CYCLICITY_IS_PROBABLY_DUE_TO_RAPID_FLUCTATIONS_IN_RELATIVE_SEA-LEVEL."
4442.2 "6406_8-1"  39.9400 "Sandstone" "Shale"   -999.25    90.0000 10.00000      0.0 "vf"      "vf/f"    "Mouth_bar,_tidal_influenced"                                                                                                   "CYCLIC_SHALLOW_MARINE_SEDIMENTATION,_WAVE_DOMINANCE_THE_CYCLICITY_IS_PROBABLY_DUE_TO_RAPID_FLUCTATIONS_IN_RELATIVE_SEA-LEVEL."
4442.3 "6406_8-1"  44.9300 "Sandstone" "Shale"   -999.25    90.0000 10.00000      0.0 "vf"      "vf/f"    "Mouth_bar,_tidal_influenced"                                                                                                   "CYCLIC_SHALLOW_MARINE_SEDIMENTATION,_WAVE_DOMINANCE_THE_CYCLICITY_IS_PROBABLY_DUE_TO_RAPID_FLUCTATIONS_IN_RELATIVE_SEA-LEVEL."
4442.4 "6406_8-1"  49.6600 "Sandstone" "Shale"   -999.25    90.0000 10.00000      0.0 "vf"      "vf/f"    "Mouth_bar,_tidal_influenced"                                                                                                   "CYCLIC_SHALLOW_MARINE_SEDIMENTATION,_WAVE_DOMINANCE_THE_CYCLICITY_IS_PROBABLY_DUE_TO_RAPID_FLUCTATIONS_IN_RELATIVE_SEA-LEVEL."
4442.5 "6406_8-1"  50.7900 "Sandstone" "Shale"   -999.25    90.0000 10.00000      0.0 "vf"      "vf/f"    "Mouth_bar,_tidal_influenced"                                                                                                   "CYCLIC_SHALLOW_MARINE_SEDIMENTATION,_WAVE_DOMINANCE_THE_CYCLICITY_IS_PROBABLY_DUE_TO_RAPID_FLUCTATIONS_IN_RELATIVE_SEA-LEVEL."
4442.6 "6406_8-1"  50.8400 "Sandstone" "Shale"   -999.25    90.0000 10.00000      0.0 "vf"      "vf/f"    "Mouth_bar,_tidal_influenced"                                                                                                   "CYCLIC_SHALLOW_MARINE_SEDIMENTATION,_WAVE_DOMINANCE_THE_CYCLICITY_IS_PROBABLY_DUE_TO_RAPID_FLUCTATIONS_IN_RELATIVE_SEA-LEVEL."
4442.7 "6406_8-1"  50.2500 "Sandstone" "Shale"   -999.25    90.0000 10.00000      0.0 "vf"      "vf/f"    "Mouth_bar,_tidal_influenced"                                                                                                   "CYCLIC_SHALLOW_MARINE_SEDIMENTATION,_WAVE_DOMINANCE_THE_CYCLICITY_IS_PROBABLY_DUE_TO_RAPID_FLUCTATIONS_IN_RELATIVE_SEA-LEVEL."
4442.8 "6406_8-1"  48.9300 "Sandstone" "Shale"   -999.25    90.0000 10.00000      0.0 "vf"      "vf/f"    "Mouth_bar,_tidal_influenced"                                                                                                   "CYCLIC_SHALLOW_MARINE_SEDIMENTATION,_WAVE_DOMINANCE_THE_CYCLICITY_IS_PROBABLY_DUE_TO_RAPID_FLUCTATIONS_IN_RELATIVE_SEA-LEVEL."
