~Version
VERS  .                                 3.0 : CWLS LAS ASCII Standard - Version 3.0
WRAP  . NO                                  : One line per depth step
DLM   . SPACE                               : Column data section delimiter
SOURCE. Converted to LAS by Log Studio 4.76 : GeoProvider

~Well
STRT.         4370.0 : Start depth
STOP.         4658.9 : Stop depth
STEP.              1 : Step
NULL.        -999.25 : No-value
COMP.                : Company
WELL. 6406/8-1       : Well
FLD .                : Field
LOC .                : Location
LATI.                : Latitude
LONG.                : Longitude
GDAT.                : Geodetic datum
CNTY.                : County
STAT.                : State
CTRY.                : Country
SRVC. GeoProvider AS : Service company
DATE.                : Date
API .                : API number
RUN .                : Run number

~Parameters
WellboreName.  : Wellbore name
RigName     .  : Rig name
StartDate   .  : Start date

~Curves
DEPTH.m            .  : null {F}Depth mMD
Hole_ID.-          .  : null {S}Hole ID
GR.API             .  : null {F}Gamma Ray
Lithology1.-       .  : null {S}Lithology 1
Lithology2.-       .  : null {S}Lithology 2
Lithology3.-       .  : null {S}Lithology 3
Lithology1.%       .  : null {F}Lithology 1 percentage
Lithology2.%       .  : null {F}Lithology 2 percentage
Lithology3.%       .  : null {F}Lithology 3 percentage
Grain_size_Top.-   .  : null {S}Grain size at the top 
Grain_size_Base.-  .  : null {S}Grain size at the bottom
Sub_Environment.-  .  : null {S}Sub Environment
Gross_Environment.-.  : null {S}Gross Environment

~Ascii
# ...
4383.8 "6406_8-1"  18.8500 "Sandstone" "Shale"   -999.25    75.0000 25.00000      0.0 "silt"    "f"       "Lower_shoreface_(?)_tidal_influenced_outer_bay"                                                                                "CYCLIC_SEDIMENTATION_IN_A_LOW-ENERGY_SHORELINE_SYSTEM_SUBAERIAL_EXPOSURE_AT_TOP"                                            
4383.9 "6406_8-1"  19.7700 "Sandstone" "Shale"   -999.25    75.0000 25.00000      0.0 "silt"    "f"       "Lower_shoreface_(?)_tidal_influenced_outer_bay"                                                                                "CYCLIC_SEDIMENTATION_IN_A_LOW-ENERGY_SHORELINE_SYSTEM_SUBAERIAL_EXPOSURE_AT_TOP"                                            
4384.0 "6406_8-1"  21.3500 "Sandstone" "Shale"   -999.25    75.0000 25.00000      0.0 "silt"    "f"       "Outer_bay_lagoon"                                                                                                              "CYCLIC_SEDIMENTATION_IN_A_LOW-ENERGY_SHORELINE_SYSTEM_SUBAERIAL_EXPOSURE_AT_TOP"                                            
4384.1 "6406_8-1"  22.9300 "Sandstone" "Shale"   -999.25    75.0000 25.00000      0.0 "silt"    "f"       "Outer_bay_lagoon"                                                                                                              "CYCLIC_SEDIMENTATION_IN_A_LOW-ENERGY_SHORELINE_SYSTEM_SUBAERIAL_EXPOSURE_AT_TOP"                                            
4384.2 "6406_8-1"  25.7500 "Sandstone" "Shale"   -999.25    75.0000 25.00000      0.0 "silt"    "f"       "Outer_bay_lagoon"                                                                                                              "CYCLIC_SEDIMENTATION_IN_A_LOW-ENERGY_SHORELINE_SYSTEM_SUBAERIAL_EXPOSURE_AT_TOP"                                            
4384.3 "6406_8-1"  26.0900 "Sandstone" "Shale"   -999.25    75.0000 25.00000      0.0 "silt"    "f"       "Outer_bay_lagoon"                                                                                                              "CYCLIC_SEDIMENTATION_IN_A_LOW-ENERGY_SHORELINE_SYSTEM_SUBAERIAL_EXPOSURE_AT_TOP"                                            
4384.4 "6406_8-1"  26.4300 "Sandstone" "Shale"   -999.25    75.0000 25.00000      0.0 "silt"    "f"       "Outer_bay_lagoon"                                                                                                              "CYCLIC_SEDIMENTATION_IN_A_LOW-ENERGY_SHORELINE_SYSTEM_SUBAERIAL_EXPOSURE_AT_TOP"                                            
4384.5 "6406_8-1"  26.7700 "Sandstone" "Shale"   -999.25    75.0000 25.00000      0.0 "silt"    "f"       "Outer_bay_lagoon"                                                                                                              "CYCLIC_SEDIMENTATION_IN_A_LOW-ENERGY_SHORELINE_SYSTEM_SUBAERIAL_EXPOSURE_AT_TOP"                                            
4384.6 "6406_8-1"  27.1100 "Sandstone" "Shale"   -999.25    75.0000 25.00000      0.0 "silt"    "f"       "Outer_bay_lagoon"                                                                                                              "CYCLIC_SEDIMENTATION_IN_A_LOW-ENERGY_SHORELINE_SYSTEM_SUBAERIAL_EXPOSURE_AT_TOP"                                            
4384.7 "6406_8-1"  28.5700 "Sandstone" "Shale"   -999.25    75.0000 25.00000      0.0 "silt"    "f"       "Outer_bay_lagoon"                                                                                                              "CYCLIC_SEDIMENTATION_IN_A_LOW-ENERGY_SHORELINE_SYSTEM_SUBAERIAL_EXPOSURE_AT_TOP"                                            
4384.8 "6406_8-1"  30.7900 "Sandstone" "Shale"   -999.25    75.0000 25.00000      0.0 "silt"    "f"       "Outer_bay_lagoon"                                                                                                              "CYCLIC_SEDIMENTATION_IN_A_LOW-ENERGY_SHORELINE_SYSTEM_SUBAERIAL_EXPOSURE_AT_TOP"                                            
4384.9 "6406_8-1"  33.4200 "Sandstone" "Shale"   -999.25    75.0000 25.00000      0.0 "silt"    "f"       "Outer_bay_lagoon"                                                                                                              "CYCLIC_SEDIMENTATION_IN_A_LOW-ENERGY_SHORELINE_SYSTEM_SUBAERIAL_EXPOSURE_AT_TOP"                                            
4385.0 "6406_8-1"  35.5100 "Sandstone" "Shale"   -999.25    75.0000 25.00000      0.0 "silt"    "f"       "Outer_bay_lagoon"                                                                                                              "CYCLIC_SEDIMENTATION_IN_A_LOW-ENERGY_SHORELINE_SYSTEM_SUBAERIAL_EXPOSURE_AT_TOP"                                            
4385.1 "6406_8-1"  36.0100 "Sandstone" "Shale"   -999.25    75.0000 25.00000      0.0 "silt"    "f"       "Outer_bay_lagoon"                                                                                                              "CYCLIC_SEDIMENTATION_IN_A_LOW-ENERGY_SHORELINE_SYSTEM_SUBAERIAL_EXPOSURE_AT_TOP"                                            
4385.2 "6406_8-1"  36.5200 "Sandstone" "Shale"   -999.25    75.0000 25.00000      0.0 "silt"    "f"       "Outer_bay_lagoon"                                                                                                              "CYCLIC_SEDIMENTATION_IN_A_LOW-ENERGY_SHORELINE_SYSTEM_SUBAERIAL_EXPOSURE_AT_TOP"                                            
4385.3 "6406_8-1"  36.4400 "Sandstone" "Shale"   -999.25    75.0000 25.00000      0.0 "silt"    "f"       "Outer_bay_lagoon"                                                                                                              "CYCLIC_SEDIMENTATION_IN_A_LOW-ENERGY_SHORELINE_SYSTEM_SUBAERIAL_EXPOSURE_AT_TOP"                                            
4385.4 "6406_8-1"  34.7500 "Sandstone" "Shale"   -999.25    75.0000 25.00000      0.0 "silt"    "f"       "Outer_bay_lagoon"                                                                                                              "CYCLIC_SEDIMENTATION_IN_A_LOW-ENERGY_SHORELINE_SYSTEM_SUBAERIAL_EXPOSURE_AT_TOP"                                            
4385.5 "6406_8-1"  34.0000 "Sandstone" "Shale"   -999.25    75.0000 25.00000      0.0 "silt"    "f"       "Outer_bay_lagoon"                                                                                                              "CYCLIC_SEDIMENTATION_IN_A_LOW-ENERGY_SHORELINE_SYSTEM_SUBAERIAL_EXPOSURE_AT_TOP"                                            
4385.6 "6406_8-1"  33.6600 "Sandstone" "Shale"   -999.25    75.0000 25.00000      0.0 "silt"    "f"       "Outer_bay_lagoon"                                                                                                              "CYCLIC_SEDIMENTATION_IN_A_LOW-ENERGY_SHORELINE_SYSTEM_SUBAERIAL_EXPOSURE_AT_TOP"                                            
4385.7 "6406_8-1"  33.4900 "Sandstone" "Shale"   -999.25    75.0000 25.00000      0.0 "silt"    "f"       "Outer_bay_lagoon"                                                                                                              "CYCLIC_SEDIMENTATION_IN_A_LOW-ENERGY_SHORELINE_SYSTEM_SUBAERIAL_EXPOSURE_AT_TOP"                                            
4385.8 "6406_8-1"  33.3100 "Sandstone" "Shale"   -999.25    75.0000 25.00000      0.0 "silt"    "f"       "Outer_bay_lagoon"                                                                                                              "CYCLIC_SEDIMENTATION_IN_A_LOW-ENERGY_SHORELINE_SYSTEM_SUBAERIAL_EXPOSURE_AT_TOP"                                            
4385.9 "6406_8-1"  32.0000 "Sandstone" "Shale"   -999.25    75.0000 25.00000      0.0 "silt"    "f"       "Outer_bay_lagoon"                                                                                                              "CYCLIC_SEDIMENTATION_IN_A_LOW-ENERGY_SHORELINE_SYSTEM_SUBAERIAL_EXPOSURE_AT_TOP"                                            
4386.0 "6406_8-1"  30.5300 "Sandstone" "Shale"   -999.25    75.0000 25.00000      0.0 "silt"    "f"       "Outer_bay_lagoon"                                                                                                              "CYCLIC_SEDIMENTATION_IN_A_LOW-ENERGY_SHORELINE_SYSTEM_SUBAERIAL_EXPOSURE_AT_TOP"                                            
