~Version
VERS  .                                 3.0 : CWLS LAS ASCII Standard - Version 3.0
WRAP  . NO                                  : One line per depth step
DLM   . SPACE                               : Column data section delimiter
SOURCE. Converted to LAS by Log Studio 4.76 : GeoProvider

~Well
STRT.         3930.0 : Start depth
STOP.         4375.5 : Stop depth
STEP.              1 : Step
NULL.        -999.25 : No-value
COMP.                : Company
WELL. 6406/3-2       : Well
FLD .                : Field
LOC .                : Location
LATI.                : Latitude
LONG.                : Longitude
GDAT.                : Geodetic datum
CNTY.                : County
STAT.                : State
CTRY.                : Country
SRVC. GeoProvider AS : Service company
DATE.                : Date
API .                : API number
RUN .                : Run number

~Parameters
WellboreName.  : Wellbore name
RigName     .  : Rig name
StartDate   .  : Start date

~Curves
DEPTH.m            .  : null {F}Depth mMD
Hole_ID.-          .  : null {S}Hole ID
GR.API             .  : null {F}Gamma Ray
Lithology1.-       .  : null {S}Lithology 1
Lithology2.-       .  : null {S}Lithology 2
Lithology3.-       .  : null {S}Lithology 3
Lithology1.%       .  : null {F}Lithology 1 percentage
Lithology2.%       .  : null {F}Lithology 2 percentage
Lithology3.%       .  : null {F}Lithology 3 percentage
Grain_size_Top.-   .  : null {S}Grain size at the top 
Grain_size_Base.-  .  : null {S}Grain size at the bottom
Sub_Environment.-  .  : null {S}Sub Environment
Gross_Environment.-.  : null {S}Gross Environment

~Ascii
# ...
3989.4 "6406_3-2"  56.2300 "Sandstone" -999.25   -999.25   100.0000      0.0      0.0 "m"        "m"     "Fan_ delta_ front;_ gravity_ transtorted_ sediments_ occasionaly"                                                                                                   "PROGRADING_ AND_ AGGRADING_ FAN_ DELTA_ FRONT_ MULTICYCLIC_ DEVELOPMENT"                         
3989.5 "6406_3-2"  57.3700 "Sandstone" -999.25   -999.25   100.0000      0.0      0.0 "m"        "m"     "Fan_ delta_ front;_ gravity_ transtorted_ sediments_ occasionaly"                                                                                                   "PROGRADING_ AND_ AGGRADING_ FAN_ DELTA_ FRONT_ MULTICYCLIC_ DEVELOPMENT"                         
3989.6 "6406_3-2"  56.9800 "Sandstone" -999.25   -999.25   100.0000      0.0      0.0 "m"        "m"     "Fan_ delta_ front;_ gravity_ transtorted_ sediments_ occasionaly"                                                                                                   "PROGRADING_ AND_ AGGRADING_ FAN_ DELTA_ FRONT_ MULTICYCLIC_ DEVELOPMENT"                         
3989.7 "6406_3-2"  56.5900 "Sandstone" "Limestone" -999.25    94.0000  6.00000      0.0 "m"        "m"     "Fan_ delta_ front;_ gravity_ transtorted_ sediments_ occasionaly"                                                                                                   "PROGRADING_ AND_ AGGRADING_ FAN_ DELTA_ FRONT_ MULTICYCLIC_ DEVELOPMENT"                         
3989.8 "6406_3-2"  56.2000 "Sandstone" "Limestone" -999.25    94.0000  6.00000      0.0 "m"        "m"     "Fan_ delta_ front;_ gravity_ transtorted_ sediments_ occasionaly"                                                                                                   "PROGRADING_ AND_ AGGRADING_ FAN_ DELTA_ FRONT_ MULTICYCLIC_ DEVELOPMENT"                         
3989.9 "6406_3-2"  56.4400 "Sandstone" "Limestone" -999.25    94.0000  6.00000      0.0 "m"        "m"     "Fan_ delta_ front;_ gravity_ transtorted_ sediments_ occasionaly"                                                                                                   "PROGRADING_ AND_ AGGRADING_ FAN_ DELTA_ FRONT_ MULTICYCLIC_ DEVELOPMENT"                         
3990.0 "6406_3-2"  56.8300 "Sandstone" "Limestone" -999.25    94.0000  6.00000      0.0 "m"        "m"     "Fan_ delta_ front;_ gravity_ transtorted_ sediments_ occasionaly"                                                                                                   "PROGRADING_ AND_ AGGRADING_ FAN_ DELTA_ FRONT_ MULTICYCLIC_ DEVELOPMENT"                         
3990.1 "6406_3-2"  56.4300 "Sandstone" "Limestone" -999.25    94.0000  6.00000      0.0 "m"        "m"     "Fan_ delta_ front;_ gravity_ transtorted_ sediments_ occasionaly"                                                                                                   "PROGRADING_ AND_ AGGRADING_ FAN_ DELTA_ FRONT_ MULTICYCLIC_ DEVELOPMENT"                         
3990.2 "6406_3-2"  55.5900 "Sandstone" "Limestone" -999.25    94.0000  6.00000      0.0 "m"        "m"     "Fan_ delta_ front;_ gravity_ transtorted_ sediments_ occasionaly"                                                                                                   "PROGRADING_ AND_ AGGRADING_ FAN_ DELTA_ FRONT_ MULTICYCLIC_ DEVELOPMENT"                         
3990.3 "6406_3-2"  54.7600 "Sandstone" "Limestone" -999.25    94.0000  6.00000      0.0 "m"        "m"     "Fan_ delta_ front;_ gravity_ transtorted_ sediments_ occasionaly"                                                                                                   "PROGRADING_ AND_ AGGRADING_ FAN_ DELTA_ FRONT_ MULTICYCLIC_ DEVELOPMENT"                         
3990.4 "6406_3-2"  53.9300 "Sandstone" "Limestone" -999.25    94.0000  6.00000      0.0 "m"        "m"     "Fan_ delta_ front;_ gravity_ transtorted_ sediments_ occasionaly"                                                                                                   "PROGRADING_ AND_ AGGRADING_ FAN_ DELTA_ FRONT_ MULTICYCLIC_ DEVELOPMENT"                         
3990.5 "6406_3-2"  50.9600 "Sandstone" "Limestone" -999.25    94.0000  6.00000      0.0 "m"        "m"     "Fan_ delta_ front;_ gravity_ transtorted_ sediments_ occasionaly"                                                                                                   "PROGRADING_ AND_ AGGRADING_ FAN_ DELTA_ FRONT_ MULTICYCLIC_ DEVELOPMENT"                         
3990.6 "6406_3-2"  50.0100 "Sandstone" "Limestone" -999.25    94.0000  6.00000      0.0 "m"        "m"     "Fan_ delta_ front;_ gravity_ transtorted_ sediments_ occasionaly"                                                                                                   "PROGRADING_ AND_ AGGRADING_ FAN_ DELTA_ FRONT_ MULTICYCLIC_ DEVELOPMENT"                         
3990.7 "6406_3-2"  49.7100 "Sandstone" "Limestone" -999.25    94.0000  6.00000      0.0 "m"        "m"     "Fan_ delta_ front;_ gravity_ transtorted_ sediments_ occasionaly"                                                                                                   "PROGRADING_ AND_ AGGRADING_ FAN_ DELTA_ FRONT_ MULTICYCLIC_ DEVELOPMENT"                         
3990.8 "6406_3-2"  49.4100 "Sandstone" "Limestone" -999.25    94.0000  6.00000      0.0 "m"        "m"     "Fan_ delta_ front;_ gravity_ transtorted_ sediments_ occasionaly"                                                                                                   "PROGRADING_ AND_ AGGRADING_ FAN_ DELTA_ FRONT_ MULTICYCLIC_ DEVELOPMENT"                         
3990.9 "6406_3-2"  49.5700 "Sandstone" "Limestone" -999.25    94.0000  6.00000      0.0 "m"        "m"     "Fan_ delta_ front;_ gravity_ transtorted_ sediments_ occasionaly"                                                                                                   "PROGRADING_ AND_ AGGRADING_ FAN_ DELTA_ FRONT_ MULTICYCLIC_ DEVELOPMENT"                         
3991.0 "6406_3-2"  51.0300 "Sandstone" "Limestone" -999.25    94.0000  6.00000      0.0 "m"        "m"     "Fan_ delta_ front;_ gravity_ transtorted_ sediments_ occasionaly"                                                                                                   "PROGRADING_ AND_ AGGRADING_ FAN_ DELTA_ FRONT_ MULTICYCLIC_ DEVELOPMENT"                         
3991.1 "6406_3-2"  52.4000 "Sandstone" "Limestone" -999.25    94.0000  6.00000      0.0 "m"        "m"     "Fan_ delta_ front;_ gravity_ transtorted_ sediments_ occasionaly"                                                                                                   "PROGRADING_ AND_ AGGRADING_ FAN_ DELTA_ FRONT_ MULTICYCLIC_ DEVELOPMENT"                         
3991.2 "6406_3-2"  53.0100 "Sandstone" "Limestone" -999.25    94.0000  6.00000      0.0 "m"        "m"     "Fan_ delta_ front;_ gravity_ transtorted_ sediments_ occasionaly"                                                                                                   "PROGRADING_ AND_ AGGRADING_ FAN_ DELTA_ FRONT_ MULTICYCLIC_ DEVELOPMENT"                         
3991.3 "6406_3-2"  53.6100 "Sandstone" "Limestone" -999.25    94.0000  6.00000      0.0 "m"        "m"     "Fan_ delta_ front;_ gravity_ transtorted_ sediments_ occasionaly"                                                                                                   "PROGRADING_ AND_ AGGRADING_ FAN_ DELTA_ FRONT_ MULTICYCLIC_ DEVELOPMENT"                         
3991.4 "6406_3-2"  54.2200 "Sandstone" "Limestone" -999.25    94.0000  6.00000      0.0 "m"        "m"     "Fan_ delta_ front;_ gravity_ transtorted_ sediments_ occasionaly"                                                                                                   "PROGRADING_ AND_ AGGRADING_ FAN_ DELTA_ FRONT_ MULTICYCLIC_ DEVELOPMENT"                         
3991.5 "6406_3-2"  54.8200 "Sandstone" "Limestone" -999.25    94.0000  6.00000      0.0 "m"        "m"     "Fan_ delta_ front;_ gravity_ transtorted_ sediments_ occasionaly"                                                                                                   "PROGRADING_ AND_ AGGRADING_ FAN_ DELTA_ FRONT_ MULTICYCLIC_ DEVELOPMENT"                         
