~Version
VERS  .                                 3.0 : CWLS LAS ASCII Standard - Version 3.0
WRAP  . NO                                  : One line per depth step
DLM   . SPACE                               : Column data section delimiter
SOURCE. Converted to LAS by Log Studio 4.76 : GeoProvider

~Well
STRT.         3930.0 : Start depth
STOP.         4375.5 : Stop depth
STEP.              1 : Step
NULL.        -999.25 : No-value
COMP.                : Company
WELL. 6406/3-2       : Well
FLD .                : Field
LOC .                : Location
LATI.                : Latitude
LONG.                : Longitude
GDAT.                : Geodetic datum
CNTY.                : County
STAT.                : State
CTRY.                : Country
SRVC. GeoProvider AS : Service company
DATE.                : Date
API .                : API number
RUN .                : Run number

~Parameters
WellboreName.  : Wellbore name
RigName     .  : Rig name
StartDate   .  : Start date

~Curves
DEPTH.m            .  : null {F}Depth mMD
Hole_ID.-          .  : null {S}Hole ID
GR.API             .  : null {F}Gamma Ray
Lithology1.-       .  : null {S}Lithology 1
Lithology2.-       .  : null {S}Lithology 2
Lithology3.-       .  : null {S}Lithology 3
Lithology1.%       .  : null {F}Lithology 1 percentage
Lithology2.%       .  : null {F}Lithology 2 percentage
Lithology3.%       .  : null {F}Lithology 3 percentage
Grain_size_Top.-   .  : null {S}Grain size at the top 
Grain_size_Base.-  .  : null {S}Grain size at the bottom
Sub_Environment.-  .  : null {S}Sub Environment
Gross_Environment.-.  : null {S}Gross Environment

~Ascii
# ...
4119.2 "6406_3-2"  -999.25 "Sandstone" -999.25   -999.25   100.0000      0.0      0.0 "m/c"      "m/c"   "Tidal_ sandflat_ complex,_ with_ tidal_ and_ probably_ fluvial_ channels._ Tidal_ sandbars_  ?_  Fluvial_ /_ tidal_ channel_  Tidal_ channel"                       "PROGRADATION/_ AGGRADATION_ OF_ TIDAL_ INFLUENCED_ DELTA_ FRONT/DELTA_ PLAIN,_ ?ESTUARIES"       
4119.3 "6406_3-2"  -999.25 "Sandstone" -999.25   -999.25   100.0000      0.0      0.0 "m/c"      "m/c"   "Tidal_ sandflat_ complex,_ with_ tidal_ and_ probably_ fluvial_ channels._ Tidal_ sandbars_  ?_  Fluvial_ /_ tidal_ channel_  Tidal_ channel"                       "PROGRADATION/_ AGGRADATION_ OF_ TIDAL_ INFLUENCED_ DELTA_ FRONT/DELTA_ PLAIN,_ ?ESTUARIES"       
4119.4 "6406_3-2"  -999.25 "Sandstone" -999.25   -999.25   100.0000      0.0      0.0 "m/c"      "m/c"   "Tidal_ sandflat_ complex,_ with_ tidal_ and_ probably_ fluvial_ channels._ Tidal_ sandbars_  ?_  Fluvial_ /_ tidal_ channel_  Tidal_ channel"                       "PROGRADATION/_ AGGRADATION_ OF_ TIDAL_ INFLUENCED_ DELTA_ FRONT/DELTA_ PLAIN,_ ?ESTUARIES"       
4119.5 "6406_3-2"  -999.25 "Sandstone" -999.25   -999.25   100.0000      0.0      0.0 "m/c"      "m/c"   "Tidal_ sandflat_ complex,_ with_ tidal_ and_ probably_ fluvial_ channels._ Tidal_ sandbars_  ?_  Fluvial_ /_ tidal_ channel_  Tidal_ channel"                       "PROGRADATION/_ AGGRADATION_ OF_ TIDAL_ INFLUENCED_ DELTA_ FRONT/DELTA_ PLAIN,_ ?ESTUARIES"       
4119.6 "6406_3-2"  -999.25 "Sandstone" -999.25   -999.25   100.0000      0.0      0.0 "m/c"      "m/c"   "Tidal_ sandflat_ complex,_ with_ tidal_ and_ probably_ fluvial_ channels._ Tidal_ sandbars_  ?_  Fluvial_ /_ tidal_ channel_  Tidal_ channel"                       "PROGRADATION/_ AGGRADATION_ OF_ TIDAL_ INFLUENCED_ DELTA_ FRONT/DELTA_ PLAIN,_ ?ESTUARIES"       
4119.7 "6406_3-2"  -999.25 "Sandstone" -999.25   -999.25   100.0000      0.0      0.0 "m/c"      "m/c"   "Tidal_ sandflat_ complex,_ with_ tidal_ and_ probably_ fluvial_ channels._ Tidal_ sandbars_  ?_  Fluvial_ /_ tidal_ channel_  Tidal_ channel"                       "PROGRADATION/_ AGGRADATION_ OF_ TIDAL_ INFLUENCED_ DELTA_ FRONT/DELTA_ PLAIN,_ ?ESTUARIES"       
4119.8 "6406_3-2"  -999.25 "Sandstone" -999.25   -999.25   100.0000      0.0      0.0 "m/c"      "m/c"   "Tidal_ sandflat_ complex,_ with_ tidal_ and_ probably_ fluvial_ channels._ Tidal_ sandbars_  ?_  Fluvial_ /_ tidal_ channel_  Tidal_ channel"                       "PROGRADATION/_ AGGRADATION_ OF_ TIDAL_ INFLUENCED_ DELTA_ FRONT/DELTA_ PLAIN,_ ?ESTUARIES"       
4119.9 "6406_3-2"  -999.25 -999.25   -999.25   -999.25   100.0000      0.0      0.0 -999.25    -999.25 -999.25                                                                                                                                                              -999.25                                                                                           
4120.0 "6406_3-2"  -999.25 -999.25   -999.25   -999.25   100.0000      0.0      0.0 -999.25    -999.25 -999.25                                                                                                                                                              -999.25                                                                                           
4120.1 "6406_3-2"  -999.25 -999.25   -999.25   -999.25   100.0000      0.0      0.0 -999.25    -999.25 -999.25                                                                                                                                                              -999.25                                                                                           
4120.2 "6406_3-2"  -999.25 -999.25   -999.25   -999.25   100.0000      0.0      0.0 -999.25    -999.25 -999.25                                                                                                                                                              -999.25                                                                                           
4120.3 "6406_3-2"  -999.25 -999.25   -999.25   -999.25   100.0000      0.0      0.0 -999.25    -999.25 -999.25                                                                                                                                                              -999.25                                                                                           
4120.4 "6406_3-2"  -999.25 -999.25   -999.25   -999.25   100.0000      0.0      0.0 -999.25    -999.25 -999.25                                                                                                                                                              -999.25                                                                                           
4120.5 "6406_3-2"  -999.25 -999.25   -999.25   -999.25   100.0000      0.0      0.0 -999.25    -999.25 -999.25                                                                                                                                                              -999.25                                                                                           
4120.6 "6406_3-2"  -999.25 -999.25   -999.25   -999.25   100.0000      0.0      0.0 -999.25    -999.25 -999.25                                                                                                                                                              -999.25                                                                                           
4120.7 "6406_3-2"  -999.25 -999.25   -999.25   -999.25   100.0000      0.0      0.0 -999.25    -999.25 -999.25                                                                                                                                                              -999.25                                                                                           
4120.8 "6406_3-2"  -999.25 -999.25   -999.25   -999.25   100.0000      0.0      0.0 -999.25    -999.25 -999.25                                                                                                                                                              -999.25                                                                                           
4120.9 "6406_3-2"  -999.25 -999.25   -999.25   -999.25   100.0000      0.0      0.0 -999.25    -999.25 -999.25                                                                                                                                                              -999.25                                                                                           
4121.0 "6406_3-2"  -999.25 "Sandstone" "Limestone" -999.25    80.0000 20.00000      0.0 "m"        "m"     "Mouth_ bar"                                                                                                                                                         "DELTA_ FRONT_ DELTA_ PLAIN"                                                                      
4121.1 "6406_3-2"  -999.25 "Sandstone" "Limestone" -999.25    80.0000 20.00000      0.0 "m"        "m"     "Mouth_ bar"                                                                                                                                                         "DELTA_ FRONT_ DELTA_ PLAIN"                                                                      
4121.2 "6406_3-2"  -999.25 "Sandstone" "Limestone" -999.25    80.0000 20.00000      0.0 "m"        "m"     "Mouth_ bar"                                                                                                                                                         "DELTA_ FRONT_ DELTA_ PLAIN"                                                                      
4121.3 "6406_3-2"  -999.25 "Sandstone" "Limestone" -999.25    80.0000 20.00000      0.0 "m"        "m"     "Mouth_ bar"                                                                                                                                                         "DELTA_ FRONT_ DELTA_ PLAIN"                                                                      
