~Version
VERS  .                                 3.0 : CWLS LAS ASCII Standard - Version 3.0
WRAP  . NO                                  : One line per depth step
DLM   . SPACE                               : Column data section delimiter
SOURCE. Converted to LAS by Log Studio 4.76 : GeoProvider

~Well
STRT.         3930.0 : Start depth
STOP.         4375.5 : Stop depth
STEP.              1 : Step
NULL.        -999.25 : No-value
COMP.                : Company
WELL. 6406/3-2       : Well
FLD .                : Field
LOC .                : Location
LATI.                : Latitude
LONG.                : Longitude
GDAT.                : Geodetic datum
CNTY.                : County
STAT.                : State
CTRY.                : Country
SRVC. GeoProvider AS : Service company
DATE.                : Date
API .                : API number
RUN .                : Run number

~Parameters
WellboreName.  : Wellbore name
RigName     .  : Rig name
StartDate   .  : Start date

~Curves
DEPTH.m            .  : null {F}Depth mMD
Hole_ID.-          .  : null {S}Hole ID
GR.API             .  : null {F}Gamma Ray
Lithology1.-       .  : null {S}Lithology 1
Lithology2.-       .  : null {S}Lithology 2
Lithology3.-       .  : null {S}Lithology 3
Lithology1.%       .  : null {F}Lithology 1 percentage
Lithology2.%       .  : null {F}Lithology 2 percentage
Lithology3.%       .  : null {F}Lithology 3 percentage
Grain_size_Top.-   .  : null {S}Grain size at the top 
Grain_size_Base.-  .  : null {S}Grain size at the bottom
Sub_Environment.-  .  : null {S}Sub Environment
Gross_Environment.-.  : null {S}Gross Environment

~Ascii
# ...
4293.0 "6406_3-2"  62.7900 "Sandstone" "Shale"   -999.25    90.0000 10.00000      0.0 "vf/f"     "vf"    "Tide-influenced_ shallow_ subtidal_ or_ delta_ front"                                                                                                               "PROGRADATION/AGGRADATION_ OF_ TIDAL/MIXED-INFLUENCED_ (FAN)-DELTAIC_ SYSTEM"                     
4293.1 "6406_3-2"  65.9200 "Sandstone" "Shale"   -999.25    90.0000 10.00000      0.0 "vf/f"     "vf"    "Tide-influenced_ shallow_ subtidal_ or_ delta_ front"                                                                                                               "PROGRADATION/AGGRADATION_ OF_ TIDAL/MIXED-INFLUENCED_ (FAN)-DELTAIC_ SYSTEM"                     
4293.2 "6406_3-2"  78.8500 "Sandstone" "Shale"   -999.25    90.0000 10.00000      0.0 "vf/f"     "vf"    "Tide-influenced_ shallow_ subtidal_ or_ delta_ front"                                                                                                               "PROGRADATION/AGGRADATION_ OF_ TIDAL/MIXED-INFLUENCED_ (FAN)-DELTAIC_ SYSTEM"                     
4293.3 "6406_3-2"  81.8100 "Sandstone" "Shale"   -999.25    90.0000 10.00000      0.0 "vf/f"     "vf"    "Tide-influenced_ shallow_ subtidal_ or_ delta_ front"                                                                                                               "PROGRADATION/AGGRADATION_ OF_ TIDAL/MIXED-INFLUENCED_ (FAN)-DELTAIC_ SYSTEM"                     
4293.4 "6406_3-2"  83.6300 "Sandstone" "Shale"   -999.25    90.0000 10.00000      0.0 "vf/f"     "vf"    "Tide-influenced_ shallow_ subtidal_ or_ delta_ front"                                                                                                               "PROGRADATION/AGGRADATION_ OF_ TIDAL/MIXED-INFLUENCED_ (FAN)-DELTAIC_ SYSTEM"                     
4293.5 "6406_3-2"  85.3300 "Sandstone" "Shale"   -999.25    90.0000 10.00000      0.0 "vf/f"     "vf"    "Tide-influenced_ shallow_ subtidal_ or_ delta_ front"                                                                                                               "PROGRADATION/AGGRADATION_ OF_ TIDAL/MIXED-INFLUENCED_ (FAN)-DELTAIC_ SYSTEM"                     
4293.6 "6406_3-2"  74.8000 "Sandstone" "Shale"   -999.25    90.0000 10.00000      0.0 "vf/f"     "vf"    "Tide-influenced_ shallow_ subtidal_ or_ delta_ front"                                                                                                               "PROGRADATION/AGGRADATION_ OF_ TIDAL/MIXED-INFLUENCED_ (FAN)-DELTAIC_ SYSTEM"                     
4293.7 "6406_3-2"  69.3400 "Sandstone" "Shale"   -999.25    90.0000 10.00000      0.0 "vf/f"     "vf"    "Tide-influenced_ shallow_ subtidal_ or_ delta_ front"                                                                                                               "PROGRADATION/AGGRADATION_ OF_ TIDAL/MIXED-INFLUENCED_ (FAN)-DELTAIC_ SYSTEM"                     
4293.8 "6406_3-2"  66.3800 "Sandstone" "Shale"   -999.25    90.0000 10.00000      0.0 "vf/f"     "vf"    "Tide-influenced_ shallow_ subtidal_ or_ delta_ front"                                                                                                               "PROGRADATION/AGGRADATION_ OF_ TIDAL/MIXED-INFLUENCED_ (FAN)-DELTAIC_ SYSTEM"                     
4293.9 "6406_3-2"  66.3800 "Sandstone" "Shale"   -999.25    90.0000 10.00000      0.0 "vf/f"     "vf"    "Tide-influenced_ shallow_ subtidal_ or_ delta_ front"                                                                                                               "PROGRADATION/AGGRADATION_ OF_ TIDAL/MIXED-INFLUENCED_ (FAN)-DELTAIC_ SYSTEM"                     
4294.0 "6406_3-2"  66.6700 "Sandstone" "Shale"   -999.25    90.0000 10.00000      0.0 "vf/f"     "vf"    "Tide-influenced_ shallow_ subtidal_ or_ delta_ front"                                                                                                               "PROGRADATION/AGGRADATION_ OF_ TIDAL/MIXED-INFLUENCED_ (FAN)-DELTAIC_ SYSTEM"                     
4294.1 "6406_3-2"  67.7300 "Sandstone" "Shale"   -999.25    90.0000 10.00000      0.0 "vf/f"     "vf"    "Tide-influenced_ shallow_ subtidal_ or_ delta_ front"                                                                                                               "PROGRADATION/AGGRADATION_ OF_ TIDAL/MIXED-INFLUENCED_ (FAN)-DELTAIC_ SYSTEM"                     
4294.2 "6406_3-2"  69.0800 "Sandstone" "Shale"   -999.25    90.0000 10.00000      0.0 "vf/f"     "vf"    "Tide-influenced_ shallow_ subtidal_ or_ delta_ front"                                                                                                               "PROGRADATION/AGGRADATION_ OF_ TIDAL/MIXED-INFLUENCED_ (FAN)-DELTAIC_ SYSTEM"                     
4294.3 "6406_3-2"  72.1800 "Sandstone" "Shale"   -999.25    90.0000 10.00000      0.0 "vf/f"     "vf"    "Tide-influenced_ shallow_ subtidal_ or_ delta_ front"                                                                                                               "PROGRADATION/AGGRADATION_ OF_ TIDAL/MIXED-INFLUENCED_ (FAN)-DELTAIC_ SYSTEM"                     
4294.4 "6406_3-2"  73.5900 "Sandstone" "Shale"   -999.25    90.0000 10.00000      0.0 "vf/f"     "vf"    "Tide-influenced_ shallow_ subtidal_ or_ delta_ front"                                                                                                               "PROGRADATION/AGGRADATION_ OF_ TIDAL/MIXED-INFLUENCED_ (FAN)-DELTAIC_ SYSTEM"                     
4294.5 "6406_3-2"  74.1900 "Sandstone" "Shale"   -999.25    90.0000 10.00000      0.0 "vf/f"     "vf"    "Tide-influenced_ shallow_ subtidal_ or_ delta_ front"                                                                                                               "PROGRADATION/AGGRADATION_ OF_ TIDAL/MIXED-INFLUENCED_ (FAN)-DELTAIC_ SYSTEM"                     
4294.6 "6406_3-2"  72.5700 "Sandstone" "Shale"   -999.25    90.0000 10.00000      0.0 "vf/f"     "vf"    "Tide-influenced_ shallow_ subtidal_ or_ delta_ front"                                                                                                               "PROGRADATION/AGGRADATION_ OF_ TIDAL/MIXED-INFLUENCED_ (FAN)-DELTAIC_ SYSTEM"                     
4294.7 "6406_3-2"  69.9400 "Sandstone" "Shale"   -999.25    90.0000 10.00000      0.0 "vf/f"     "vf"    "Tide-influenced_ shallow_ subtidal_ or_ delta_ front"                                                                                                               "PROGRADATION/AGGRADATION_ OF_ TIDAL/MIXED-INFLUENCED_ (FAN)-DELTAIC_ SYSTEM"                     
4294.8 "6406_3-2"  67.3000 "Sandstone" "Shale"   -999.25    90.0000 10.00000      0.0 "vf/f"     "vf"    "Tide-influenced_ shallow_ subtidal_ or_ delta_ front"                                                                                                               "PROGRADATION/AGGRADATION_ OF_ TIDAL/MIXED-INFLUENCED_ (FAN)-DELTAIC_ SYSTEM"                     
4294.9 "6406_3-2"  64.6600 "Sandstone" "Shale"   -999.25    90.0000 10.00000      0.0 "vf/f"     "vf"    "Tide-influenced_ shallow_ subtidal_ or_ delta_ front"                                                                                                               "PROGRADATION/AGGRADATION_ OF_ TIDAL/MIXED-INFLUENCED_ (FAN)-DELTAIC_ SYSTEM"                     
4295.0 "6406_3-2"  66.2700 "Sandstone" "Shale"   -999.25    90.0000 10.00000      0.0 "vf/f"     "vf"    "Tide-influenced_ shallow_ subtidal_ or_ delta_ front"                                                                                                               "PROGRADATION/AGGRADATION_ OF_ TIDAL/MIXED-INFLUENCED_ (FAN)-DELTAIC_ SYSTEM"                     
4295.1 "6406_3-2"  66.3600 "Sandstone" "Shale"   -999.25    90.0000 10.00000      0.0 "vf/f"     "vf"    "Tide-influenced_ shallow_ subtidal_ or_ delta_ front"                                                                                                               "PROGRADATION/AGGRADATION_ OF_ TIDAL/MIXED-INFLUENCED_ (FAN)-DELTAIC_ SYSTEM"                     
