~Version
VERS  .                                 3.0 : CWLS LAS ASCII Standard - Version 3.0
WRAP  . NO                                  : One line per depth step
DLM   . SPACE                               : Column data section delimiter
SOURCE. Converted to LAS by Log Studio 4.76 : GeoProvider

~Well
STRT.         3930.0 : Start depth
STOP.         4375.5 : Stop depth
STEP.              1 : Step
NULL.        -999.25 : No-value
COMP.                : Company
WELL. 6406/3-2       : Well
FLD .                : Field
LOC .                : Location
LATI.                : Latitude
LONG.                : Longitude
GDAT.                : Geodetic datum
CNTY.                : County
STAT.                : State
CTRY.                : Country
SRVC. GeoProvider AS : Service company
DATE.                : Date
API .                : API number
RUN .                : Run number

~Parameters
WellboreName.  : Wellbore name
RigName     .  : Rig name
StartDate   .  : Start date

~Curves
DEPTH.m            .  : null {F}Depth mMD
Hole_ID.-          .  : null {S}Hole ID
GR.API             .  : null {F}Gamma Ray
Lithology1.-       .  : null {S}Lithology 1
Lithology2.-       .  : null {S}Lithology 2
Lithology3.-       .  : null {S}Lithology 3
Lithology1.%       .  : null {F}Lithology 1 percentage
Lithology2.%       .  : null {F}Lithology 2 percentage
Lithology3.%       .  : null {F}Lithology 3 percentage
Grain_size_Top.-   .  : null {S}Grain size at the top 
Grain_size_Base.-  .  : null {S}Grain size at the bottom
Sub_Environment.-  .  : null {S}Sub Environment
Gross_Environment.-.  : null {S}Gross Environment

~Ascii
3930.0 "6406_3-2"  83.7200 "Sandstone" -999.25   -999.25   100.0000      0.0      0.0 "f/m"      "f/m"   "Mouth_ bar,_ fan_ delta_ bar"                                                                                                                                       "DELTA_ FRONT"                                                                                    
3930.1 "6406_3-2"  78.8100 "Sandstone" -999.25   -999.25   100.0000      0.0      0.0 "f/m"      "f/m"   "Mouth_ bar,_ fan_ delta_ bar"                                                                                                                                       "DELTA_ FRONT"                                                                                    
3930.2 "6406_3-2"  71.6200 "Sandstone" -999.25   -999.25   100.0000      0.0      0.0 "f/m"      "f/m"   "Mouth_ bar,_ fan_ delta_ bar"                                                                                                                                       "DELTA_ FRONT"                                                                                    
3930.3 "6406_3-2"  64.4300 "Sandstone" -999.25   -999.25   100.0000      0.0      0.0 "f/m"      "f/m"   "Mouth_ bar,_ fan_ delta_ bar"                                                                                                                                       "DELTA_ FRONT"                                                                                    
3930.4 "6406_3-2"  57.9200 "Sandstone" -999.25   -999.25   100.0000      0.0      0.0 "f/m"      "f/m"   "Mouth_ bar,_ fan_ delta_ bar"                                                                                                                                       "DELTA_ FRONT"                                                                                    
3930.5 "6406_3-2"  52.3700 "Sandstone" -999.25   -999.25   100.0000      0.0      0.0 "f/m"      "f/m"   "Mouth_ bar,_ fan_ delta_ bar"                                                                                                                                       "DELTA_ FRONT"                                                                                    
3930.6 "6406_3-2"  46.8200 "Sandstone" -999.25   -999.25   100.0000      0.0      0.0 "f/m"      "f/m"   "Mouth_ bar,_ fan_ delta_ bar"                                                                                                                                       "DELTA_ FRONT"                                                                                    
3930.7 "6406_3-2"  45.5400 "Sandstone" -999.25   -999.25   100.0000      0.0      0.0 "f/m"      "f/m"   "Mouth_ bar,_ fan_ delta_ bar"                                                                                                                                       "DELTA_ FRONT"                                                                                    
3930.8 "6406_3-2"  44.9200 "Sandstone" -999.25   -999.25   100.0000      0.0      0.0 "f/m"      "f/m"   "Mouth_ bar,_ fan_ delta_ bar"                                                                                                                                       "DELTA_ FRONT"                                                                                    
3930.9 "6406_3-2"  45.7900 "Sandstone" -999.25   -999.25   100.0000      0.0      0.0 "f/m"      "f/m"   "Mouth_ bar,_ fan_ delta_ bar"                                                                                                                                       "DELTA_ FRONT"                                                                                    
3931.0 "6406_3-2"  46.6700 "Sandstone" -999.25   -999.25   100.0000      0.0      0.0 "f/m"      "f/m"   "Mouth_ bar,_ fan_ delta_ bar"                                                                                                                                       "DELTA_ FRONT"                                                                                    
3931.1 "6406_3-2"  47.1700 "Sandstone" -999.25   -999.25   100.0000      0.0      0.0 "f/m"      "f/m"   "Mouth_ bar,_ fan_ delta_ bar"                                                                                                                                       "DELTA_ FRONT"                                                                                    
3931.2 "6406_3-2"  46.3200 "Sandstone" -999.25   -999.25   100.0000      0.0      0.0 "f/m"      "f/m"   "Mouth_ bar,_ fan_ delta_ bar"                                                                                                                                       "DELTA_ FRONT"                                                                                    
3931.3 "6406_3-2"  45.4600 "Sandstone" -999.25   -999.25   100.0000      0.0      0.0 "f/m"      "f/m"   "Mouth_ bar,_ fan_ delta_ bar"                                                                                                                                       "DELTA_ FRONT"                                                                                    
3931.4 "6406_3-2"  44.6100 "Sandstone" -999.25   -999.25   100.0000      0.0      0.0 "f/m"      "f/m"   "Mouth_ bar,_ fan_ delta_ bar"                                                                                                                                       "DELTA_ FRONT"                                                                                    
3931.5 "6406_3-2"  44.4800 "Sandstone" -999.25   -999.25   100.0000      0.0      0.0 "f/m"      "f/m"   "Mouth_ bar,_ fan_ delta_ bar"                                                                                                                                       "DELTA_ FRONT"                                                                                    
3931.6 "6406_3-2"  44.8100 "Sandstone" -999.25   -999.25   100.0000      0.0      0.0 "f/m"      "f/m"   "Mouth_ bar,_ fan_ delta_ bar"                                                                                                                                       "DELTA_ FRONT"                                                                                    
3931.7 "6406_3-2"  45.1900 "Sandstone" -999.25   -999.25   100.0000      0.0      0.0 "f/m"      "f/m"   "Mouth_ bar,_ fan_ delta_ bar"                                                                                                                                       "DELTA_ FRONT"                                                                                    
3931.8 "6406_3-2"  45.9700 "Sandstone" -999.25   -999.25   100.0000      0.0      0.0 "f/m"      "f/m"   "Mouth_ bar,_ fan_ delta_ bar"                                                                                                                                       "DELTA_ FRONT"                                                                                    
3931.9 "6406_3-2"  46.7400 "Sandstone" -999.25   -999.25   100.0000      0.0      0.0 "f/m"      "f/m"   "Mouth_ bar,_ fan_ delta_ bar"                                                                                                                                       "DELTA_ FRONT"                                                                                    
3932.0 "6406_3-2"  47.2400 "Sandstone" -999.25   -999.25   100.0000      0.0      0.0 "f/m"      "f/m"   "Mouth_ bar,_ fan_ delta_ bar"                                                                                                                                       "DELTA_ FRONT"                                                                                    
3932.1 "6406_3-2"  46.6900 "Sandstone" -999.25   -999.25   100.0000      0.0      0.0 "f/m"      "f/m"   "Mouth_ bar,_ fan_ delta_ bar"                                                                                                                                       "DELTA_ FRONT"                                                                                    
