~Version
VERS  .                                 3.0 : CWLS LAS ASCII Standard - Version 3.0
WRAP  . NO                                  : One line per depth step
DLM   . SPACE                               : Column data section delimiter
SOURCE. Converted to LAS by Log Studio 4.76 : GeoProvider

~Well
STRT.         3930.0 : Start depth
STOP.         4375.5 : Stop depth
STEP.              1 : Step
NULL.        -999.25 : No-value
COMP.                : Company
WELL. 6406/3-2       : Well
FLD .                : Field
LOC .                : Location
LATI.                : Latitude
LONG.                : Longitude
GDAT.                : Geodetic datum
CNTY.                : County
STAT.                : State
CTRY.                : Country
SRVC. GeoProvider AS : Service company
DATE.                : Date
API .                : API number
RUN .                : Run number

~Parameters
WellboreName.  : Wellbore name
RigName     .  : Rig name
StartDate   .  : Start date

~Curves
DEPTH.m            .  : null {F}Depth mMD
Hole_ID.-          .  : null {S}Hole ID
GR.API             .  : null {F}Gamma Ray
Lithology1.-       .  : null {S}Lithology 1
Lithology2.-       .  : null {S}Lithology 2
Lithology3.-       .  : null {S}Lithology 3
Lithology1.%       .  : null {F}Lithology 1 percentage
Lithology2.%       .  : null {F}Lithology 2 percentage
Lithology3.%       .  : null {F}Lithology 3 percentage
Grain_size_Top.-   .  : null {S}Grain size at the top 
Grain_size_Base.-  .  : null {S}Grain size at the bottom
Sub_Environment.-  .  : null {S}Sub Environment
Gross_Environment.-.  : null {S}Gross Environment

~Ascii
# ...
4374.4 "6406_3-2"  -999.25 "Sandstone" "Shale"   -999.25    80.0000 20.00000      0.0 "vf"       "vf/f"  "Shallow_ subtidal/estuary,_ low_ sedimentation_ rate"                                                                                                               "SHALLOW_ TO_ MARGINAL_ MARINE_ SEDIMENTATION_ IN_ A_ SEMI-ENCLOSED,_ TIDE-DOMINATED_ BASIN/ESTUARY"
4374.5 "6406_3-2"  -999.25 "Sandstone" "Shale"   -999.25    80.0000 20.00000      0.0 "vf"       "vf/f"  "Shallow_ subtidal/estuary,_ low_ sedimentation_ rate"                                                                                                               "SHALLOW_ TO_ MARGINAL_ MARINE_ SEDIMENTATION_ IN_ A_ SEMI-ENCLOSED,_ TIDE-DOMINATED_ BASIN/ESTUARY"
4374.6 "6406_3-2"  -999.25 "Sandstone" "Shale"   -999.25    80.0000 20.00000      0.0 "vf"       "vf/f"  "Shallow_ subtidal/estuary,_ low_ sedimentation_ rate"                                                                                                               "SHALLOW_ TO_ MARGINAL_ MARINE_ SEDIMENTATION_ IN_ A_ SEMI-ENCLOSED,_ TIDE-DOMINATED_ BASIN/ESTUARY"
4374.7 "6406_3-2"  -999.25 "Sandstone" "Shale"   -999.25    80.0000 20.00000      0.0 "vf"       "vf/f"  "Shallow_ subtidal/estuary,_ low_ sedimentation_ rate"                                                                                                               "SHALLOW_ TO_ MARGINAL_ MARINE_ SEDIMENTATION_ IN_ A_ SEMI-ENCLOSED,_ TIDE-DOMINATED_ BASIN/ESTUARY"
4374.8 "6406_3-2"  -999.25 "Sandstone" "Shale"   -999.25    80.0000 20.00000      0.0 "vf"       "vf/f"  "Shallow_ subtidal/estuary,_ low_ sedimentation_ rate"                                                                                                               "SHALLOW_ TO_ MARGINAL_ MARINE_ SEDIMENTATION_ IN_ A_ SEMI-ENCLOSED,_ TIDE-DOMINATED_ BASIN/ESTUARY"
4374.9 "6406_3-2"  -999.25 "Sandstone" "Shale"   -999.25    80.0000 20.00000      0.0 "vf"       "vf/f"  "Shallow_ subtidal/estuary,_ low_ sedimentation_ rate"                                                                                                               "SHALLOW_ TO_ MARGINAL_ MARINE_ SEDIMENTATION_ IN_ A_ SEMI-ENCLOSED,_ TIDE-DOMINATED_ BASIN/ESTUARY"
4375.0 "6406_3-2"  -999.25 "Sandstone" "Shale"   -999.25    80.0000 20.00000      0.0 "vf"       "vf/f"  "Shallow_ subtidal/estuary,_ low_ sedimentation_ rate"                                                                                                               "SHALLOW_ TO_ MARGINAL_ MARINE_ SEDIMENTATION_ IN_ A_ SEMI-ENCLOSED,_ TIDE-DOMINATED_ BASIN/ESTUARY"
4375.1 "6406_3-2"  -999.25 "Sandstone" "Shale"   -999.25    80.0000 20.00000      0.0 "vf"       "vf/f"  "Shallow_ subtidal/estuary,_ low_ sedimentation_ rate"                                                                                                               "SHALLOW_ TO_ MARGINAL_ MARINE_ SEDIMENTATION_ IN_ A_ SEMI-ENCLOSED,_ TIDE-DOMINATED_ BASIN/ESTUARY"
4375.2 "6406_3-2"  -999.25 "Sandstone" "Shale"   -999.25    80.0000 20.00000      0.0 "vf"       "vf/f"  "Shallow_ subtidal/estuary,_ low_ sedimentation_ rate"                                                                                                               "SHALLOW_ TO_ MARGINAL_ MARINE_ SEDIMENTATION_ IN_ A_ SEMI-ENCLOSED,_ TIDE-DOMINATED_ BASIN/ESTUARY"
4375.3 "6406_3-2"  -999.25 "Sandstone" "Shale"   -999.25    80.0000 20.00000      0.0 "vf"       "vf/f"  "Shallow_ subtidal/estuary,_ low_ sedimentation_ rate"                                                                                                               "SHALLOW_ TO_ MARGINAL_ MARINE_ SEDIMENTATION_ IN_ A_ SEMI-ENCLOSED,_ TIDE-DOMINATED_ BASIN/ESTUARY"
4375.4 "6406_3-2"  -999.25 "Sandstone" "Shale"   -999.25    80.0000 20.00000      0.0 "vf"       "vf/f"  "Shallow_ subtidal/estuary,_ low_ sedimentation_ rate"                                                                                                               "SHALLOW_ TO_ MARGINAL_ MARINE_ SEDIMENTATION_ IN_ A_ SEMI-ENCLOSED,_ TIDE-DOMINATED_ BASIN/ESTUARY"
4375.5 "6406_3-2"  -999.25 "Sandstone" "Shale"   -999.25    80.0000 20.00000      0.0 "vf"       "vf/f"  "Shallow_ subtidal/estuary,_ low_ sedimentation_ rate"                                                                                                               "SHALLOW_ TO_ MARGINAL_ MARINE_ SEDIMENTATION_ IN_ A_ SEMI-ENCLOSED,_ TIDE-DOMINATED_ BASIN/ESTUARY"
