~Version
VERS  .                                 3.0 : CWLS LAS ASCII Standard - Version 3.0
WRAP  . NO                                  : One line per depth step
DLM   . SPACE                               : Column data section delimiter
SOURCE. Converted to LAS by Log Studio 4.76 : GeoProvider

~Well
STRT.         3930.0 : Start depth
STOP.         4375.5 : Stop depth
STEP.              1 : Step
NULL.        -999.25 : No-value
COMP.                : Company
WELL. 6406/3-2       : Well
FLD .                : Field
LOC .                : Location
LATI.                : Latitude
LONG.                : Longitude
GDAT.                : Geodetic datum
CNTY.                : County
STAT.                : State
CTRY.                : Country
SRVC. GeoProvider AS : Service company
DATE.                : Date
API .                : API number
RUN .                : Run number

~Parameters
WellboreName.  : Wellbore name
RigName     .  : Rig name
StartDate   .  : Start date

~Curves
DEPTH.m            .  : null {F}Depth mMD
Hole_ID.-          .  : null {S}Hole ID
GR.API             .  : null {F}Gamma Ray
Lithology1.-       .  : null {S}Lithology 1
Lithology2.-       .  : null {S}Lithology 2
Lithology3.-       .  : null {S}Lithology 3
Lithology1.%       .  : null {F}Lithology 1 percentage
Lithology2.%       .  : null {F}Lithology 2 percentage
Lithology3.%       .  : null {F}Lithology 3 percentage
Grain_size_Top.-   .  : null {S}Grain size at the top 
Grain_size_Base.-  .  : null {S}Grain size at the bottom
Sub_Environment.-  .  : null {S}Sub Environment
Gross_Environment.-.  : null {S}Gross Environment

~Ascii
# ...
3969.6 "6406_3-2"  52.3400 -999.25   -999.25   -999.25   100.0000      0.0      0.0 "f/m"      "f"     "Fan_ delta_ front,_ (proximal_ mouth_ bar)"                                                                                                                         "PROGRADING_ AND_ AGGRADING_ FAN_ DELTA_ FRONT_ MULTICYCLIC_ DEVELOPMENT"                         
3969.7 "6406_3-2"  51.9900 -999.25   -999.25   -999.25   100.0000      0.0      0.0 "f/m"      "f"     "Fan_ delta_ front,_ (proximal_ mouth_ bar)"                                                                                                                         "PROGRADING_ AND_ AGGRADING_ FAN_ DELTA_ FRONT_ MULTICYCLIC_ DEVELOPMENT"                         
3969.8 "6406_3-2"  51.7800 -999.25   -999.25   -999.25   100.0000      0.0      0.0 "f/m"      "f"     "Fan_ delta_ front,_ (proximal_ mouth_ bar)"                                                                                                                         "PROGRADING_ AND_ AGGRADING_ FAN_ DELTA_ FRONT_ MULTICYCLIC_ DEVELOPMENT"                         
3969.9 "6406_3-2"  52.2100 -999.25   -999.25   -999.25   100.0000      0.0      0.0 "f/m"      "f"     "Fan_ delta_ front,_ (proximal_ mouth_ bar)"                                                                                                                         "PROGRADING_ AND_ AGGRADING_ FAN_ DELTA_ FRONT_ MULTICYCLIC_ DEVELOPMENT"                         
3970.0 "6406_3-2"  52.6400 "Sandstone" -999.25   -999.25   100.0000      0.0      0.0 "f/m"      "f/m"   "Fan_ delta_ front,_ (proximal_ mouth_ bar)"                                                                                                                         "PROGRADING_ AND_ AGGRADING_ FAN_ DELTA_ FRONT_ MULTICYCLIC_ DEVELOPMENT"                         
3970.1 "6406_3-2"  53.0600 "Sandstone" -999.25   -999.25   100.0000      0.0      0.0 "f/m"      "f/m"   "Fan_ delta_ front,_ (proximal_ mouth_ bar)"                                                                                                                         "PROGRADING_ AND_ AGGRADING_ FAN_ DELTA_ FRONT_ MULTICYCLIC_ DEVELOPMENT"                         
3970.2 "6406_3-2"  53.4900 "Sandstone" -999.25   -999.25   100.0000      0.0      0.0 "f/m"      "f/m"   "Fan_ delta_ front,_ (proximal_ mouth_ bar)"                                                                                                                         "PROGRADING_ AND_ AGGRADING_ FAN_ DELTA_ FRONT_ MULTICYCLIC_ DEVELOPMENT"                         
3970.3 "6406_3-2"  53.9200 "Sandstone" -999.25   -999.25   100.0000      0.0      0.0 "f/m"      "f/m"   "Fan_ delta_ front,_ (proximal_ mouth_ bar)"                                                                                                                         "PROGRADING_ AND_ AGGRADING_ FAN_ DELTA_ FRONT_ MULTICYCLIC_ DEVELOPMENT"                         
3970.4 "6406_3-2"  54.3500 "Sandstone" -999.25   -999.25   100.0000      0.0      0.0 "f/m"      "f/m"   "Fan_ delta_ front,_ (proximal_ mouth_ bar)"                                                                                                                         "PROGRADING_ AND_ AGGRADING_ FAN_ DELTA_ FRONT_ MULTICYCLIC_ DEVELOPMENT"                         
3970.5 "6406_3-2"  54.4400 "Sandstone" -999.25   -999.25   100.0000      0.0      0.0 "f/m"      "f/m"   "Fan_ delta_ front,_ (proximal_ mouth_ bar)"                                                                                                                         "PROGRADING_ AND_ AGGRADING_ FAN_ DELTA_ FRONT_ MULTICYCLIC_ DEVELOPMENT"                         
3970.6 "6406_3-2"  53.8900 "Sandstone" -999.25   -999.25   100.0000      0.0      0.0 "f/m"      "f/m"   "Fan_ delta_ front,_ (proximal_ mouth_ bar)"                                                                                                                         "PROGRADING_ AND_ AGGRADING_ FAN_ DELTA_ FRONT_ MULTICYCLIC_ DEVELOPMENT"                         
3970.7 "6406_3-2"  53.3300 "Sandstone" -999.25   -999.25   100.0000      0.0      0.0 "f/m"      "f/m"   "Fan_ delta_ front,_ (proximal_ mouth_ bar)"                                                                                                                         "PROGRADING_ AND_ AGGRADING_ FAN_ DELTA_ FRONT_ MULTICYCLIC_ DEVELOPMENT"                         
3970.8 "6406_3-2"  52.7800 "Sandstone" -999.25   -999.25   100.0000      0.0      0.0 "f/m"      "f/m"   "Fan_ delta_ front,_ (proximal_ mouth_ bar)"                                                                                                                         "PROGRADING_ AND_ AGGRADING_ FAN_ DELTA_ FRONT_ MULTICYCLIC_ DEVELOPMENT"                         
3970.9 "6406_3-2"  52.2200 "Sandstone" -999.25   -999.25   100.0000      0.0      0.0 "f/m"      "f/m"   "Fan_ delta_ front,_ (proximal_ mouth_ bar)"                                                                                                                         "PROGRADING_ AND_ AGGRADING_ FAN_ DELTA_ FRONT_ MULTICYCLIC_ DEVELOPMENT"                         
3971.0 "6406_3-2"  51.8700 "Sandstone" -999.25   -999.25   100.0000      0.0      0.0 "f/m"      "f/m"   "Fan_ delta_ front,_ (proximal_ mouth_ bar)"                                                                                                                         "PROGRADING_ AND_ AGGRADING_ FAN_ DELTA_ FRONT_ MULTICYCLIC_ DEVELOPMENT"                         
3971.1 "6406_3-2"  51.9900 "Sandstone" -999.25   -999.25   100.0000      0.0      0.0 "c"        "c"     "Fan_ delta_ front,_ (proximal_ mouth_ bar)"                                                                                                                         "PROGRADING_ AND_ AGGRADING_ FAN_ DELTA_ FRONT_ MULTICYCLIC_ DEVELOPMENT"                         
3971.2 "6406_3-2"  52.1100 "Sandstone" -999.25   -999.25   100.0000      0.0      0.0 "c"        "c"     "Fan_ delta_ front,_ (proximal_ mouth_ bar)"                                                                                                                         "PROGRADING_ AND_ AGGRADING_ FAN_ DELTA_ FRONT_ MULTICYCLIC_ DEVELOPMENT"                         
3971.3 "6406_3-2"  52.2300 "Sandstone" -999.25   -999.25   100.0000      0.0      0.0 "c"        "c"     "Fan_ delta_ front,_ (proximal_ mouth_ bar)"                                                                                                                         "PROGRADING_ AND_ AGGRADING_ FAN_ DELTA_ FRONT_ MULTICYCLIC_ DEVELOPMENT"                         
3971.4 "6406_3-2"  52.3400 "Sandstone" -999.25   -999.25   100.0000      0.0      0.0 "c"        "c"     "Fan_ delta_ front,_ (proximal_ mouth_ bar)"                                                                                                                         "PROGRADING_ AND_ AGGRADING_ FAN_ DELTA_ FRONT_ MULTICYCLIC_ DEVELOPMENT"                         
3971.5 "6406_3-2"  52.5500 "Sandstone" -999.25   -999.25   100.0000      0.0      0.0 "c"        "c"     "Fan_ delta_ front,_ (proximal_ mouth_ bar)"                                                                                                                         "PROGRADING_ AND_ AGGRADING_ FAN_ DELTA_ FRONT_ MULTICYCLIC_ DEVELOPMENT"                         
3971.6 "6406_3-2"  52.8100 "Sandstone" -999.25   -999.25   100.0000      0.0      0.0 "c"        "c"     "Fan_ delta_ front,_ (proximal_ mouth_ bar)"                                                                                                                         "PROGRADING_ AND_ AGGRADING_ FAN_ DELTA_ FRONT_ MULTICYCLIC_ DEVELOPMENT"                         
3971.7 "6406_3-2"  53.0700 "Sandstone" -999.25   -999.25   100.0000      0.0      0.0 "c"        "c"     "Fan_ delta_ front,_ (proximal_ mouth_ bar)"                                                                                                                         "PROGRADING_ AND_ AGGRADING_ FAN_ DELTA_ FRONT_ MULTICYCLIC_ DEVELOPMENT"                         
