~Version
VERS  .                                 3.0 : CWLS LAS ASCII Standard - Version 3.0
WRAP  . NO                                  : One line per depth step
DLM   . SPACE                               : Column data section delimiter
SOURCE. Converted to LAS by Log Studio 4.76 : GeoProvider

~Well
STRT.         3930.0 : Start depth
STOP.         4375.5 : Stop depth
STEP.              1 : Step
NULL.        -999.25 : No-value
COMP.                : Company
WELL. 6406/3-2       : Well
FLD .                : Field
LOC .                : Location
LATI.                : Latitude
LONG.                : Longitude
GDAT.                : Geodetic datum
CNTY.                : County
STAT.                : State
CTRY.                : Country
SRVC. GeoProvider AS : Service company
DATE.                : Date
API .                : API number
RUN .                : Run number

~Parameters
WellboreName.  : Wellbore name
RigName     .  : Rig name
StartDate   .  : Start date

~Curves
DEPTH.m            .  : null {F}Depth mMD
Hole_ID.-          .  : null {S}Hole ID
GR.API             .  : null {F}Gamma Ray
Lithology1.-       .  : null {S}Lithology 1
Lithology2.-       .  : null {S}Lithology 2
Lithology3.-       .  : null {S}Lithology 3
Lithology1.%       .  : null {F}Lithology 1 percentage
Lithology2.%       .  : null {F}Lithology 2 percentage
Lithology3.%       .  : null {F}Lithology 3 percentage
Grain_size_Top.-   .  : null {S}Grain size at the top 
Grain_size_Base.-  .  : null {S}Grain size at the bottom
Sub_Environment.-  .  : null {S}Sub Environment
Gross_Environment.-.  : null {S}Gross Environment

~Ascii
# ...
4334.8 "6406_3-2"  66.2000 "Sandstone" "Shale"   -999.25    80.0000 20.00000      0.0 "silt"     "m/c"   "Inter_ channel_ sediments_ on_ Sandy_ coastal_ plain"                                                                                                               "SUBAERIAL_ (DELTA_ PLAIN)_ TO_ MARGINAL_ MARINE_ BY_ DISTRIBUTARY_ CHANNELS"                     
4334.9 "6406_3-2"  67.4700 "Sandstone" "Shale"   -999.25    80.0000 20.00000      0.0 "silt"     "m/c"   "Inter_ channel_ sediments_ on_ Sandy_ coastal_ plain"                                                                                                               "SUBAERIAL_ (DELTA_ PLAIN)_ TO_ MARGINAL_ MARINE_ BY_ DISTRIBUTARY_ CHANNELS"                     
4335.0 "6406_3-2"  68.7300 "Sandstone" "Shale"   -999.25    80.0000 20.00000      0.0 "silt"     "m/c"   "Inter_ channel_ sediments_ on_ Sandy_ coastal_ plain"                                                                                                               "SUBAERIAL_ (DELTA_ PLAIN)_ TO_ MARGINAL_ MARINE_ BY_ DISTRIBUTARY_ CHANNELS"                     
4335.1 "6406_3-2"  69.9900 "Sandstone" "Shale"   -999.25    80.0000 20.00000      0.0 "silt"     "m/c"   "Inter_ channel_ sediments_ on_ Sandy_ coastal_ plain"                                                                                                               "SUBAERIAL_ (DELTA_ PLAIN)_ TO_ MARGINAL_ MARINE_ BY_ DISTRIBUTARY_ CHANNELS"                     
4335.2 "6406_3-2"  70.5000 "Sandstone" "Shale"   -999.25    80.0000 20.00000      0.0 "silt"     "m/c"   "Inter_ channel_ sediments_ on_ Sandy_ coastal_ plain"                                                                                                               "SUBAERIAL_ (DELTA_ PLAIN)_ TO_ MARGINAL_ MARINE_ BY_ DISTRIBUTARY_ CHANNELS"                     
4335.3 "6406_3-2"  70.5700 "Sandstone" "Shale"   -999.25    80.0000 20.00000      0.0 "silt"     "m/c"   "Inter_ channel_ sediments_ on_ Sandy_ coastal_ plain"                                                                                                               "SUBAERIAL_ (DELTA_ PLAIN)_ TO_ MARGINAL_ MARINE_ BY_ DISTRIBUTARY_ CHANNELS"                     
4335.4 "6406_3-2"  70.6300 "Sandstone" "Shale"   -999.25    80.0000 20.00000      0.0 "silt"     "m/c"   "Inter_ channel_ sediments_ on_ Sandy_ coastal_ plain"                                                                                                               "SUBAERIAL_ (DELTA_ PLAIN)_ TO_ MARGINAL_ MARINE_ BY_ DISTRIBUTARY_ CHANNELS"                     
4335.5 "6406_3-2"  70.7000 "Sandstone" "Shale"   -999.25    80.0000 20.00000      0.0 "silt"     "m/c"   -999.25                                                                                                                                                              -999.25                                                                                           
4335.6 "6406_3-2"  70.7600 -999.25   -999.25   -999.25        0.0      0.0      0.0 -999.25    -999.25 -999.25                                                                                                                                                              -999.25                                                                                           
4335.7 "6406_3-2"  68.3200 -999.25   -999.25   -999.25        0.0      0.0      0.0 -999.25    -999.25 -999.25                                                                                                                                                              -999.25                                                                                           
4335.8 "6406_3-2"  65.8300 -999.25   -999.25   -999.25        0.0      0.0      0.0 -999.25    -999.25 -999.25                                                                                                                                                              -999.25                                                                                           
4335.9 "6406_3-2"  63.3400 -999.25   -999.25   -999.25        0.0      0.0      0.0 -999.25    -999.25 -999.25                                                                                                                                                              -999.25                                                                                           
4336.0 "6406_3-2"  57.6100 -999.25   -999.25   -999.25        0.0      0.0      0.0 -999.25    -999.25 -999.25                                                                                                                                                              -999.25                                                                                           
4336.1 "6406_3-2"  58.7100 "Sandstone" "Shale"   -999.25    95.0000  5.00000      0.0 "f"        "m"     -999.25                                                                                                                                                              -999.25                                                                                           
4336.2 "6406_3-2"  59.8200 "Sandstone" "Shale"   -999.25    95.0000  5.00000      0.0 "f"        "m"     -999.25                                                                                                                                                              -999.25                                                                                           
4336.3 "6406_3-2"  60.9300 "Sandstone" "Shale"   -999.25    95.0000  5.00000      0.0 "f"        "m"     -999.25                                                                                                                                                              -999.25                                                                                           
4336.4 "6406_3-2"  62.0300 "Sandstone" "Shale"   -999.25    95.0000  5.00000      0.0 "f"        "m"     -999.25                                                                                                                                                              -999.25                                                                                           
4336.5 "6406_3-2"  61.6600 "Sandstone" "Shale"   -999.25    95.0000  5.00000      0.0 "f"        "m"     -999.25                                                                                                                                                              -999.25                                                                                           
4336.6 "6406_3-2"  60.3400 "Sandstone" "Shale"   -999.25    95.0000  5.00000      0.0 "f"        "m"     -999.25                                                                                                                                                              -999.25                                                                                           
4336.7 "6406_3-2"  59.0300 "Sandstone" "Shale"   -999.25    95.0000  5.00000      0.0 "f"        "m"     -999.25                                                                                                                                                              -999.25                                                                                           
4336.8 "6406_3-2"  57.7100 "Sandstone" "Shale"   -999.25    95.0000  5.00000      0.0 "f"        "m"     -999.25                                                                                                                                                              -999.25                                                                                           
4336.9 "6406_3-2"  58.1800 "Sandstone" "Shale"   -999.25    95.0000  5.00000      0.0 "f"        "m"     -999.25                                                                                                                                                              -999.25                                                                                           
