~Version
VERS  .                                 3.0 : CWLS LAS ASCII Standard - Version 3.0
WRAP  . NO                                  : One line per depth step
DLM   . SPACE                               : Column data section delimiter
SOURCE. Converted to LAS by Log Studio 4.76 : GeoProvider

~Well
STRT.         3930.0 : Start depth
STOP.         4375.5 : Stop depth
STEP.              1 : Step
NULL.        -999.25 : No-value
COMP.                : Company
WELL. 6406/3-2       : Well
FLD .                : Field
LOC .                : Location
LATI.                : Latitude
LONG.                : Longitude
GDAT.                : Geodetic datum
CNTY.                : County
STAT.                : State
CTRY.                : Country
SRVC. GeoProvider AS : Service company
DATE.                : Date
API .                : API number
RUN .                : Run number

~Parameters
WellboreName.  : Wellbore name
RigName     .  : Rig name
StartDate   .  : Start date

~Curves
DEPTH.m            .  : null {F}Depth mMD
Hole_ID.-          .  : null {S}Hole ID
GR.API             .  : null {F}Gamma Ray
Lithology1.-       .  : null {S}Lithology 1
Lithology2.-       .  : null {S}Lithology 2
Lithology3.-       .  : null {S}Lithology 3
Lithology1.%       .  : null {F}Lithology 1 percentage
Lithology2.%       .  : null {F}Lithology 2 percentage
Lithology3.%       .  : null {F}Lithology 3 percentage
Grain_size_Top.-   .  : null {S}Grain size at the top 
Grain_size_Base.-  .  : null {S}Grain size at the bottom
Sub_Environment.-  .  : null {S}Sub Environment
Gross_Environment.-.  : null {S}Gross Environment

~Ascii
# ...
4051.0 "6406_3-2"  -999.25 "Shale"   "Sandstone" -999.25    93.0000  7.00000      0.0 "silt"     "silt/vf" "REGRRESION_  Prodelta_ or_ offshore_ sedimentation"                                                                                                                 "PROGRADING"                                                                                      
4051.1 "6406_3-2"  -999.25 "Shale"   "Sandstone" -999.25    93.0000  7.00000      0.0 "silt"     "silt/vf" "REGRRESION_  Prodelta_ or_ offshore_ sedimentation"                                                                                                                 "PROGRADING"                                                                                      
4051.2 "6406_3-2"  -999.25 "Shale"   "Sandstone" -999.25    93.0000  7.00000      0.0 "silt"     "silt/vf" "REGRRESION_  Prodelta_ or_ offshore_ sedimentation"                                                                                                                 "PROGRADING"                                                                                      
4051.3 "6406_3-2"  -999.25 "Shale"   "Sandstone" -999.25    93.0000  7.00000      0.0 "silt"     "silt/vf" "REGRRESION_  Prodelta_ or_ offshore_ sedimentation"                                                                                                                 "PROGRADING"                                                                                      
4051.4 "6406_3-2"  -999.25 "Shale"   "Sandstone" -999.25    93.0000  7.00000      0.0 "silt"     "silt/vf" "REGRRESION_  Prodelta_ or_ offshore_ sedimentation"                                                                                                                 "PROGRADING"                                                                                      
4051.5 "6406_3-2"  -999.25 "Shale"   "Sandstone" -999.25    93.0000  7.00000      0.0 "silt"     "silt/vf" "REGRRESION_  Prodelta_ or_ offshore_ sedimentation"                                                                                                                 "PROGRADING"                                                                                      
4051.6 "6406_3-2"  -999.25 "Shale"   "Sandstone" -999.25    93.0000  7.00000      0.0 "silt"     "silt/vf" "REGRRESION_  Prodelta_ or_ offshore_ sedimentation"                                                                                                                 "PROGRADING"                                                                                      
4051.7 "6406_3-2"  -999.25 "Shale"   "Sandstone" -999.25    93.0000  7.00000      0.0 "silt"     "silt/vf" "REGRRESION_  Prodelta_ or_ offshore_ sedimentation"                                                                                                                 "PROGRADING"                                                                                      
4051.8 "6406_3-2"  -999.25 "Shale"   "Sandstone" -999.25    93.0000  7.00000      0.0 "silt"     "silt/vf" "REGRRESION_  Prodelta_ or_ offshore_ sedimentation"                                                                                                                 "PROGRADING"                                                                                      
4051.9 "6406_3-2"  -999.25 "Shale"   "Sandstone" -999.25    93.0000  7.00000      0.0 "silt"     "silt/vf" "REGRRESION_  Prodelta_ or_ offshore_ sedimentation"                                                                                                                 "PROGRADING"                                                                                      
4052.0 "6406_3-2"  -999.25 "Shale"   "Sandstone" -999.25    93.0000  7.00000      0.0 "silt"     "silt/vf" "REGRRESION_  Prodelta_ or_ offshore_ sedimentation"                                                                                                                 "PROGRADING"                                                                                      
4052.1 "6406_3-2"  -999.25 "Shale"   "Sandstone" -999.25    93.0000  7.00000      0.0 "silt"     "silt/vf" "REGRRESION_  Prodelta_ or_ offshore_ sedimentation"                                                                                                                 "PROGRADING"                                                                                      
4052.2 "6406_3-2"  -999.25 "Shale"   "Sandstone" -999.25    93.0000  7.00000      0.0 "silt"     "silt/vf" "REGRRESION_  Prodelta_ or_ offshore_ sedimentation"                                                                                                                 "PROGRADING"                                                                                      
4052.3 "6406_3-2"  -999.25 "Shale"   "Sandstone" -999.25    93.0000  7.00000      0.0 "silt"     "silt/vf" "REGRRESION_  Prodelta_ or_ offshore_ sedimentation"                                                                                                                 "PROGRADING"                                                                                      
4052.4 "6406_3-2"  -999.25 "Shale"   "Sandstone" -999.25    93.0000  7.00000      0.0 "silt"     "silt/vf" "REGRRESION_  Prodelta_ or_ offshore_ sedimentation"                                                                                                                 "PROGRADING"                                                                                      
4052.5 "6406_3-2"  -999.25 "Shale"   "Sandstone" -999.25    93.0000  7.00000      0.0 "silt"     "silt/vf" "REGRRESION_  Prodelta_ or_ offshore_ sedimentation"                                                                                                                 "PROGRADING"                                                                                      
4052.6 "6406_3-2"  -999.25 "Shale"   "Sandstone" -999.25    93.0000  7.00000      0.0 "silt"     "silt/vf" "REGRRESION_  Prodelta_ or_ offshore_ sedimentation"                                                                                                                 "PROGRADING"                                                                                      
4052.7 "6406_3-2"  -999.25 "Shale"   "Sandstone" -999.25    93.0000  7.00000      0.0 "silt"     "silt/vf" "REGRRESION_  Prodelta_ or_ offshore_ sedimentation"                                                                                                                 "PROGRADING"                                                                                      
4052.8 "6406_3-2"  -999.25 "Shale"   "Sandstone" -999.25    93.0000  7.00000      0.0 "silt"     "silt/vf" "REGRRESION_  Prodelta_ or_ offshore_ sedimentation"                                                                                                                 "PROGRADING"                                                                                      
4052.9 "6406_3-2"  -999.25 "Shale"   "Sandstone" -999.25    93.0000  7.00000      0.0 "silt"     "silt/vf" "REGRRESION_  Prodelta_ or_ offshore_ sedimentation"                                                                                                                 "PROGRADING"                                                                                      
4053.0 "6406_3-2"  -999.25 "Shale"   "Sandstone" -999.25    93.0000  7.00000      0.0 "silt"     "silt/vf" "REGRRESION_  Prodelta_ or_ offshore_ sedimentation"                                                                                                                 "PROGRADING"                                                                                      
4053.1 "6406_3-2"  -999.25 "Shale"   "Sandstone" -999.25    93.0000  7.00000      0.0 "silt"     "silt/vf" "REGRRESION_  Prodelta_ or_ offshore_ sedimentation"                                                                                                                 "PROGRADING"                                                                                      
