~Version
VERS  .                                 3.0 : CWLS LAS ASCII Standard - Version 3.0
WRAP  . NO                                  : One line per depth step
DLM   . SPACE                               : Column data section delimiter
SOURCE. Converted to LAS by Log Studio 4.76 : GeoProvider

~Well
STRT.         3930.0 : Start depth
STOP.         4375.5 : Stop depth
STEP.              1 : Step
NULL.        -999.25 : No-value
COMP.                : Company
WELL. 6406/3-2       : Well
FLD .                : Field
LOC .                : Location
LATI.                : Latitude
LONG.                : Longitude
GDAT.                : Geodetic datum
CNTY.                : County
STAT.                : State
CTRY.                : Country
SRVC. GeoProvider AS : Service company
DATE.                : Date
API .                : API number
RUN .                : Run number

~Parameters
WellboreName.  : Wellbore name
RigName     .  : Rig name
StartDate   .  : Start date

~Curves
DEPTH.m            .  : null {F}Depth mMD
Hole_ID.-          .  : null {S}Hole ID
GR.API             .  : null {F}Gamma Ray
Lithology1.-       .  : null {S}Lithology 1
Lithology2.-       .  : null {S}Lithology 2
Lithology3.-       .  : null {S}Lithology 3
Lithology1.%       .  : null {F}Lithology 1 percentage
Lithology2.%       .  : null {F}Lithology 2 percentage
Lithology3.%       .  : null {F}Lithology 3 percentage
Grain_size_Top.-   .  : null {S}Grain size at the top 
Grain_size_Base.-  .  : null {S}Grain size at the bottom
Sub_Environment.-  .  : null {S}Sub Environment
Gross_Environment.-.  : null {S}Gross Environment

~Ascii
# ...
4315.0 "6406_3-2"  50.3000 "Sandstone" "Shale"   -999.25    90.0000 10.00000      0.0 "f/m"      "f/m"   "Proximal_ delta_ front_ or_ upper_ shoreface._ Mixed_ influence_ by_ tides,_ waves_ and_ fluvial_ discharge_ high_ rate_ of_ sedimentation_ TRANSGRESSION"          "PROGRADATION/AGGRADATION_ OF_ TIDAL/MIXED-INFLUENCED_ (FAN)-DELTAIC_ SYSTEM"                     
4315.1 "6406_3-2"  50.1600 "Sandstone" "Shale"   -999.25    90.0000 10.00000      0.0 "f/m"      "f/m"   "Proximal_ delta_ front_ or_ upper_ shoreface._ Mixed_ influence_ by_ tides,_ waves_ and_ fluvial_ discharge_ high_ rate_ of_ sedimentation_ TRANSGRESSION"          "PROGRADATION/AGGRADATION_ OF_ TIDAL/MIXED-INFLUENCED_ (FAN)-DELTAIC_ SYSTEM"                     
4315.2 "6406_3-2"  49.1100 "Sandstone" "Shale"   -999.25    90.0000 10.00000      0.0 "f/m"      "f/m"   "Proximal_ delta_ front_ or_ upper_ shoreface._ Mixed_ influence_ by_ tides,_ waves_ and_ fluvial_ discharge_ high_ rate_ of_ sedimentation_ TRANSGRESSION"          "PROGRADATION/AGGRADATION_ OF_ TIDAL/MIXED-INFLUENCED_ (FAN)-DELTAIC_ SYSTEM"                     
4315.3 "6406_3-2"  48.0500 "Sandstone" "Shale"   -999.25    90.0000 10.00000      0.0 "f/m"      "f/m"   "Proximal_ delta_ front_ or_ upper_ shoreface._ Mixed_ influence_ by_ tides,_ waves_ and_ fluvial_ discharge_ high_ rate_ of_ sedimentation_ TRANSGRESSION"          "PROGRADATION/AGGRADATION_ OF_ TIDAL/MIXED-INFLUENCED_ (FAN)-DELTAIC_ SYSTEM"                     
4315.4 "6406_3-2"  47.0000 "Sandstone" "Shale"   -999.25    90.0000 10.00000      0.0 "f/m"      "f/m"   "Proximal_ delta_ front_ or_ upper_ shoreface._ Mixed_ influence_ by_ tides,_ waves_ and_ fluvial_ discharge_ high_ rate_ of_ sedimentation_ TRANSGRESSION"          "PROGRADATION/AGGRADATION_ OF_ TIDAL/MIXED-INFLUENCED_ (FAN)-DELTAIC_ SYSTEM"                     
4315.5 "6406_3-2"  46.2400 "Sandstone" "Shale"   -999.25    90.0000 10.00000      0.0 "f/m"      "f/m"   "Proximal_ delta_ front_ or_ upper_ shoreface._ Mixed_ influence_ by_ tides,_ waves_ and_ fluvial_ discharge_ high_ rate_ of_ sedimentation_ TRANSGRESSION"          "PROGRADATION/AGGRADATION_ OF_ TIDAL/MIXED-INFLUENCED_ (FAN)-DELTAIC_ SYSTEM"                     
4315.6 "6406_3-2"  47.3300 "Sandstone" "Shale"   -999.25    90.0000 10.00000      0.0 "f/m"      "f/m"   "Proximal_ delta_ front_ or_ upper_ shoreface._ Mixed_ influence_ by_ tides,_ waves_ and_ fluvial_ discharge_ high_ rate_ of_ sedimentation_ TRANSGRESSION"          "PROGRADATION/AGGRADATION_ OF_ TIDAL/MIXED-INFLUENCED_ (FAN)-DELTAIC_ SYSTEM"                     
4315.7 "6406_3-2"  49.4500 "Sandstone" "Shale"   -999.25    90.0000 10.00000      0.0 "f/m"      "f/m"   "Proximal_ delta_ front_ or_ upper_ shoreface._ Mixed_ influence_ by_ tides,_ waves_ and_ fluvial_ discharge_ high_ rate_ of_ sedimentation_ TRANSGRESSION"          "PROGRADATION/AGGRADATION_ OF_ TIDAL/MIXED-INFLUENCED_ (FAN)-DELTAIC_ SYSTEM"                     
4315.8 "6406_3-2"  54.9300 "Sandstone" "Shale"   -999.25    90.0000 10.00000      0.0 "f/m"      "f/m"   "Proximal_ delta_ front_ or_ upper_ shoreface._ Mixed_ influence_ by_ tides,_ waves_ and_ fluvial_ discharge_ high_ rate_ of_ sedimentation_ TRANSGRESSION"          "PROGRADATION/AGGRADATION_ OF_ TIDAL/MIXED-INFLUENCED_ (FAN)-DELTAIC_ SYSTEM"                     
4315.9 "6406_3-2"  59.9000 "Sandstone" "Shale"   -999.25    90.0000 10.00000      0.0 "f/m"      "f/m"   "Proximal_ delta_ front_ or_ upper_ shoreface._ Mixed_ influence_ by_ tides,_ waves_ and_ fluvial_ discharge_ high_ rate_ of_ sedimentation_ TRANSGRESSION"          "PROGRADATION/AGGRADATION_ OF_ TIDAL/MIXED-INFLUENCED_ (FAN)-DELTAIC_ SYSTEM"                     
4316.0 "6406_3-2"  63.0200 "Sandstone" "Shale"   -999.25    90.0000 10.00000      0.0 "f/m"      "f/m"   "Proximal_ delta_ front_ or_ upper_ shoreface._ Mixed_ influence_ by_ tides,_ waves_ and_ fluvial_ discharge_ high_ rate_ of_ sedimentation_ TRANSGRESSION"          "PROGRADATION/AGGRADATION_ OF_ TIDAL/MIXED-INFLUENCED_ (FAN)-DELTAIC_ SYSTEM"                     
4316.1 "6406_3-2"  66.1500 "Sandstone" "Shale"   -999.25    90.0000 10.00000      0.0 "f/m"      "f/m"   "Proximal_ delta_ front_ or_ upper_ shoreface._ Mixed_ influence_ by_ tides,_ waves_ and_ fluvial_ discharge_ high_ rate_ of_ sedimentation_ TRANSGRESSION"          "PROGRADATION/AGGRADATION_ OF_ TIDAL/MIXED-INFLUENCED_ (FAN)-DELTAIC_ SYSTEM"                     
4316.2 "6406_3-2"  64.2600 "Sandstone" "Shale"   -999.25    90.0000 10.00000      0.0 "f/m"      "f/m"   "Proximal_ delta_ front_ or_ upper_ shoreface._ Mixed_ influence_ by_ tides,_ waves_ and_ fluvial_ discharge_ high_ rate_ of_ sedimentation_ TRANSGRESSION"          "PROGRADATION/AGGRADATION_ OF_ TIDAL/MIXED-INFLUENCED_ (FAN)-DELTAIC_ SYSTEM"                     
4316.3 "6406_3-2"  62.2200 "Sandstone" "Shale"   -999.25    90.0000 10.00000      0.0 "f/m"      "f/m"   "Proximal_ delta_ front_ or_ upper_ shoreface._ Mixed_ influence_ by_ tides,_ waves_ and_ fluvial_ discharge_ high_ rate_ of_ sedimentation_ TRANSGRESSION"          "PROGRADATION/AGGRADATION_ OF_ TIDAL/MIXED-INFLUENCED_ (FAN)-DELTAIC_ SYSTEM"                     
4316.4 "6406_3-2"  60.1900 "Sandstone" "Shale"   -999.25    90.0000 10.00000      0.0 "f/m"      "f/m"   "Proximal_ delta_ front_ or_ upper_ shoreface._ Mixed_ influence_ by_ tides,_ waves_ and_ fluvial_ discharge_ high_ rate_ of_ sedimentation_ TRANSGRESSION"          "PROGRADATION/AGGRADATION_ OF_ TIDAL/MIXED-INFLUENCED_ (FAN)-DELTAIC_ SYSTEM"                     
4316.5 "6406_3-2"  58.1600 "Sandstone" "Shale"   -999.25    90.0000 10.00000      0.0 "f/m"      "f/m"   "Proximal_ delta_ front_ or_ upper_ shoreface._ Mixed_ influence_ by_ tides,_ waves_ and_ fluvial_ discharge_ high_ rate_ of_ sedimentation_ TRANSGRESSION"          "PROGRADATION/AGGRADATION_ OF_ TIDAL/MIXED-INFLUENCED_ (FAN)-DELTAIC_ SYSTEM"                     
4316.6 "6406_3-2"  58.3000 "Sandstone" "Shale"   -999.25    90.0000 10.00000      0.0 "f/m"      "f/m"   "Proximal_ delta_ front_ or_ upper_ shoreface._ Mixed_ influence_ by_ tides,_ waves_ and_ fluvial_ discharge_ high_ rate_ of_ sedimentation_ TRANSGRESSION"          "PROGRADATION/AGGRADATION_ OF_ TIDAL/MIXED-INFLUENCED_ (FAN)-DELTAIC_ SYSTEM"                     
4316.7 "6406_3-2"  59.9500 "Sandstone" "Shale"   -999.25    90.0000 10.00000      0.0 "f/m"      "f/m"   "Proximal_ delta_ front_ or_ upper_ shoreface._ Mixed_ influence_ by_ tides,_ waves_ and_ fluvial_ discharge_ high_ rate_ of_ sedimentation_ TRANSGRESSION"          "PROGRADATION/AGGRADATION_ OF_ TIDAL/MIXED-INFLUENCED_ (FAN)-DELTAIC_ SYSTEM"                     
4316.8 "6406_3-2"  61.6000 "Sandstone" "Shale"   -999.25    90.0000 10.00000      0.0 "f/m"      "f/m"   "Proximal_ delta_ front_ or_ upper_ shoreface._ Mixed_ influence_ by_ tides,_ waves_ and_ fluvial_ discharge_ high_ rate_ of_ sedimentation_ TRANSGRESSION"          "PROGRADATION/AGGRADATION_ OF_ TIDAL/MIXED-INFLUENCED_ (FAN)-DELTAIC_ SYSTEM"                     
4316.9 "6406_3-2"  67.0900 "Sandstone" "Shale"   -999.25    90.0000 10.00000      0.0 "f/m"      "f/m"   "Proximal_ delta_ front_ or_ upper_ shoreface._ Mixed_ influence_ by_ tides,_ waves_ and_ fluvial_ discharge_ high_ rate_ of_ sedimentation_ TRANSGRESSION"          "PROGRADATION/AGGRADATION_ OF_ TIDAL/MIXED-INFLUENCED_ (FAN)-DELTAIC_ SYSTEM"                     
4317.0 "6406_3-2"  71.7100 "Sandstone" "Shale"   -999.25    90.0000 10.00000      0.0 "f/m"      "f/m"   "Proximal_ delta_ front_ or_ upper_ shoreface._ Mixed_ influence_ by_ tides,_ waves_ and_ fluvial_ discharge_ high_ rate_ of_ sedimentation_ TRANSGRESSION"          "PROGRADATION/AGGRADATION_ OF_ TIDAL/MIXED-INFLUENCED_ (FAN)-DELTAIC_ SYSTEM"                     
4317.1 "6406_3-2"  71.8900 "Sandstone" "Shale"   -999.25    90.0000 10.00000      0.0 "f/m"      "f/m"   "Proximal_ delta_ front_ or_ upper_ shoreface._ Mixed_ influence_ by_ tides,_ waves_ and_ fluvial_ discharge_ high_ rate_ of_ sedimentation_ TRANSGRESSION"          "PROGRADATION/AGGRADATION_ OF_ TIDAL/MIXED-INFLUENCED_ (FAN)-DELTAIC_ SYSTEM"                     
