~Version
VERS  .                                 3.0 : CWLS LAS ASCII Standard - Version 3.0
WRAP  . NO                                  : One line per depth step
DLM   . SPACE                               : Column data section delimiter
SOURCE. Converted to LAS by Log Studio 4.76 : GeoProvider

~Well
STRT.         3930.0 : Start depth
STOP.         4375.5 : Stop depth
STEP.              1 : Step
NULL.        -999.25 : No-value
COMP.                : Company
WELL. 6406/3-2       : Well
FLD .                : Field
LOC .                : Location
LATI.                : Latitude
LONG.                : Longitude
GDAT.                : Geodetic datum
CNTY.                : County
STAT.                : State
CTRY.                : Country
SRVC. GeoProvider AS : Service company
DATE.                : Date
API .                : API number
RUN .                : Run number

~Parameters
WellboreName.  : Wellbore name
RigName     .  : Rig name
StartDate   .  : Start date

~Curves
DEPTH.m            .  : null {F}Depth mMD
Hole_ID.-          .  : null {S}Hole ID
GR.API             .  : null {F}Gamma Ray
Lithology1.-       .  : null {S}Lithology 1
Lithology2.-       .  : null {S}Lithology 2
Lithology3.-       .  : null {S}Lithology 3
Lithology1.%       .  : null {F}Lithology 1 percentage
Lithology2.%       .  : null {F}Lithology 2 percentage
Lithology3.%       .  : null {F}Lithology 3 percentage
Grain_size_Top.-   .  : null {S}Grain size at the top 
Grain_size_Base.-  .  : null {S}Grain size at the bottom
Sub_Environment.-  .  : null {S}Sub Environment
Gross_Environment.-.  : null {S}Gross Environment

~Ascii
# ...
4011.4 "6406_3-2"  49.5300 "Sandstone" -999.25   -999.25   100.0000      0.0      0.0 "c"        "c"     "Distal_ fan_ delta_ front_ REGRESSION"                                                                                                                              -999.25                                                                                           
4011.5 "6406_3-2"  49.3100 "Sandstone" -999.25   -999.25   100.0000      0.0      0.0 "vf/f"     "f"     "Distal_ fan_ delta_ front_ REGRESSION"                                                                                                                              -999.25                                                                                           
4011.6 "6406_3-2"  49.0900 "Sandstone" -999.25   -999.25   100.0000      0.0      0.0 "vf/f"     "f"     "Distal_ fan_ delta_ front_ REGRESSION"                                                                                                                              -999.25                                                                                           
4011.7 "6406_3-2"  49.2600 "Sandstone" -999.25   -999.25   100.0000      0.0      0.0 "vf/f"     "f"     "Distal_ fan_ delta_ front_ REGRESSION"                                                                                                                              -999.25                                                                                           
4011.8 "6406_3-2"  49.8000 "Sandstone" -999.25   -999.25   100.0000      0.0      0.0 "vf/f"     "f"     "Distal_ fan_ delta_ front_ REGRESSION"                                                                                                                              -999.25                                                                                           
4011.9 "6406_3-2"  50.3300 "Sandstone" -999.25   -999.25   100.0000      0.0      0.0 "vf/f"     "f"     "Distal_ fan_ delta_ front_ REGRESSION"                                                                                                                              -999.25                                                                                           
4012.0 "6406_3-2"  50.8700 "Sandstone" -999.25   -999.25   100.0000      0.0      0.0 "vf/f"     "f"     "Distal_ fan_ delta_ front_ REGRESSION"                                                                                                                              -999.25                                                                                           
4012.1 "6406_3-2"  50.2100 "Sandstone" -999.25   -999.25   100.0000      0.0      0.0 "vf/f"     "f"     "Distal_ fan_ delta_ front_ REGRESSION"                                                                                                                              -999.25                                                                                           
4012.2 "6406_3-2"  49.5500 "Sandstone" -999.25   -999.25   100.0000      0.0      0.0 "vf/f"     "f"     "Distal_ fan_ delta_ front_ REGRESSION"                                                                                                                              -999.25                                                                                           
4012.3 "6406_3-2"  48.9000 "Sandstone" -999.25   -999.25   100.0000      0.0      0.0 "vf/f"     "f"     "Distal_ fan_ delta_ front_ REGRESSION"                                                                                                                              -999.25                                                                                           
4012.4 "6406_3-2"  48.6300 "Sandstone" -999.25   -999.25   100.0000      0.0      0.0 "vf/f"     "f"     "Distal_ fan_ delta_ front_ REGRESSION"                                                                                                                              -999.25                                                                                           
4012.5 "6406_3-2"  48.7700 "Sandstone" -999.25   -999.25   100.0000      0.0      0.0 "vf/f"     "f"     "Distal_ fan_ delta_ front_ REGRESSION"                                                                                                                              -999.25                                                                                           
4012.6 "6406_3-2"  48.9100 "Sandstone" -999.25   -999.25   100.0000      0.0      0.0 "vf/f"     "f"     "Distal_ fan_ delta_ front_ REGRESSION"                                                                                                                              -999.25                                                                                           
4012.7 "6406_3-2"  49.0500 "Sandstone" -999.25   -999.25   100.0000      0.0      0.0 "vf/f"     "f"     "Distal_ fan_ delta_ front_ REGRESSION"                                                                                                                              -999.25                                                                                           
4012.8 "6406_3-2"  49.1900 "Sandstone" -999.25   -999.25   100.0000      0.0      0.0 "vf/f"     "f"     "Distal_ fan_ delta_ front_ REGRESSION"                                                                                                                              -999.25                                                                                           
4012.9 "6406_3-2"  49.3300 "Sandstone" -999.25   -999.25   100.0000      0.0      0.0 "vf/f"     "f"     "Distal_ fan_ delta_ front_ REGRESSION"                                                                                                                              -999.25                                                                                           
4013.0 "6406_3-2"  49.8200 "Sandstone" -999.25   -999.25   100.0000      0.0      0.0 "vf/f"     "f"     "Distal_ fan_ delta_ front_ REGRESSION"                                                                                                                              -999.25                                                                                           
4013.1 "6406_3-2"  50.5900 "Sandstone" -999.25   -999.25   100.0000      0.0      0.0 "vf/f"     "f"     "Distal_ fan_ delta_ front_ REGRESSION"                                                                                                                              -999.25                                                                                           
4013.2 "6406_3-2"  51.3700 "Sandstone" -999.25   -999.25   100.0000      0.0      0.0 "vf/f"     "f"     "Distal_ fan_ delta_ front_ REGRESSION"                                                                                                                              -999.25                                                                                           
4013.3 "6406_3-2"  52.1500 "Sandstone" -999.25   -999.25   100.0000      0.0      0.0 "vf/f"     "f"     "Distal_ fan_ delta_ front_ REGRESSION"                                                                                                                              -999.25                                                                                           
4013.4 "6406_3-2"  52.9300 "Sandstone" -999.25   -999.25   100.0000      0.0      0.0 "vf/f"     "f"     "Distal_ fan_ delta_ front_ REGRESSION"                                                                                                                              -999.25                                                                                           
4013.5 "6406_3-2"  53.7000 "Sandstone" -999.25   -999.25   100.0000      0.0      0.0 "vf/f"     "f"     "Distal_ fan_ delta_ front_ REGRESSION"                                                                                                                              -999.25                                                                                           
