~Version
VERS  .                                 3.0 : CWLS LAS ASCII Standard - Version 3.0
WRAP  . NO                                  : One line per depth step
DLM   . SPACE                               : Column data section delimiter
SOURCE. Converted to LAS by Log Studio 4.76 : GeoProvider

~Well
STRT.         3930.0 : Start depth
STOP.         4375.5 : Stop depth
STEP.              1 : Step
NULL.        -999.25 : No-value
COMP.                : Company
WELL. 6406/3-2       : Well
FLD .                : Field
LOC .                : Location
LATI.                : Latitude
LONG.                : Longitude
GDAT.                : Geodetic datum
CNTY.                : County
STAT.                : State
CTRY.                : Country
SRVC. GeoProvider AS : Service company
DATE.                : Date
API .                : API number
RUN .                : Run number

~Parameters
WellboreName.  : Wellbore name
RigName     .  : Rig name
StartDate   .  : Start date

~Curves
DEPTH.m            .  : null {F}Depth mMD
Hole_ID.-          .  : null {S}Hole ID
GR.API             .  : null {F}Gamma Ray
Lithology1.-       .  : null {S}Lithology 1
Lithology2.-       .  : null {S}Lithology 2
Lithology3.-       .  : null {S}Lithology 3
Lithology1.%       .  : null {F}Lithology 1 percentage
Lithology2.%       .  : null {F}Lithology 2 percentage
Lithology3.%       .  : null {F}Lithology 3 percentage
Grain_size_Top.-   .  : null {S}Grain size at the top 
Grain_size_Base.-  .  : null {S}Grain size at the bottom
Sub_Environment.-  .  : null {S}Sub Environment
Gross_Environment.-.  : null {S}Gross Environment

~Ascii
# ...
4031.2 "6406_3-2"  -999.25 "Sandstone" "Shale"   "Limestone"  45.0000 40.00000 15.00000 "silt"     "vf"    "Distal_ mouth_ bar_ low_ wave_ energy"                                                                                                                              "DELTAIC,_ BASIN_ FILL_ SEDIMENTATION"                                                            
4031.3 "6406_3-2"  -999.25 "Sandstone" "Shale"   "Limestone"  45.0000 40.00000 15.00000 "silt"     "vf"    "Distal_ mouth_ bar_ low_ wave_ energy"                                                                                                                              "DELTAIC,_ BASIN_ FILL_ SEDIMENTATION"                                                            
4031.4 "6406_3-2"  -999.25 "Sandstone" "Shale"   "Limestone"  45.0000 40.00000 15.00000 "silt"     "vf"    "Distal_ mouth_ bar_ low_ wave_ energy"                                                                                                                              "DELTAIC,_ BASIN_ FILL_ SEDIMENTATION"                                                            
4031.5 "6406_3-2"  -999.25 "Sandstone" "Shale"   "Limestone"  45.0000 40.00000 15.00000 "silt"     "vf"    "Distal_ mouth_ bar_ low_ wave_ energy"                                                                                                                              "DELTAIC,_ BASIN_ FILL_ SEDIMENTATION"                                                            
4031.6 "6406_3-2"  -999.25 "Sandstone" "Shale"   "Limestone"  45.0000 40.00000 15.00000 "silt"     "vf"    "Distal_ mouth_ bar_ low_ wave_ energy"                                                                                                                              "DELTAIC,_ BASIN_ FILL_ SEDIMENTATION"                                                            
4031.7 "6406_3-2"  -999.25 "Sandstone" "Shale"   "Limestone"  45.0000 40.00000 15.00000 "silt"     "vf"    "Distal_ mouth_ bar_ low_ wave_ energy"                                                                                                                              "DELTAIC,_ BASIN_ FILL_ SEDIMENTATION"                                                            
4031.8 "6406_3-2"  -999.25 "Sandstone" "Shale"   "Limestone"  45.0000 40.00000 15.00000 "silt"     "vf"    "Distal_ mouth_ bar_ low_ wave_ energy"                                                                                                                              "DELTAIC,_ BASIN_ FILL_ SEDIMENTATION"                                                            
4031.9 "6406_3-2"  -999.25 "Sandstone" "Shale"   "Limestone"  45.0000 40.00000 15.00000 "silt"     "vf"    "Distal_ mouth_ bar_ low_ wave_ energy"                                                                                                                              "DELTAIC,_ BASIN_ FILL_ SEDIMENTATION"                                                            
4032.0 "6406_3-2"  -999.25 "Sandstone" "Shale"   "Limestone"  45.0000 40.00000 15.00000 "silt"     "vf"    "Distal_ mouth_ bar_ low_ wave_ energy"                                                                                                                              "DELTAIC,_ BASIN_ FILL_ SEDIMENTATION"                                                            
4032.1 "6406_3-2"  -999.25 "Sandstone" "Shale"   "Limestone"  45.0000 40.00000 15.00000 "silt"     "vf"    "Distal_ mouth_ bar_ low_ wave_ energy"                                                                                                                              "DELTAIC,_ BASIN_ FILL_ SEDIMENTATION"                                                            
4032.2 "6406_3-2"  -999.25 "Sandstone" "Shale"   "Limestone"  45.0000 40.00000 15.00000 "silt"     "vf"    "Distal_ mouth_ bar_ low_ wave_ energy"                                                                                                                              "DELTAIC,_ BASIN_ FILL_ SEDIMENTATION"                                                            
4032.3 "6406_3-2"  -999.25 "Sandstone" "Shale"   "Limestone"  45.0000 40.00000 15.00000 "silt"     "vf"    "Distal_ mouth_ bar_ low_ wave_ energy"                                                                                                                              "DELTAIC,_ BASIN_ FILL_ SEDIMENTATION"                                                            
4032.4 "6406_3-2"  -999.25 "Sandstone" "Shale"   "Limestone"  45.0000 40.00000 15.00000 "silt"     "vf"    "Distal_ mouth_ bar_ low_ wave_ energy"                                                                                                                              "DELTAIC,_ BASIN_ FILL_ SEDIMENTATION"                                                            
4032.5 "6406_3-2"  -999.25 "Sandstone" "Shale"   "Limestone"  45.0000 40.00000 15.00000 "silt"     "vf"    "Distal_ mouth_ bar_ low_ wave_ energy"                                                                                                                              "DELTAIC,_ BASIN_ FILL_ SEDIMENTATION"                                                            
4032.6 "6406_3-2"  -999.25 "Sandstone" "Shale"   "Limestone"  45.0000 40.00000 15.00000 "silt"     "vf"    "Distal_ mouth_ bar_ low_ wave_ energy"                                                                                                                              "DELTAIC,_ BASIN_ FILL_ SEDIMENTATION"                                                            
4032.7 "6406_3-2"  -999.25 "Sandstone" "Shale"   "Limestone"  45.0000 40.00000 15.00000 "silt"     "vf"    "Distal_ mouth_ bar_ low_ wave_ energy"                                                                                                                              "DELTAIC,_ BASIN_ FILL_ SEDIMENTATION"                                                            
4032.8 "6406_3-2"  -999.25 "Sandstone" "Shale"   "Limestone"  45.0000 40.00000 15.00000 "silt"     "vf"    "Distal_ mouth_ bar_ low_ wave_ energy"                                                                                                                              "DELTAIC,_ BASIN_ FILL_ SEDIMENTATION"                                                            
4032.9 "6406_3-2"  -999.25 "Sandstone" "Shale"   "Limestone"  45.0000 40.00000 15.00000 "silt"     "vf"    "Distal_ mouth_ bar_ low_ wave_ energy"                                                                                                                              "DELTAIC,_ BASIN_ FILL_ SEDIMENTATION"                                                            
4033.0 "6406_3-2"  -999.25 "Sandstone" "Shale"   "Limestone"  45.0000 40.00000 15.00000 "silt"     "vf"    "Distal_ mouth_ bar_ low_ wave_ energy"                                                                                                                              "DELTAIC,_ BASIN_ FILL_ SEDIMENTATION"                                                            
4033.1 "6406_3-2"  -999.25 "Sandstone" "Shale"   "Limestone"  45.0000 40.00000 15.00000 "silt"     "vf"    "Distal_ mouth_ bar_ low_ wave_ energy"                                                                                                                              "DELTAIC,_ BASIN_ FILL_ SEDIMENTATION"                                                            
4033.2 "6406_3-2"  -999.25 "Sandstone" "Shale"   "Limestone"  45.0000 40.00000 15.00000 "silt"     "vf"    "Distal_ mouth_ bar_ low_ wave_ energy"                                                                                                                              "DELTAIC,_ BASIN_ FILL_ SEDIMENTATION"                                                            
4033.3 "6406_3-2"  -999.25 "Sandstone" "Shale"   "Limestone"  45.0000 40.00000 15.00000 "silt"     "vf"    "Distal_ mouth_ bar_ low_ wave_ energy"                                                                                                                              "DELTAIC,_ BASIN_ FILL_ SEDIMENTATION"                                                            
