~Version
VERS  .                                 3.0 : CWLS LAS ASCII Standard - Version 3.0
WRAP  . NO                                  : One line per depth step
DLM   . SPACE                               : Column data section delimiter
SOURCE. Converted to LAS by Log Studio 4.76 : GeoProvider

~Well
STRT.         3930.0 : Start depth
STOP.         4375.5 : Stop depth
STEP.              1 : Step
NULL.        -999.25 : No-value
COMP.                : Company
WELL. 6406/3-2       : Well
FLD .                : Field
LOC .                : Location
LATI.                : Latitude
LONG.                : Longitude
GDAT.                : Geodetic datum
CNTY.                : County
STAT.                : State
CTRY.                : Country
SRVC. GeoProvider AS : Service company
DATE.                : Date
API .                : API number
RUN .                : Run number

~Parameters
WellboreName.  : Wellbore name
RigName     .  : Rig name
StartDate   .  : Start date

~Curves
DEPTH.m            .  : null {F}Depth mMD
Hole_ID.-          .  : null {S}Hole ID
GR.API             .  : null {F}Gamma Ray
Lithology1.-       .  : null {S}Lithology 1
Lithology2.-       .  : null {S}Lithology 2
Lithology3.-       .  : null {S}Lithology 3
Lithology1.%       .  : null {F}Lithology 1 percentage
Lithology2.%       .  : null {F}Lithology 2 percentage
Lithology3.%       .  : null {F}Lithology 3 percentage
Grain_size_Top.-   .  : null {S}Grain size at the top 
Grain_size_Base.-  .  : null {S}Grain size at the bottom
Sub_Environment.-  .  : null {S}Sub Environment
Gross_Environment.-.  : null {S}Gross Environment

~Ascii
# ...
3949.8 "6406_3-2"  53.4500 "Sandstone" "Limestone" -999.25    92.0000  8.00000      0.0 "m"        "m"     "erosion"                                                                                                                                                            "PROGRADING_ AND_ AGGRADING_ FAN_ DELTA_ FRONT_ MULTICYCLIC_ DEVELOPMENT"                         
3949.9 "6406_3-2"  53.1000 "Sandstone" "Limestone" -999.25    92.0000  8.00000      0.0 "m"        "m"     "erosion"                                                                                                                                                            "PROGRADING_ AND_ AGGRADING_ FAN_ DELTA_ FRONT_ MULTICYCLIC_ DEVELOPMENT"                         
3950.0 "6406_3-2"  52.7600 "Sandstone" "Limestone" -999.25    92.0000  8.00000      0.0 "m"        "m"     "erosion"                                                                                                                                                            "PROGRADING_ AND_ AGGRADING_ FAN_ DELTA_ FRONT_ MULTICYCLIC_ DEVELOPMENT"                         
3950.1 "6406_3-2"  52.4100 "Sandstone" "Limestone" -999.25    92.0000  8.00000      0.0 "m"        "m"     "erosion"                                                                                                                                                            "PROGRADING_ AND_ AGGRADING_ FAN_ DELTA_ FRONT_ MULTICYCLIC_ DEVELOPMENT"                         
3950.2 "6406_3-2"  52.0700 "Sandstone" "Limestone" -999.25    92.0000  8.00000      0.0 "m"        "m"     "erosion"                                                                                                                                                            "PROGRADING_ AND_ AGGRADING_ FAN_ DELTA_ FRONT_ MULTICYCLIC_ DEVELOPMENT"                         
3950.3 "6406_3-2"  52.1100 "Sandstone" "Limestone" -999.25    92.0000  8.00000      0.0 "m"        "m"     "erosion"                                                                                                                                                            "PROGRADING_ AND_ AGGRADING_ FAN_ DELTA_ FRONT_ MULTICYCLIC_ DEVELOPMENT"                         
3950.4 "6406_3-2"  53.0100 "Sandstone" "Limestone" -999.25    92.0000  8.00000      0.0 "m"        "m"     "erosion"                                                                                                                                                            "PROGRADING_ AND_ AGGRADING_ FAN_ DELTA_ FRONT_ MULTICYCLIC_ DEVELOPMENT"                         
3950.5 "6406_3-2"  53.9100 "Sandstone" "Limestone" -999.25    92.0000  8.00000      0.0 "m"        "m"     "erosion"                                                                                                                                                            "PROGRADING_ AND_ AGGRADING_ FAN_ DELTA_ FRONT_ MULTICYCLIC_ DEVELOPMENT"                         
3950.6 "6406_3-2"  54.8000 "Sandstone" "Limestone" -999.25    92.0000  8.00000      0.0 "m"        "m"     "erosion"                                                                                                                                                            "PROGRADING_ AND_ AGGRADING_ FAN_ DELTA_ FRONT_ MULTICYCLIC_ DEVELOPMENT"                         
3950.7 "6406_3-2"  55.7000 "Sandstone" "Limestone" -999.25    92.0000  8.00000      0.0 "m"        "m"     "erosion"                                                                                                                                                            "PROGRADING_ AND_ AGGRADING_ FAN_ DELTA_ FRONT_ MULTICYCLIC_ DEVELOPMENT"                         
3950.8 "6406_3-2"  55.3900 "Sandstone" "Limestone" -999.25    92.0000  8.00000      0.0 "m"        "m"     "erosion"                                                                                                                                                            "PROGRADING_ AND_ AGGRADING_ FAN_ DELTA_ FRONT_ MULTICYCLIC_ DEVELOPMENT"                         
3950.9 "6406_3-2"  54.3800 "Sandstone" "Limestone" -999.25    92.0000  8.00000      0.0 "m"        "m"     "erosion"                                                                                                                                                            "PROGRADING_ AND_ AGGRADING_ FAN_ DELTA_ FRONT_ MULTICYCLIC_ DEVELOPMENT"                         
3951.0 "6406_3-2"  53.3700 "Sandstone" "Limestone" -999.25    92.0000  8.00000      0.0 "m"        "m"     "erosion"                                                                                                                                                            "PROGRADING_ AND_ AGGRADING_ FAN_ DELTA_ FRONT_ MULTICYCLIC_ DEVELOPMENT"                         
3951.1 "6406_3-2"  52.4000 "Sandstone" "Limestone" -999.25    92.0000  8.00000      0.0 "m"        "m"     "erosion"                                                                                                                                                            "PROGRADING_ AND_ AGGRADING_ FAN_ DELTA_ FRONT_ MULTICYCLIC_ DEVELOPMENT"                         
3951.2 "6406_3-2"  52.7400 "Sandstone" "Limestone" -999.25    92.0000  8.00000      0.0 "m"        "m"     "erosion"                                                                                                                                                            "PROGRADING_ AND_ AGGRADING_ FAN_ DELTA_ FRONT_ MULTICYCLIC_ DEVELOPMENT"                         
3951.3 "6406_3-2"  53.0700 "Sandstone" "Limestone" -999.25    92.0000  8.00000      0.0 "m"        "m"     "erosion"                                                                                                                                                            "PROGRADING_ AND_ AGGRADING_ FAN_ DELTA_ FRONT_ MULTICYCLIC_ DEVELOPMENT"                         
3951.4 "6406_3-2"  53.4000 "Sandstone" "Limestone" -999.25    92.0000  8.00000      0.0 "m"        "m"     "erosion"                                                                                                                                                            "PROGRADING_ AND_ AGGRADING_ FAN_ DELTA_ FRONT_ MULTICYCLIC_ DEVELOPMENT"                         
3951.5 "6406_3-2"  53.7300 "Sandstone" "Limestone" -999.25    92.0000  8.00000      0.0 "m"        "m"     "erosion"                                                                                                                                                            "PROGRADING_ AND_ AGGRADING_ FAN_ DELTA_ FRONT_ MULTICYCLIC_ DEVELOPMENT"                         
3951.6 "6406_3-2"  54.0700 "Sandstone" "Limestone" -999.25    92.0000  8.00000      0.0 "m"        "m"     "erosion"                                                                                                                                                            "PROGRADING_ AND_ AGGRADING_ FAN_ DELTA_ FRONT_ MULTICYCLIC_ DEVELOPMENT"                         
3951.7 "6406_3-2"  54.8400 "Sandstone" "Limestone" -999.25    92.0000  8.00000      0.0 "m"        "m"     "erosion"                                                                                                                                                            "PROGRADING_ AND_ AGGRADING_ FAN_ DELTA_ FRONT_ MULTICYCLIC_ DEVELOPMENT"                         
3951.8 "6406_3-2"  55.6200 "Sandstone" "Limestone" -999.25    92.0000  8.00000      0.0 "m"        "m"     "erosion"                                                                                                                                                            "PROGRADING_ AND_ AGGRADING_ FAN_ DELTA_ FRONT_ MULTICYCLIC_ DEVELOPMENT"                         
3951.9 "6406_3-2"  56.6200 "Sandstone" "Limestone" -999.25    92.0000  8.00000      0.0 "m"        "m"     "erosion"                                                                                                                                                            "PROGRADING_ AND_ AGGRADING_ FAN_ DELTA_ FRONT_ MULTICYCLIC_ DEVELOPMENT"                         
