~Version
VERS  .                                 3.0 : CWLS LAS ASCII Standard - Version 3.0
WRAP  . NO                                  : One line per depth step
DLM   . SPACE                               : Column data section delimiter
SOURCE. Converted to LAS by Log Studio 4.76 : GeoProvider

~Well
STRT.         3930.0 : Start depth
STOP.         4375.5 : Stop depth
STEP.              1 : Step
NULL.        -999.25 : No-value
COMP.                : Company
WELL. 6406/3-2       : Well
FLD .                : Field
LOC .                : Location
LATI.                : Latitude
LONG.                : Longitude
GDAT.                : Geodetic datum
CNTY.                : County
STAT.                : State
CTRY.                : Country
SRVC. GeoProvider AS : Service company
DATE.                : Date
API .                : API number
RUN .                : Run number

~Parameters
WellboreName.  : Wellbore name
RigName     .  : Rig name
StartDate   .  : Start date

~Curves
DEPTH.m            .  : null {F}Depth mMD
Hole_ID.-          .  : null {S}Hole ID
GR.API             .  : null {F}Gamma Ray
Lithology1.-       .  : null {S}Lithology 1
Lithology2.-       .  : null {S}Lithology 2
Lithology3.-       .  : null {S}Lithology 3
Lithology1.%       .  : null {F}Lithology 1 percentage
Lithology2.%       .  : null {F}Lithology 2 percentage
Lithology3.%       .  : null {F}Lithology 3 percentage
Grain_size_Top.-   .  : null {S}Grain size at the top 
Grain_size_Base.-  .  : null {S}Grain size at the bottom
Sub_Environment.-  .  : null {S}Sub Environment
Gross_Environment.-.  : null {S}Gross Environment

~Ascii
# ...
4354.6 "6406_3-2"  60.5400 "Sandstone" "Shale"   -999.25    70.0000 30.00000      0.0 "silt"     "f/m"   "Shallow_ subtidal_ /_ estuary,_ tide_ dominated_ _ _ _ _ _ _ _ _ _ _ _ _ _ _ _ _ _ _ _ _ Tidal_ sandridges_ (?)_ _ _ _ _ _ _ _ _ _ _ _ _ _ _ _ _ _ _ in_ upper_ part" "SHALLOW_ TO_ MARGINAL_ MARINE_ SEDIMENTATION_ IN_ A_ SEMI-ENCLOSED,_ TIDE-DOMINATED_ BASIN/ESTUARY"
4354.7 "6406_3-2"  60.0400 "Sandstone" "Shale"   -999.25    70.0000 30.00000      0.0 "silt"     "f/m"   "Shallow_ subtidal_ /_ estuary,_ tide_ dominated_ _ _ _ _ _ _ _ _ _ _ _ _ _ _ _ _ _ _ _ _ Tidal_ sandridges_ (?)_ _ _ _ _ _ _ _ _ _ _ _ _ _ _ _ _ _ _ in_ upper_ part" "SHALLOW_ TO_ MARGINAL_ MARINE_ SEDIMENTATION_ IN_ A_ SEMI-ENCLOSED,_ TIDE-DOMINATED_ BASIN/ESTUARY"
4354.8 "6406_3-2"  59.5900 "Sandstone" "Shale"   -999.25    70.0000 30.00000      0.0 "silt"     "f/m"   "Shallow_ subtidal_ /_ estuary,_ tide_ dominated_ _ _ _ _ _ _ _ _ _ _ _ _ _ _ _ _ _ _ _ _ Tidal_ sandridges_ (?)_ _ _ _ _ _ _ _ _ _ _ _ _ _ _ _ _ _ _ in_ upper_ part" "SHALLOW_ TO_ MARGINAL_ MARINE_ SEDIMENTATION_ IN_ A_ SEMI-ENCLOSED,_ TIDE-DOMINATED_ BASIN/ESTUARY"
4354.9 "6406_3-2"  59.7100 "Sandstone" "Shale"   -999.25    70.0000 30.00000      0.0 "silt"     "f/m"   "Shallow_ subtidal_ /_ estuary,_ tide_ dominated_ _ _ _ _ _ _ _ _ _ _ _ _ _ _ _ _ _ _ _ _ Tidal_ sandridges_ (?)_ _ _ _ _ _ _ _ _ _ _ _ _ _ _ _ _ _ _ in_ upper_ part" "SHALLOW_ TO_ MARGINAL_ MARINE_ SEDIMENTATION_ IN_ A_ SEMI-ENCLOSED,_ TIDE-DOMINATED_ BASIN/ESTUARY"
4355.0 "6406_3-2"  60.1300 "Sandstone" "Shale"   -999.25    70.0000 30.00000      0.0 "silt"     "f/m"   "Shallow_ subtidal_ /_ estuary,_ tide_ dominated_ _ _ _ _ _ _ _ _ _ _ _ _ _ _ _ _ _ _ _ _ Tidal_ sandridges_ (?)_ _ _ _ _ _ _ _ _ _ _ _ _ _ _ _ _ _ _ in_ upper_ part" "SHALLOW_ TO_ MARGINAL_ MARINE_ SEDIMENTATION_ IN_ A_ SEMI-ENCLOSED,_ TIDE-DOMINATED_ BASIN/ESTUARY"
4355.1 "6406_3-2"  60.5500 "Sandstone" "Shale"   -999.25    70.0000 30.00000      0.0 "silt"     "f/m"   "Shallow_ subtidal_ /_ estuary,_ tide_ dominated_ _ _ _ _ _ _ _ _ _ _ _ _ _ _ _ _ _ _ _ _ Tidal_ sandridges_ (?)_ _ _ _ _ _ _ _ _ _ _ _ _ _ _ _ _ _ _ in_ upper_ part" "SHALLOW_ TO_ MARGINAL_ MARINE_ SEDIMENTATION_ IN_ A_ SEMI-ENCLOSED,_ TIDE-DOMINATED_ BASIN/ESTUARY"
4355.2 "6406_3-2"  60.9800 "Sandstone" "Shale"   -999.25    70.0000 30.00000      0.0 "silt"     "f/m"   "Shallow_ subtidal_ /_ estuary,_ tide_ dominated_ _ _ _ _ _ _ _ _ _ _ _ _ _ _ _ _ _ _ _ _ Tidal_ sandridges_ (?)_ _ _ _ _ _ _ _ _ _ _ _ _ _ _ _ _ _ _ in_ upper_ part" "SHALLOW_ TO_ MARGINAL_ MARINE_ SEDIMENTATION_ IN_ A_ SEMI-ENCLOSED,_ TIDE-DOMINATED_ BASIN/ESTUARY"
4355.3 "6406_3-2"  61.4100 "Sandstone" "Shale"   -999.25    70.0000 30.00000      0.0 "silt"     "f/m"   "Shallow_ subtidal_ /_ estuary,_ tide_ dominated_ _ _ _ _ _ _ _ _ _ _ _ _ _ _ _ _ _ _ _ _ Tidal_ sandridges_ (?)_ _ _ _ _ _ _ _ _ _ _ _ _ _ _ _ _ _ _ in_ upper_ part" "SHALLOW_ TO_ MARGINAL_ MARINE_ SEDIMENTATION_ IN_ A_ SEMI-ENCLOSED,_ TIDE-DOMINATED_ BASIN/ESTUARY"
4355.4 "6406_3-2"  61.8400 "Sandstone" "Shale"   -999.25    70.0000 30.00000      0.0 "silt"     "f/m"   "Shallow_ subtidal_ /_ estuary,_ tide_ dominated_ _ _ _ _ _ _ _ _ _ _ _ _ _ _ _ _ _ _ _ _ Tidal_ sandridges_ (?)_ _ _ _ _ _ _ _ _ _ _ _ _ _ _ _ _ _ _ in_ upper_ part" "SHALLOW_ TO_ MARGINAL_ MARINE_ SEDIMENTATION_ IN_ A_ SEMI-ENCLOSED,_ TIDE-DOMINATED_ BASIN/ESTUARY"
4355.5 "6406_3-2"  62.2700 "Sandstone" "Shale"   -999.25    70.0000 30.00000      0.0 "silt"     "f/m"   "Shallow_ subtidal_ /_ estuary,_ tide_ dominated_ _ _ _ _ _ _ _ _ _ _ _ _ _ _ _ _ _ _ _ _ Tidal_ sandridges_ (?)_ _ _ _ _ _ _ _ _ _ _ _ _ _ _ _ _ _ _ in_ upper_ part" "SHALLOW_ TO_ MARGINAL_ MARINE_ SEDIMENTATION_ IN_ A_ SEMI-ENCLOSED,_ TIDE-DOMINATED_ BASIN/ESTUARY"
4355.6 "6406_3-2"  62.6900 "Sandstone" "Shale"   -999.25    70.0000 30.00000      0.0 "silt"     "f/m"   "Shallow_ subtidal_ /_ estuary,_ tide_ dominated_ _ _ _ _ _ _ _ _ _ _ _ _ _ _ _ _ _ _ _ _ Tidal_ sandridges_ (?)_ _ _ _ _ _ _ _ _ _ _ _ _ _ _ _ _ _ _ in_ upper_ part" "SHALLOW_ TO_ MARGINAL_ MARINE_ SEDIMENTATION_ IN_ A_ SEMI-ENCLOSED,_ TIDE-DOMINATED_ BASIN/ESTUARY"
4355.7 "6406_3-2"  63.1200 "Sandstone" "Shale"   -999.25    70.0000 30.00000      0.0 "silt"     "f/m"   "Shallow_ subtidal_ /_ estuary,_ tide_ dominated_ _ _ _ _ _ _ _ _ _ _ _ _ _ _ _ _ _ _ _ _ Tidal_ sandridges_ (?)_ _ _ _ _ _ _ _ _ _ _ _ _ _ _ _ _ _ _ in_ upper_ part" "SHALLOW_ TO_ MARGINAL_ MARINE_ SEDIMENTATION_ IN_ A_ SEMI-ENCLOSED,_ TIDE-DOMINATED_ BASIN/ESTUARY"
4355.8 "6406_3-2"  63.8500 "Sandstone" "Shale"   -999.25    70.0000 30.00000      0.0 "silt"     "f/m"   "Shallow_ subtidal_ /_ estuary,_ tide_ dominated_ _ _ _ _ _ _ _ _ _ _ _ _ _ _ _ _ _ _ _ _ Tidal_ sandridges_ (?)_ _ _ _ _ _ _ _ _ _ _ _ _ _ _ _ _ _ _ in_ upper_ part" "SHALLOW_ TO_ MARGINAL_ MARINE_ SEDIMENTATION_ IN_ A_ SEMI-ENCLOSED,_ TIDE-DOMINATED_ BASIN/ESTUARY"
4355.9 "6406_3-2"  67.9000 "Sandstone" "Shale"   -999.25    70.0000 30.00000      0.0 "silt"     "f/m"   "Shallow_ subtidal_ /_ estuary,_ tide_ dominated_ _ _ _ _ _ _ _ _ _ _ _ _ _ _ _ _ _ _ _ _ Tidal_ sandridges_ (?)_ _ _ _ _ _ _ _ _ _ _ _ _ _ _ _ _ _ _ in_ upper_ part" "SHALLOW_ TO_ MARGINAL_ MARINE_ SEDIMENTATION_ IN_ A_ SEMI-ENCLOSED,_ TIDE-DOMINATED_ BASIN/ESTUARY"
4356.0 "6406_3-2"  71.9400 "Sandstone" "Shale"   -999.25    70.0000 30.00000      0.0 "silt"     "f/m"   "Shallow_ subtidal_ /_ estuary,_ tide_ dominated_ _ _ _ _ _ _ _ _ _ _ _ _ _ _ _ _ _ _ _ _ Tidal_ sandridges_ (?)_ _ _ _ _ _ _ _ _ _ _ _ _ _ _ _ _ _ _ in_ upper_ part" "SHALLOW_ TO_ MARGINAL_ MARINE_ SEDIMENTATION_ IN_ A_ SEMI-ENCLOSED,_ TIDE-DOMINATED_ BASIN/ESTUARY"
4356.1 "6406_3-2"  68.4200 "Sandstone" "Shale"   -999.25    70.0000 30.00000      0.0 "silt"     "f/m"   "Shallow_ subtidal_ /_ estuary,_ tide_ dominated_ _ _ _ _ _ _ _ _ _ _ _ _ _ _ _ _ _ _ _ _ Tidal_ sandridges_ (?)_ _ _ _ _ _ _ _ _ _ _ _ _ _ _ _ _ _ _ in_ upper_ part" "SHALLOW_ TO_ MARGINAL_ MARINE_ SEDIMENTATION_ IN_ A_ SEMI-ENCLOSED,_ TIDE-DOMINATED_ BASIN/ESTUARY"
4356.2 "6406_3-2"  64.5500 "Sandstone" "Shale"   -999.25    70.0000 30.00000      0.0 "silt"     "f/m"   "Shallow_ subtidal_ /_ estuary,_ tide_ dominated_ _ _ _ _ _ _ _ _ _ _ _ _ _ _ _ _ _ _ _ _ Tidal_ sandridges_ (?)_ _ _ _ _ _ _ _ _ _ _ _ _ _ _ _ _ _ _ in_ upper_ part" "SHALLOW_ TO_ MARGINAL_ MARINE_ SEDIMENTATION_ IN_ A_ SEMI-ENCLOSED,_ TIDE-DOMINATED_ BASIN/ESTUARY"
4356.3 "6406_3-2"  60.6800 "Sandstone" "Shale"   -999.25    70.0000 30.00000      0.0 "silt"     "f/m"   "Shallow_ subtidal_ /_ estuary,_ tide_ dominated_ _ _ _ _ _ _ _ _ _ _ _ _ _ _ _ _ _ _ _ _ Tidal_ sandridges_ (?)_ _ _ _ _ _ _ _ _ _ _ _ _ _ _ _ _ _ _ in_ upper_ part" "SHALLOW_ TO_ MARGINAL_ MARINE_ SEDIMENTATION_ IN_ A_ SEMI-ENCLOSED,_ TIDE-DOMINATED_ BASIN/ESTUARY"
4356.4 "6406_3-2"  56.8100 "Sandstone" "Shale"   -999.25    70.0000 30.00000      0.0 "silt"     "f/m"   "Shallow_ subtidal_ /_ estuary,_ tide_ dominated_ _ _ _ _ _ _ _ _ _ _ _ _ _ _ _ _ _ _ _ _ Tidal_ sandridges_ (?)_ _ _ _ _ _ _ _ _ _ _ _ _ _ _ _ _ _ _ in_ upper_ part" "SHALLOW_ TO_ MARGINAL_ MARINE_ SEDIMENTATION_ IN_ A_ SEMI-ENCLOSED,_ TIDE-DOMINATED_ BASIN/ESTUARY"
4356.5 "6406_3-2"  52.9400 "Sandstone" "Shale"   -999.25    70.0000 30.00000      0.0 "silt"     "f/m"   "Shallow_ subtidal_ /_ estuary,_ tide_ dominated_ _ _ _ _ _ _ _ _ _ _ _ _ _ _ _ _ _ _ _ _ Tidal_ sandridges_ (?)_ _ _ _ _ _ _ _ _ _ _ _ _ _ _ _ _ _ _ in_ upper_ part" "SHALLOW_ TO_ MARGINAL_ MARINE_ SEDIMENTATION_ IN_ A_ SEMI-ENCLOSED,_ TIDE-DOMINATED_ BASIN/ESTUARY"
4356.6 "6406_3-2"  50.9600 "Sandstone" "Shale"   -999.25    70.0000 30.00000      0.0 "silt"     "f/m"   "Shallow_ subtidal_ /_ estuary,_ tide_ dominated_ _ _ _ _ _ _ _ _ _ _ _ _ _ _ _ _ _ _ _ _ Tidal_ sandridges_ (?)_ _ _ _ _ _ _ _ _ _ _ _ _ _ _ _ _ _ _ in_ upper_ part" "SHALLOW_ TO_ MARGINAL_ MARINE_ SEDIMENTATION_ IN_ A_ SEMI-ENCLOSED,_ TIDE-DOMINATED_ BASIN/ESTUARY"
4356.7 "6406_3-2"  52.1000 "Sandstone" "Shale"   -999.25    70.0000 30.00000      0.0 "silt"     "f/m"   "Shallow_ subtidal_ /_ estuary,_ tide_ dominated_ _ _ _ _ _ _ _ _ _ _ _ _ _ _ _ _ _ _ _ _ Tidal_ sandridges_ (?)_ _ _ _ _ _ _ _ _ _ _ _ _ _ _ _ _ _ _ in_ upper_ part" "SHALLOW_ TO_ MARGINAL_ MARINE_ SEDIMENTATION_ IN_ A_ SEMI-ENCLOSED,_ TIDE-DOMINATED_ BASIN/ESTUARY"
