~Version
VERS  .                                 3.0 : CWLS LAS ASCII Standard - Version 3.0
WRAP  . NO                                  : One line per depth step
DLM   . SPACE                               : Column data section delimiter
SOURCE. Converted to LAS by Log Studio 4.76 : GeoProvider

~Well
STRT.         1666.0 : Start depth
STOP.         1711.3 : Stop depth
STEP.              1 : Step
NULL.        -999.25 : No-value
COMP.                : Company
WELL. 6407/9-4       : Well
FLD .                : Field
LOC .                : Location
LATI.                : Latitude
LONG.                : Longitude
GDAT.                : Geodetic datum
CNTY.                : County
STAT.                : State
CTRY.                : Country
SRVC. GeoProvider AS : Service company
DATE.                : Date
API .                : API number
RUN .                : Run number

~Parameters
WellboreName.  : Wellbore name
RigName     .  : Rig name
StartDate   .  : Start date

~Curves
DEPTH.m            .  : null {F}Depth mMD
Hole_ID.-          .  : null {S}Hole ID
GR.API             .  : null {F}Gamma Ray
Lithology1.-       .  : null {S}Lithology 1
Lithology2.-       .  : null {S}Lithology 2
Lithology3.-       .  : null {S}Lithology 3
Lithology1.%       .  : null {F}Lithology 1 percentage
Lithology2.%       .  : null {F}Lithology 2 percentage
Lithology3.%       .  : null {F}Lithology 3 percentage
Grain_size_Top.-   .  : null {S}Grain size at the top 
Grain_size_Base.-  .  : null {S}Grain size at the bottom
Sub_Environment.-  .  : null {S}Sub Environment
Gross_Environment.-.  : null {S}Gross Environment

~Ascii
# ...
1681.4 "6407_9-4" 63.51000 "Sandstone" "Limestone" -999.25  83.0000 17.00000 0.0 "f/m"     "silt"    "Stacked_upper_shoreface_sequenses"                             "Stacked_upper_shoreface/proximal_delta_front"
1681.5 "6407_9-4" 62.78000 "Sandstone" "Limestone" -999.25  83.0000 17.00000 0.0 "f/m"     "silt"    "Stacked_upper_shoreface_sequenses"                             "Stacked_upper_shoreface/proximal_delta_front"
1681.6 "6407_9-4" 62.09000 "Sandstone" "Limestone" -999.25  83.0000 17.00000 0.0 "f/m"     "silt"    "Stacked_upper_shoreface_sequenses"                             "Stacked_upper_shoreface/proximal_delta_front"
1681.7 "6407_9-4" 61.40000 "Limestone" -999.25   -999.25 100.0000      0.0 0.0 "vf"      "vf"      "Stacked_upper_shoreface_sequenses"                             "Stacked_upper_shoreface/proximal_delta_front"
1681.8 "6407_9-4" 60.73000 "Limestone" -999.25   -999.25 100.0000      0.0 0.0 "vf"      "vf"      "Stacked_upper_shoreface_sequenses"                             "Stacked_upper_shoreface/proximal_delta_front"
1681.9 "6407_9-4" 60.73000 "Limestone" -999.25   -999.25 100.0000      0.0 0.0 "vf"      "vf"      "Stacked_upper_shoreface_sequenses"                             "Stacked_upper_shoreface/proximal_delta_front"
1682.0 "6407_9-4" 60.80000 "Limestone" -999.25   -999.25 100.0000      0.0 0.0 "vf"      "vf"      "Stacked_upper_shoreface_sequenses"                             "Stacked_upper_shoreface/proximal_delta_front"
1682.1 "6407_9-4" 61.53000 "Limestone" -999.25   -999.25 100.0000      0.0 0.0 "vf"      "vf"      "Stacked_upper_shoreface_sequenses"                             "Stacked_upper_shoreface/proximal_delta_front"
1682.2 "6407_9-4" 62.23000 "Sandstone" "Limestone" -999.25  60.0000 40.00000 0.0 "f/m"     "f/m"     "Stacked_upper_shoreface_sequenses"                             "Stacked_upper_shoreface/proximal_delta_front"
1682.3 "6407_9-4" 61.22000 "Sandstone" "Limestone" -999.25  60.0000 40.00000 0.0 "f/m"     "f/m"     "Stacked_upper_shoreface_sequenses"                             "Stacked_upper_shoreface/proximal_delta_front"
1682.4 "6407_9-4" 60.21000 "Sandstone" "Limestone" -999.25  60.0000 40.00000 0.0 "f/m"     "f/m"     "Stacked_upper_shoreface_sequenses"                             "Stacked_upper_shoreface/proximal_delta_front"
1682.5 "6407_9-4" 59.20000 "Sandstone" "Limestone" -999.25  60.0000 40.00000 0.0 "f/m"     "f/m"     "Stacked_upper_shoreface_sequenses"                             "Stacked_upper_shoreface/proximal_delta_front"
1682.6 "6407_9-4" 58.19000 "Sandstone" "Limestone" -999.25  60.0000 40.00000 0.0 "f/m"     "f/m"     "Stacked_upper_shoreface_sequenses"                             "Stacked_upper_shoreface/proximal_delta_front"
1682.7 "6407_9-4" 57.19000 "Sandstone" "Limestone" -999.25  60.0000 40.00000 0.0 "f/m"     "f/m"     "Stacked_upper_shoreface_sequenses"                             "Stacked_upper_shoreface/proximal_delta_front"
1682.8 "6407_9-4" 56.47000 "Sandstone" "Limestone" -999.25  60.0000 40.00000 0.0 "f/m"     "f/m"     "Stacked_upper_shoreface_sequenses"                             "Stacked_upper_shoreface/proximal_delta_front"
1682.9 "6407_9-4" 56.41000 "Sandstone" "Limestone" -999.25  60.0000 40.00000 0.0 "f/m"     "f/m"     "Stacked_upper_shoreface_sequenses"                             "Stacked_upper_shoreface/proximal_delta_front"
1683.0 "6407_9-4" 56.34000 "Sandstone" "Limestone" -999.25  60.0000 40.00000 0.0 "f/m"     "f/m"     "Stacked_upper_shoreface_sequenses"                             "Stacked_upper_shoreface/proximal_delta_front"
1683.1 "6407_9-4" 56.67000 "Sandstone" "Limestone" -999.25  60.0000 40.00000 0.0 "f/m"     "f/m"     "Stacked_upper_shoreface_sequenses"                             "Stacked_upper_shoreface/proximal_delta_front"
1683.2 "6407_9-4" 57.06000 "Sandstone" "Limestone" -999.25  60.0000 40.00000 0.0 "f/m"     "f/m"     "Stacked_upper_shoreface_sequenses"                             "Stacked_upper_shoreface/proximal_delta_front"
1683.3 "6407_9-4" 57.46000 "Sandstone" "Limestone" -999.25  60.0000 40.00000 0.0 "f/m"     "f/m"     "Stacked_upper_shoreface_sequenses"                             "Stacked_upper_shoreface/proximal_delta_front"
1683.4 "6407_9-4" 57.86000 "Sandstone" "Limestone" -999.25  60.0000 40.00000 0.0 "f/m"     "f/m"     "Stacked_upper_shoreface_sequenses"                             "Stacked_upper_shoreface/proximal_delta_front"
1683.5 "6407_9-4" 58.26000 "Sandstone" "Limestone" -999.25  60.0000 40.00000 0.0 "f/m"     "f/m"     "Stacked_upper_shoreface_sequenses"                             "Stacked_upper_shoreface/proximal_delta_front"
1683.6 "6407_9-4" 58.20000 "Sandstone" "Limestone" -999.25  60.0000 40.00000 0.0 "f/m"     "f/m"     "Stacked_upper_shoreface_sequenses"                             "Stacked_upper_shoreface/proximal_delta_front"
1683.7 "6407_9-4" 58.09000 "Sandstone" "Limestone" -999.25  60.0000 40.00000 0.0 "f/m"     "f/m"     "Stacked_upper_shoreface_sequenses"                             "Stacked_upper_shoreface/proximal_delta_front"
1683.8 "6407_9-4" 58.28000 "Sandstone" "Limestone" -999.25  60.0000 40.00000 0.0 "f/m"     "f/m"     "Stacked_upper_shoreface_sequenses"                             "Stacked_upper_shoreface/proximal_delta_front"
1683.9 "6407_9-4" 59.50000 "Sandstone" "Limestone" -999.25  60.0000 40.00000 0.0 "f/m"     "f/m"     "Stacked_upper_shoreface_sequenses"                             "Stacked_upper_shoreface/proximal_delta_front"
1684.0 "6407_9-4" 60.73000 "Sandstone" "Limestone" -999.25  60.0000 40.00000 0.0 "f/m"     "f/m"     "Stacked_upper_shoreface_sequenses"                             "Stacked_upper_shoreface/proximal_delta_front"
1684.1 "6407_9-4" 61.38000 "Sandstone" "Limestone" -999.25  60.0000 40.00000 0.0 "f/m"     "f/m"     "Stacked_upper_shoreface_sequenses"                             "Stacked_upper_shoreface/proximal_delta_front"
1684.2 "6407_9-4" 61.85000 "Sandstone" "Limestone" -999.25  60.0000 40.00000 0.0 "f/m"     "f/m"     "Stacked_upper_shoreface_sequenses"                             "Stacked_upper_shoreface/proximal_delta_front"
1684.3 "6407_9-4" 62.32000 "Sandstone" "Limestone" -999.25  60.0000 40.00000 0.0 "f/m"     "f/m"     "Stacked_upper_shoreface_sequenses"                             "Stacked_upper_shoreface/proximal_delta_front"
1684.4 "6407_9-4" 62.79000 "Sandstone" "Limestone" -999.25  60.0000 40.00000 0.0 "f/m"     "f/m"     "Stacked_upper_shoreface_sequenses"                             "Stacked_upper_shoreface/proximal_delta_front"
1684.5 "6407_9-4" 63.90000 "Sandstone" "Limestone" -999.25  60.0000 40.00000 0.0 "f/m"     "f/m"     "Stacked_upper_shoreface_sequenses"                             "Stacked_upper_shoreface/proximal_delta_front"
1684.6 "6407_9-4" 65.50000 -999.25   -999.25   -999.25 100.0000      0.0 0.0 -999.25   -999.25   "Stacked_upper_shoreface_sequenses"                             "Stacked_upper_shoreface/proximal_delta_front"
1684.7 "6407_9-4" 68.13000 -999.25   -999.25   -999.25 100.0000      0.0 0.0 -999.25   -999.25   "Coarsening_upwards_prograding_shoreline_sequenses_(Delta_front)" "Prograding_proximal_delta_front_(fan_delta)"
1684.8 "6407_9-4" 71.28000 -999.25   -999.25   -999.25 100.0000      0.0 0.0 -999.25   -999.25   "Coarsening_upwards_prograding_shoreline_sequenses_(Delta_front)" "Prograding_proximal_delta_front_(fan_delta)"
1684.9 "6407_9-4" 74.43000 -999.25   -999.25   -999.25 100.0000      0.0 0.0 -999.25   -999.25   "Coarsening_upwards_prograding_shoreline_sequenses_(Delta_front)" "Prograding_proximal_delta_front_(fan_delta)"
1685.0 "6407_9-4" 77.59000 -999.25   -999.25   -999.25 100.0000      0.0 0.0 -999.25   -999.25   "Coarsening_upwards_prograding_shoreline_sequenses_(Delta_front)" "Prograding_proximal_delta_front_(fan_delta)"
1685.1 "6407_9-4" 80.74000 -999.25   -999.25   -999.25 100.0000      0.0 0.0 -999.25   -999.25   "Coarsening_upwards_prograding_shoreline_sequenses_(Delta_front)" "Prograding_proximal_delta_front_(fan_delta)"
