~Version
VERS  .                                 3.0 : CWLS LAS ASCII Standard - Version 3.0
WRAP  . NO                                  : One line per depth step
DLM   . SPACE                               : Column data section delimiter
SOURCE. Converted to LAS by Log Studio 4.76 : GeoProvider

~Well
STRT.         1666.0 : Start depth
STOP.         1711.3 : Stop depth
STEP.              1 : Step
NULL.        -999.25 : No-value
COMP.                : Company
WELL. 6407/9-4       : Well
FLD .                : Field
LOC .                : Location
LATI.                : Latitude
LONG.                : Longitude
GDAT.                : Geodetic datum
CNTY.                : County
STAT.                : State
CTRY.                : Country
SRVC. GeoProvider AS : Service company
DATE.                : Date
API .                : API number
RUN .                : Run number

~Parameters
WellboreName.  : Wellbore name
RigName     .  : Rig name
StartDate   .  : Start date

~Curves
DEPTH.m            .  : null {F}Depth mMD
Hole_ID.-          .  : null {S}Hole ID
GR.API             .  : null {F}Gamma Ray
Lithology1.-       .  : null {S}Lithology 1
Lithology2.-       .  : null {S}Lithology 2
Lithology3.-       .  : null {S}Lithology 3
Lithology1.%       .  : null {F}Lithology 1 percentage
Lithology2.%       .  : null {F}Lithology 2 percentage
Lithology3.%       .  : null {F}Lithology 3 percentage
Grain_size_Top.-   .  : null {S}Grain size at the top 
Grain_size_Base.-  .  : null {S}Grain size at the bottom
Sub_Environment.-  .  : null {S}Sub Environment
Gross_Environment.-.  : null {S}Gross Environment

~Ascii
# ...
1673.7 "6407_9-4" 57.36000 "Limestone" -999.25   -999.25 100.0000      0.0 0.0 "clay/silt" "clay/silt" "Stacked_upper_shoreface_sequenses"                             "Stacked_upper_shoreface/proximal_delta_front"
1673.8 "6407_9-4" 57.92000 "Limestone" -999.25   -999.25 100.0000      0.0 0.0 "silt"    "silt"    "Stacked_upper_shoreface_sequenses"                             "Stacked_upper_shoreface/proximal_delta_front"
1673.9 "6407_9-4" 60.71000 "Sandstone" "Limestone" -999.25  98.0000  2.00000 0.0 "vf"      "vf"      "Stacked_upper_shoreface_sequenses"                             "Stacked_upper_shoreface/proximal_delta_front"
1674.0 "6407_9-4" 60.84000 "Sandstone" "Limestone" -999.25  98.0000  2.00000 0.0 "vf"      "vf"      "Stacked_upper_shoreface_sequenses"                             "Stacked_upper_shoreface/proximal_delta_front"
1674.1 "6407_9-4" 60.81000 "Sandstone" "Limestone" -999.25  98.0000  2.00000 0.0 "vf"      "vf"      "Stacked_upper_shoreface_sequenses"                             "Stacked_upper_shoreface/proximal_delta_front"
1674.2 "6407_9-4" 60.77000 "Sandstone" "Limestone" -999.25  98.0000  2.00000 0.0 "vf"      "vf"      "Stacked_upper_shoreface_sequenses"                             "Stacked_upper_shoreface/proximal_delta_front"
1674.3 "6407_9-4" 60.73000 "Sandstone" "Limestone" -999.25  98.0000  2.00000 0.0 "vf"      "vf"      "Stacked_upper_shoreface_sequenses"                             "Stacked_upper_shoreface/proximal_delta_front"
1674.4 "6407_9-4" 62.44000 "Sandstone" "Limestone" -999.25  98.0000  2.00000 0.0 "vf"      "vf"      "Stacked_upper_shoreface_sequenses"                             "Stacked_upper_shoreface/proximal_delta_front"
1674.5 "6407_9-4" 64.72000 "Sandstone" "Limestone" -999.25  98.0000  2.00000 0.0 "vf"      "vf"      "Stacked_upper_shoreface_sequenses"                             "Stacked_upper_shoreface/proximal_delta_front"
1674.6 "6407_9-4" 67.49000 "Sandstone" "Limestone" -999.25  98.0000  2.00000 0.0 "vf"      "vf"      "Stacked_upper_shoreface_sequenses"                             "Stacked_upper_shoreface/proximal_delta_front"
1674.7 "6407_9-4" 75.15000 "Sandstone" "Limestone" -999.25  98.0000  2.00000 0.0 "vf"      "vf"      "Stacked_upper_shoreface_sequenses"                             "Stacked_upper_shoreface/proximal_delta_front"
1674.8 "6407_9-4" 79.09000 -999.25   -999.25   -999.25 100.0000      0.0 0.0 -999.25   -999.25   "Stacked_upper_shoreface_sequenses"                             "Stacked_upper_shoreface/proximal_delta_front"
1674.9 "6407_9-4" 80.22000 -999.25   -999.25   -999.25 100.0000      0.0 0.0 -999.25   -999.25   "Stacked_upper_shoreface_sequenses"                             "Stacked_upper_shoreface/proximal_delta_front"
1675.0 "6407_9-4" 86.72000 -999.25   -999.25   -999.25 100.0000      0.0 0.0 -999.25   -999.25   "Stacked_upper_shoreface_sequenses"                             "Stacked_upper_shoreface/proximal_delta_front"
1675.1 "6407_9-4" 87.58000 -999.25   -999.25   -999.25 100.0000      0.0 0.0 -999.25   -999.25   "Stacked_upper_shoreface_sequenses"                             "Stacked_upper_shoreface/proximal_delta_front"
1675.2 "6407_9-4" 88.45000 -999.25   -999.25   -999.25 100.0000      0.0 0.0 -999.25   -999.25   "Stacked_upper_shoreface_sequenses"                             "Stacked_upper_shoreface/proximal_delta_front"
1675.3 "6407_9-4" 89.31000 -999.25   -999.25   -999.25 100.0000      0.0 0.0 -999.25   -999.25   "Stacked_upper_shoreface_sequenses"                             "Stacked_upper_shoreface/proximal_delta_front"
1675.4 "6407_9-4" 90.17000 -999.25   -999.25   -999.25 100.0000      0.0 0.0 -999.25   -999.25   "Stacked_upper_shoreface_sequenses"                             "Stacked_upper_shoreface/proximal_delta_front"
1675.5 "6407_9-4" 91.03000 -999.25   -999.25   -999.25 100.0000      0.0 0.0 -999.25   -999.25   "Stacked_upper_shoreface_sequenses"                             "Stacked_upper_shoreface/proximal_delta_front"
1675.6 "6407_9-4" 91.90000 -999.25   -999.25   -999.25 100.0000      0.0 0.0 -999.25   -999.25   "Stacked_upper_shoreface_sequenses"                             "Stacked_upper_shoreface/proximal_delta_front"
1675.7 "6407_9-4" 92.16000 -999.25   -999.25   -999.25 100.0000      0.0 0.0 -999.25   -999.25   "Stacked_upper_shoreface_sequenses"                             "Stacked_upper_shoreface/proximal_delta_front"
1675.8 "6407_9-4" 91.66000 -999.25   -999.25   -999.25 100.0000      0.0 0.0 -999.25   -999.25   "Stacked_upper_shoreface_sequenses"                             "Stacked_upper_shoreface/proximal_delta_front"
1675.9 "6407_9-4" 90.40000 -999.25   -999.25   -999.25 100.0000      0.0 0.0 -999.25   -999.25   "Stacked_upper_shoreface_sequenses"                             "Stacked_upper_shoreface/proximal_delta_front"
1676.0 "6407_9-4" 89.07000 -999.25   -999.25   -999.25 100.0000      0.0 0.0 -999.25   -999.25   "Stacked_upper_shoreface_sequenses"                             "Stacked_upper_shoreface/proximal_delta_front"
1676.1 "6407_9-4" 87.75000 -999.25   -999.25   -999.25 100.0000      0.0 0.0 -999.25   -999.25   "Stacked_upper_shoreface_sequenses"                             "Stacked_upper_shoreface/proximal_delta_front"
1676.2 "6407_9-4" 86.42000 -999.25   -999.25   -999.25 100.0000      0.0 0.0 -999.25   -999.25   "Stacked_upper_shoreface_sequenses"                             "Stacked_upper_shoreface/proximal_delta_front"
1676.3 "6407_9-4" 85.42000 -999.25   -999.25   -999.25 100.0000      0.0 0.0 -999.25   -999.25   "Stacked_upper_shoreface_sequenses"                             "Stacked_upper_shoreface/proximal_delta_front"
1676.4 "6407_9-4" 85.02000 "Sandstone" "Limestone" -999.25  83.0000 17.00000 0.0 "f/m"     "silt"    "Stacked_upper_shoreface_sequenses"                             "Stacked_upper_shoreface/proximal_delta_front"
1676.5 "6407_9-4" 84.41000 "Sandstone" "Limestone" -999.25  83.0000 17.00000 0.0 "f/m"     "silt"    "Stacked_upper_shoreface_sequenses"                             "Stacked_upper_shoreface/proximal_delta_front"
1676.6 "6407_9-4" 83.53000 "Sandstone" "Limestone" -999.25  83.0000 17.00000 0.0 "f/m"     "silt"    "Stacked_upper_shoreface_sequenses"                             "Stacked_upper_shoreface/proximal_delta_front"
1676.7 "6407_9-4" 83.62000 "Sandstone" "Limestone" -999.25  83.0000 17.00000 0.0 "f/m"     "silt"    "Stacked_upper_shoreface_sequenses"                             "Stacked_upper_shoreface/proximal_delta_front"
1676.8 "6407_9-4" 84.49000 "Sandstone" "Limestone" -999.25  83.0000 17.00000 0.0 "f/m"     "silt"    "Stacked_upper_shoreface_sequenses"                             "Stacked_upper_shoreface/proximal_delta_front"
1676.9 "6407_9-4" 85.91000 "Sandstone" "Limestone" -999.25  83.0000 17.00000 0.0 "f/m"     "silt"    "Stacked_upper_shoreface_sequenses"                             "Stacked_upper_shoreface/proximal_delta_front"
1677.0 "6407_9-4" 88.01000 "Sandstone" "Limestone" -999.25  83.0000 17.00000 0.0 "f/m"     "silt"    "Stacked_upper_shoreface_sequenses"                             "Stacked_upper_shoreface/proximal_delta_front"
1677.1 "6407_9-4" 90.10000 "Sandstone" "Limestone" -999.25  83.0000 17.00000 0.0 "f/m"     "silt"    "Stacked_upper_shoreface_sequenses"                             "Stacked_upper_shoreface/proximal_delta_front"
1677.2 "6407_9-4" 91.02000 "Sandstone" "Limestone" -999.25  83.0000 17.00000 0.0 "f/m"     "silt"    "Stacked_upper_shoreface_sequenses"                             "Stacked_upper_shoreface/proximal_delta_front"
1677.3 "6407_9-4" 90.31000 "Sandstone" "Limestone" -999.25  83.0000 17.00000 0.0 "f/m"     "silt"    "Stacked_upper_shoreface_sequenses"                             "Stacked_upper_shoreface/proximal_delta_front"
1677.4 "6407_9-4" 89.60000 "Sandstone" "Limestone" -999.25  83.0000 17.00000 0.0 "f/m"     "silt"    "Stacked_upper_shoreface_sequenses"                             "Stacked_upper_shoreface/proximal_delta_front"
1677.5 "6407_9-4" 88.89000 "Sandstone" "Limestone" -999.25  83.0000 17.00000 0.0 "f/m"     "silt"    "Stacked_upper_shoreface_sequenses"                             "Stacked_upper_shoreface/proximal_delta_front"
