~Version
VERS  .                                 3.0 : CWLS LAS ASCII Standard - Version 3.0
WRAP  . NO                                  : One line per depth step
DLM   . SPACE                               : Column data section delimiter
SOURCE. Converted to LAS by Log Studio 4.76 : GeoProvider

~Well
STRT.         1666.0 : Start depth
STOP.         1711.3 : Stop depth
STEP.              1 : Step
NULL.        -999.25 : No-value
COMP.                : Company
WELL. 6407/9-4       : Well
FLD .                : Field
LOC .                : Location
LATI.                : Latitude
LONG.                : Longitude
GDAT.                : Geodetic datum
CNTY.                : County
STAT.                : State
CTRY.                : Country
SRVC. GeoProvider AS : Service company
DATE.                : Date
API .                : API number
RUN .                : Run number

~Parameters
WellboreName.  : Wellbore name
RigName     .  : Rig name
StartDate   .  : Start date

~Curves
DEPTH.m            .  : null {F}Depth mMD
Hole_ID.-          .  : null {S}Hole ID
GR.API             .  : null {F}Gamma Ray
Lithology1.-       .  : null {S}Lithology 1
Lithology2.-       .  : null {S}Lithology 2
Lithology3.-       .  : null {S}Lithology 3
Lithology1.%       .  : null {F}Lithology 1 percentage
Lithology2.%       .  : null {F}Lithology 2 percentage
Lithology3.%       .  : null {F}Lithology 3 percentage
Grain_size_Top.-   .  : null {S}Grain size at the top 
Grain_size_Base.-  .  : null {S}Grain size at the bottom
Sub_Environment.-  .  : null {S}Sub Environment
Gross_Environment.-.  : null {S}Gross Environment

~Ascii
# ...
1669.8 "6407_9-4" 72.15000 "Sandstone" "Limestone" -999.25  90.0000 10.00000 0.0 "f/m"     "f/m"     -999.25                                                         "Stacked_upper_shoreface/proximal_delta_front"
1669.9 "6407_9-4" 71.73000 "Sandstone" "Limestone" -999.25  90.0000 10.00000 0.0 "f/m"     "f/m"     -999.25                                                         "Stacked_upper_shoreface/proximal_delta_front"
1670.0 "6407_9-4" 71.32000 "Sandstone" "Limestone" -999.25  90.0000 10.00000 0.0 "f/m"     "f/m"     -999.25                                                         "Stacked_upper_shoreface/proximal_delta_front"
1670.1 "6407_9-4" 70.90000 "Sandstone" "Limestone" -999.25  90.0000 10.00000 0.0 "f/m"     "f/m"     -999.25                                                         "Stacked_upper_shoreface/proximal_delta_front"
1670.2 "6407_9-4" 70.48000 "Sandstone" "Limestone" -999.25  90.0000 10.00000 0.0 "f/m"     "f/m"     -999.25                                                         "Stacked_upper_shoreface/proximal_delta_front"
1670.3 "6407_9-4" 70.07000 "Sandstone" "Limestone" -999.25  90.0000 10.00000 0.0 "f/m"     "f/m"     -999.25                                                         "Stacked_upper_shoreface/proximal_delta_front"
1670.4 "6407_9-4" 69.65000 "Sandstone" "Limestone" -999.25  90.0000 10.00000 0.0 "f/m"     "f/m"     -999.25                                                         "Stacked_upper_shoreface/proximal_delta_front"
1670.5 "6407_9-4" 69.23000 "Sandstone" "Limestone" -999.25  90.0000 10.00000 0.0 "f/m"     "f/m"     -999.25                                                         "Stacked_upper_shoreface/proximal_delta_front"
1670.6 "6407_9-4" 68.82000 "Sandstone" "Limestone" -999.25  90.0000 10.00000 0.0 "f/m"     "f/m"     -999.25                                                         "Stacked_upper_shoreface/proximal_delta_front"
1670.7 "6407_9-4" 69.27000 "Sandstone" "Limestone" -999.25  90.0000 10.00000 0.0 "f/m"     "f/m"     -999.25                                                         "Stacked_upper_shoreface/proximal_delta_front"
1670.8 "6407_9-4" 69.89000 "Sandstone" "Limestone" -999.25  90.0000 10.00000 0.0 "f/m"     "f/m"     -999.25                                                         "Stacked_upper_shoreface/proximal_delta_front"
1670.9 "6407_9-4" 70.51000 "Sandstone" "Limestone" -999.25  90.0000 10.00000 0.0 "f/m"     "f/m"     -999.25                                                         "Stacked_upper_shoreface/proximal_delta_front"
1671.0 "6407_9-4" 71.35000 "Sandstone" "Limestone" -999.25  90.0000 10.00000 0.0 "f/m"     "f/m"     -999.25                                                         "Stacked_upper_shoreface/proximal_delta_front"
1671.1 "6407_9-4" 72.50000 "Sandstone" "Limestone" -999.25  90.0000 10.00000 0.0 "f/m"     "f/m"     -999.25                                                         "Stacked_upper_shoreface/proximal_delta_front"
1671.2 "6407_9-4" 73.64000 "Sandstone" "Limestone" -999.25  90.0000 10.00000 0.0 "f/m"     "f/m"     -999.25                                                         "Stacked_upper_shoreface/proximal_delta_front"
1671.3 "6407_9-4" 73.89000 -999.25   -999.25   -999.25 100.0000      0.0 0.0 -999.25   -999.25   -999.25                                                         "Stacked_upper_shoreface/proximal_delta_front"
1671.4 "6407_9-4" 72.67000 -999.25   -999.25   -999.25 100.0000      0.0 0.0 -999.25   -999.25   -999.25                                                         "Stacked_upper_shoreface/proximal_delta_front"
1671.5 "6407_9-4" 71.44000 -999.25   -999.25   -999.25 100.0000      0.0 0.0 -999.25   -999.25   -999.25                                                         "Stacked_upper_shoreface/proximal_delta_front"
1671.6 "6407_9-4" 70.21000 -999.25   -999.25   -999.25 100.0000      0.0 0.0 -999.25   -999.25   -999.25                                                         "Stacked_upper_shoreface/proximal_delta_front"
1671.7 "6407_9-4" 68.98000 -999.25   -999.25   -999.25 100.0000      0.0 0.0 -999.25   -999.25   -999.25                                                         "Stacked_upper_shoreface/proximal_delta_front"
1671.8 "6407_9-4" 67.75000 -999.25   -999.25   -999.25 100.0000      0.0 0.0 -999.25   -999.25   -999.25                                                         "Stacked_upper_shoreface/proximal_delta_front"
1671.9 "6407_9-4" 66.52000 -999.25   -999.25   -999.25 100.0000      0.0 0.0 -999.25   -999.25   -999.25                                                         "Stacked_upper_shoreface/proximal_delta_front"
1672.0 "6407_9-4" 64.01000 -999.25   -999.25   -999.25 100.0000      0.0 0.0 -999.25   -999.25   -999.25                                                         "Stacked_upper_shoreface/proximal_delta_front"
1672.1 "6407_9-4" 61.03000 -999.25   -999.25   -999.25 100.0000      0.0 0.0 -999.25   -999.25   -999.25                                                         "Stacked_upper_shoreface/proximal_delta_front"
1672.2 "6407_9-4" 60.59000 -999.25   -999.25   -999.25 100.0000      0.0 0.0 -999.25   -999.25   -999.25                                                         "Stacked_upper_shoreface/proximal_delta_front"
1672.3 "6407_9-4" 60.15000 -999.25   -999.25   -999.25 100.0000      0.0 0.0 -999.25   -999.25   -999.25                                                         "Stacked_upper_shoreface/proximal_delta_front"
1672.4 "6407_9-4" 59.71000 -999.25   -999.25   -999.25 100.0000      0.0 0.0 -999.25   -999.25   -999.25                                                         "Stacked_upper_shoreface/proximal_delta_front"
1672.5 "6407_9-4" 58.98000 -999.25   -999.25   -999.25 100.0000      0.0 0.0 -999.25   -999.25   -999.25                                                         "Stacked_upper_shoreface/proximal_delta_front"
1672.6 "6407_9-4" 57.13000 -999.25   -999.25   -999.25 100.0000      0.0 0.0 -999.25   -999.25   -999.25                                                         "Stacked_upper_shoreface/proximal_delta_front"
1672.7 "6407_9-4" 55.27000 -999.25   -999.25   -999.25 100.0000      0.0 0.0 -999.25   -999.25   -999.25                                                         "Stacked_upper_shoreface/proximal_delta_front"
1672.8 "6407_9-4" 54.52000 -999.25   -999.25   -999.25 100.0000      0.0 0.0 -999.25   -999.25   -999.25                                                         "Stacked_upper_shoreface/proximal_delta_front"
1672.9 "6407_9-4" 55.82000 -999.25   -999.25   -999.25 100.0000      0.0 0.0 -999.25   -999.25   -999.25                                                         "Stacked_upper_shoreface/proximal_delta_front"
1673.0 "6407_9-4" 57.12000 -999.25   -999.25   -999.25 100.0000      0.0 0.0 -999.25   -999.25   "Stacked_upper_shoreface_sequenses"                             "Stacked_upper_shoreface/proximal_delta_front"
1673.1 "6407_9-4" 58.42000 "Limestone" -999.25   -999.25 100.0000      0.0 0.0 "clay/silt" "clay/silt" "Stacked_upper_shoreface_sequenses"                             "Stacked_upper_shoreface/proximal_delta_front"
1673.2 "6407_9-4" 59.07000 "Limestone" -999.25   -999.25 100.0000      0.0 0.0 "clay/silt" "clay/silt" "Stacked_upper_shoreface_sequenses"                             "Stacked_upper_shoreface/proximal_delta_front"
1673.3 "6407_9-4" 59.50000 "Limestone" -999.25   -999.25 100.0000      0.0 0.0 "clay/silt" "clay/silt" "Stacked_upper_shoreface_sequenses"                             "Stacked_upper_shoreface/proximal_delta_front"
1673.4 "6407_9-4" 59.35000 "Limestone" -999.25   -999.25 100.0000      0.0 0.0 "clay/silt" "clay/silt" "Stacked_upper_shoreface_sequenses"                             "Stacked_upper_shoreface/proximal_delta_front"
1673.5 "6407_9-4" 57.58000 "Limestone" -999.25   -999.25 100.0000      0.0 0.0 "clay/silt" "clay/silt" "Stacked_upper_shoreface_sequenses"                             "Stacked_upper_shoreface/proximal_delta_front"
1673.6 "6407_9-4" 56.99000 "Limestone" -999.25   -999.25 100.0000      0.0 0.0 "clay/silt" "clay/silt" "Stacked_upper_shoreface_sequenses"                             "Stacked_upper_shoreface/proximal_delta_front"
