~Version
VERS  .                                 3.0 : CWLS LAS ASCII Standard - Version 3.0
WRAP  . NO                                  : One line per depth step
DLM   . SPACE                               : Column data section delimiter
SOURCE. Converted to LAS by Log Studio 4.76 : GeoProvider

~Well
STRT.         1666.0 : Start depth
STOP.         1711.3 : Stop depth
STEP.              1 : Step
NULL.        -999.25 : No-value
COMP.                : Company
WELL. 6407/9-4       : Well
FLD .                : Field
LOC .                : Location
LATI.                : Latitude
LONG.                : Longitude
GDAT.                : Geodetic datum
CNTY.                : County
STAT.                : State
CTRY.                : Country
SRVC. GeoProvider AS : Service company
DATE.                : Date
API .                : API number
RUN .                : Run number

~Parameters
WellboreName.  : Wellbore name
RigName     .  : Rig name
StartDate   .  : Start date

~Curves
DEPTH.m            .  : null {F}Depth mMD
Hole_ID.-          .  : null {S}Hole ID
GR.API             .  : null {F}Gamma Ray
Lithology1.-       .  : null {S}Lithology 1
Lithology2.-       .  : null {S}Lithology 2
Lithology3.-       .  : null {S}Lithology 3
Lithology1.%       .  : null {F}Lithology 1 percentage
Lithology2.%       .  : null {F}Lithology 2 percentage
Lithology3.%       .  : null {F}Lithology 3 percentage
Grain_size_Top.-   .  : null {S}Grain size at the top 
Grain_size_Base.-  .  : null {S}Grain size at the bottom
Sub_Environment.-  .  : null {S}Sub Environment
Gross_Environment.-.  : null {S}Gross Environment

~Ascii
# ...
1692.8 "6407_9-4" 58.31000 "Sandstone" "Limestone" -999.25  80.0000 20.00000 0.0 "silt/vf" "m/c"     "Coarsening_upwards_prograding_shoreline_sequenses_(Delta_front)" "Prograding_proximal_delta_front_(fan_delta)"
1692.9 "6407_9-4" 57.93000 "Sandstone" "Limestone" -999.25  80.0000 20.00000 0.0 "silt/vf" "m/c"     "Coarsening_upwards_prograding_shoreline_sequenses_(Delta_front)" "Prograding_proximal_delta_front_(fan_delta)"
1693.0 "6407_9-4" 59.15000 "Sandstone" "Limestone" -999.25  80.0000 20.00000 0.0 "silt/vf" "m/c"     "Coarsening_upwards_prograding_shoreline_sequenses_(Delta_front)" "Prograding_proximal_delta_front_(fan_delta)"
1693.1 "6407_9-4" 60.38000 "Sandstone" "Limestone" -999.25  80.0000 20.00000 0.0 "silt/vf" "m/c"     "Coarsening_upwards_prograding_shoreline_sequenses_(Delta_front)" "Prograding_proximal_delta_front_(fan_delta)"
1693.2 "6407_9-4" 66.98000 "Sandstone" "Limestone" -999.25  80.0000 20.00000 0.0 "silt/vf" "m/c"     "Coarsening_upwards_prograding_shoreline_sequenses_(Delta_front)" "Prograding_proximal_delta_front_(fan_delta)"
1693.3 "6407_9-4" 73.07000 "Sandstone" "Limestone" -999.25  80.0000 20.00000 0.0 "silt/vf" "m/c"     "Coarsening_upwards_prograding_shoreline_sequenses_(Delta_front)" "Prograding_proximal_delta_front_(fan_delta)"
1693.4 "6407_9-4" 78.46000 "Sandstone" "Limestone" -999.25  80.0000 20.00000 0.0 "silt/vf" "m/c"     "Coarsening_upwards_prograding_shoreline_sequenses_(Delta_front)" "Prograding_proximal_delta_front_(fan_delta)"
1693.5 "6407_9-4" 81.74000 "Sandstone" "Limestone" -999.25  80.0000 20.00000 0.0 "silt/vf" "m/c"     "Coarsening_upwards_prograding_shoreline_sequenses_(Delta_front)" "Prograding_proximal_delta_front_(fan_delta)"
1693.6 "6407_9-4" 81.49000 "Sandstone" "Limestone" -999.25  80.0000 20.00000 0.0 "silt/vf" "m/c"     "Coarsening_upwards_prograding_shoreline_sequenses_(Delta_front)" "Prograding_proximal_delta_front_(fan_delta)"
1693.7 "6407_9-4" 80.59000 "Sandstone" "Limestone" -999.25  80.0000 20.00000 0.0 "silt/vf" "m/c"     "Coarsening_upwards_prograding_shoreline_sequenses_(Delta_front)" "Prograding_proximal_delta_front_(fan_delta)"
1693.8 "6407_9-4" 79.17000 "Sandstone" "Limestone" -999.25  80.0000 20.00000 0.0 "silt/vf" "m/c"     "Coarsening_upwards_prograding_shoreline_sequenses_(Delta_front)" "Prograding_proximal_delta_front_(fan_delta)"
1693.9 "6407_9-4" 77.74000 "Sandstone" "Limestone" -999.25  80.0000 20.00000 0.0 "silt/vf" "m/c"     "Coarsening_upwards_prograding_shoreline_sequenses_(Delta_front)" "Prograding_proximal_delta_front_(fan_delta)"
1694.0 "6407_9-4" 76.32000 "Sandstone" "Limestone" -999.25  80.0000 20.00000 0.0 "silt/vf" "m/c"     "Coarsening_upwards_prograding_shoreline_sequenses_(Delta_front)" "Prograding_proximal_delta_front_(fan_delta)"
1694.1 "6407_9-4" 75.17000 "Sandstone" "Limestone" -999.25  80.0000 20.00000 0.0 "silt/vf" "m/c"     "Coarsening_upwards_prograding_shoreline_sequenses_(Delta_front)" "Prograding_proximal_delta_front_(fan_delta)"
1694.2 "6407_9-4" 74.06000 "Sandstone" "Limestone" -999.25  80.0000 20.00000 0.0 "silt/vf" "m/c"     "Coarsening_upwards_prograding_shoreline_sequenses_(Delta_front)" "Prograding_proximal_delta_front_(fan_delta)"
1694.3 "6407_9-4" 73.45000 "Sandstone" "Limestone" -999.25  80.0000 20.00000 0.0 "silt/vf" "m/c"     "Coarsening_upwards_prograding_shoreline_sequenses_(Delta_front)" "Prograding_proximal_delta_front_(fan_delta)"
1694.4 "6407_9-4" 72.85000 "Sandstone" "Limestone" -999.25  80.0000 20.00000 0.0 "silt/vf" "m/c"     "Coarsening_upwards_prograding_shoreline_sequenses_(Delta_front)" "Prograding_proximal_delta_front_(fan_delta)"
1694.5 "6407_9-4" 72.24000 "Sandstone" "Limestone" -999.25  80.0000 20.00000 0.0 "silt/vf" "m/c"     "Coarsening_upwards_prograding_shoreline_sequenses_(Delta_front)" "Prograding_proximal_delta_front_(fan_delta)"
1694.6 "6407_9-4" 71.64000 "Sandstone" "Limestone" -999.25  80.0000 20.00000 0.0 "silt/vf" "m/c"     "Coarsening_upwards_prograding_shoreline_sequenses_(Delta_front)" "Prograding_proximal_delta_front_(fan_delta)"
1694.7 "6407_9-4" 71.04000 "Sandstone" "Limestone" -999.25  80.0000 20.00000 0.0 "silt/vf" "m/c"     "Coarsening_upwards_prograding_shoreline_sequenses_(Delta_front)" "Prograding_proximal_delta_front_(fan_delta)"
1694.8 "6407_9-4" 69.51000 "Sandstone" "Limestone" -999.25  80.0000 20.00000 0.0 "silt/vf" "m/c"     "Coarsening_upwards_prograding_shoreline_sequenses_(Delta_front)" "Prograding_proximal_delta_front_(fan_delta)"
1694.9 "6407_9-4" 67.84000 "Sandstone" "Limestone" -999.25  80.0000 20.00000 0.0 "silt/vf" "m/c"     "Coarsening_upwards_prograding_shoreline_sequenses_(Delta_front)" "Prograding_proximal_delta_front_(fan_delta)"
1695.0 "6407_9-4" 67.84000 "Sandstone" "Limestone" -999.25  80.0000 20.00000 0.0 "silt/vf" "m/c"     "Coarsening_upwards_prograding_shoreline_sequenses_(Delta_front)" "Prograding_proximal_delta_front_(fan_delta)"
1695.1 "6407_9-4" 68.45000 "Sandstone" "Limestone" -999.25  80.0000 20.00000 0.0 "silt/vf" "m/c"     "Coarsening_upwards_prograding_shoreline_sequenses_(Delta_front)" "Prograding_proximal_delta_front_(fan_delta)"
1695.2 "6407_9-4" 69.82000 "Sandstone" "Limestone" -999.25  80.0000 20.00000 0.0 "silt/vf" "m/c"     "Coarsening_upwards_prograding_shoreline_sequenses_(Delta_front)" "Prograding_proximal_delta_front_(fan_delta)"
1695.3 "6407_9-4" 71.20000 "Sandstone" "Limestone" -999.25  80.0000 20.00000 0.0 "silt/vf" "m/c"     "Coarsening_upwards_prograding_shoreline_sequenses_(Delta_front)" "Prograding_proximal_delta_front_(fan_delta)"
1695.4 "6407_9-4" 72.57000 "Sandstone" "Limestone" -999.25  80.0000 20.00000 0.0 "silt/vf" "m/c"     "Coarsening_upwards_prograding_shoreline_sequenses_(Delta_front)" "Prograding_proximal_delta_front_(fan_delta)"
1695.5 "6407_9-4" 74.62000 "Sandstone" "Limestone" -999.25  80.0000 20.00000 0.0 "silt/vf" "m/c"     "Coarsening_upwards_prograding_shoreline_sequenses_(Delta_front)" "Prograding_proximal_delta_front_(fan_delta)"
1695.6 "6407_9-4" 78.67000 -999.25   -999.25   -999.25 100.0000      0.0 0.0 -999.25   -999.25   "Alternating_lower_and_middle_shoreface_Small_scale_cyclicity"  "Prograding_proximal_delta_front_(fan_delta)"
1695.7 "6407_9-4" 82.72000 "Sandstone" -999.25   -999.25 100.0000      0.0 0.0 "silt/vf" "silt/vf" "Alternating_lower_and_middle_shoreface_Small_scale_cyclicity"  "Prograding_proximal_delta_front_(fan_delta)"
1695.8 "6407_9-4" 83.86000 "Sandstone" -999.25   -999.25 100.0000      0.0 0.0 "silt/vf" "silt/vf" "Alternating_lower_and_middle_shoreface_Small_scale_cyclicity"  "Prograding_proximal_delta_front_(fan_delta)"
1695.9 "6407_9-4" 84.92000 "Sandstone" -999.25   -999.25 100.0000      0.0 0.0 "silt/vf" "silt/vf" "Alternating_lower_and_middle_shoreface_Small_scale_cyclicity"  "Prograding_proximal_delta_front_(fan_delta)"
1696.0 "6407_9-4" 85.97000 "Sandstone" -999.25   -999.25 100.0000      0.0 0.0 "silt/vf" "silt/vf" "Alternating_lower_and_middle_shoreface_Small_scale_cyclicity"  "Prograding_proximal_delta_front_(fan_delta)"
1696.1 "6407_9-4" 87.03000 "Sandstone" -999.25   -999.25 100.0000      0.0 0.0 "silt/vf" "silt/vf" "Alternating_lower_and_middle_shoreface_Small_scale_cyclicity"  "Prograding_proximal_delta_front_(fan_delta)"
1696.2 "6407_9-4" 88.08000 "Sandstone" -999.25   -999.25 100.0000      0.0 0.0 "silt/vf" "silt/vf" "Alternating_lower_and_middle_shoreface_Small_scale_cyclicity"  "Prograding_proximal_delta_front_(fan_delta)"
1696.3 "6407_9-4" 89.14000 "Sandstone" -999.25   -999.25 100.0000      0.0 0.0 "silt/vf" "silt/vf" "Alternating_lower_and_middle_shoreface_Small_scale_cyclicity"  "Prograding_proximal_delta_front_(fan_delta)"
1696.4 "6407_9-4" 90.19000 "Sandstone" -999.25   -999.25 100.0000      0.0 0.0 "silt/vf" "silt/vf" "Alternating_lower_and_middle_shoreface_Small_scale_cyclicity"  "Prograding_proximal_delta_front_(fan_delta)"
1696.5 "6407_9-4" 90.94000 "Sandstone" -999.25   -999.25 100.0000      0.0 0.0 "silt/vf" "silt/vf" "Alternating_lower_and_middle_shoreface_Small_scale_cyclicity"  "Prograding_proximal_delta_front_(fan_delta)"
