~Version
VERS  .                                 3.0 : CWLS LAS ASCII Standard - Version 3.0
WRAP  . NO                                  : One line per depth step
DLM   . SPACE                               : Column data section delimiter
SOURCE. Converted to LAS by Log Studio 4.76 : GeoProvider

~Well
STRT.         1666.0 : Start depth
STOP.         1711.3 : Stop depth
STEP.              1 : Step
NULL.        -999.25 : No-value
COMP.                : Company
WELL. 6407/9-4       : Well
FLD .                : Field
LOC .                : Location
LATI.                : Latitude
LONG.                : Longitude
GDAT.                : Geodetic datum
CNTY.                : County
STAT.                : State
CTRY.                : Country
SRVC. GeoProvider AS : Service company
DATE.                : Date
API .                : API number
RUN .                : Run number

~Parameters
WellboreName.  : Wellbore name
RigName     .  : Rig name
StartDate   .  : Start date

~Curves
DEPTH.m            .  : null {F}Depth mMD
Hole_ID.-          .  : null {S}Hole ID
GR.API             .  : null {F}Gamma Ray
Lithology1.-       .  : null {S}Lithology 1
Lithology2.-       .  : null {S}Lithology 2
Lithology3.-       .  : null {S}Lithology 3
Lithology1.%       .  : null {F}Lithology 1 percentage
Lithology2.%       .  : null {F}Lithology 2 percentage
Lithology3.%       .  : null {F}Lithology 3 percentage
Grain_size_Top.-   .  : null {S}Grain size at the top 
Grain_size_Base.-  .  : null {S}Grain size at the bottom
Sub_Environment.-  .  : null {S}Sub Environment
Gross_Environment.-.  : null {S}Gross Environment

~Ascii
# ...
1677.6 "6407_9-4" 87.77000 "Sandstone" "Limestone" -999.25  83.0000 17.00000 0.0 "f/m"     "silt"    "Stacked_upper_shoreface_sequenses"                             "Stacked_upper_shoreface/proximal_delta_front"
1677.7 "6407_9-4" 86.56000 "Sandstone" "Limestone" -999.25  83.0000 17.00000 0.0 "f/m"     "silt"    "Stacked_upper_shoreface_sequenses"                             "Stacked_upper_shoreface/proximal_delta_front"
1677.8 "6407_9-4" 85.35000 "Sandstone" "Limestone" -999.25  83.0000 17.00000 0.0 "f/m"     "silt"    "Stacked_upper_shoreface_sequenses"                             "Stacked_upper_shoreface/proximal_delta_front"
1677.9 "6407_9-4" 84.14000 "Sandstone" "Limestone" -999.25  83.0000 17.00000 0.0 "f/m"     "silt"    "Stacked_upper_shoreface_sequenses"                             "Stacked_upper_shoreface/proximal_delta_front"
1678.0 "6407_9-4" 82.96000 "Sandstone" "Limestone" -999.25  83.0000 17.00000 0.0 "f/m"     "silt"    "Stacked_upper_shoreface_sequenses"                             "Stacked_upper_shoreface/proximal_delta_front"
1678.1 "6407_9-4" 82.36000 "Sandstone" "Limestone" -999.25  83.0000 17.00000 0.0 "f/m"     "silt"    "Stacked_upper_shoreface_sequenses"                             "Stacked_upper_shoreface/proximal_delta_front"
1678.2 "6407_9-4" 81.77000 "Sandstone" "Limestone" -999.25  83.0000 17.00000 0.0 "f/m"     "silt"    "Stacked_upper_shoreface_sequenses"                             "Stacked_upper_shoreface/proximal_delta_front"
1678.3 "6407_9-4" 81.17000 "Sandstone" "Limestone" -999.25  83.0000 17.00000 0.0 "f/m"     "silt"    "Stacked_upper_shoreface_sequenses"                             "Stacked_upper_shoreface/proximal_delta_front"
1678.4 "6407_9-4" 80.57000 "Sandstone" "Limestone" -999.25  83.0000 17.00000 0.0 "f/m"     "silt"    "Stacked_upper_shoreface_sequenses"                             "Stacked_upper_shoreface/proximal_delta_front"
1678.5 "6407_9-4" 80.24000 "Sandstone" "Limestone" -999.25  83.0000 17.00000 0.0 "f/m"     "silt"    "Stacked_upper_shoreface_sequenses"                             "Stacked_upper_shoreface/proximal_delta_front"
1678.6 "6407_9-4" 80.19000 "Sandstone" "Limestone" -999.25  83.0000 17.00000 0.0 "f/m"     "silt"    "Stacked_upper_shoreface_sequenses"                             "Stacked_upper_shoreface/proximal_delta_front"
1678.7 "6407_9-4" 80.14000 "Sandstone" "Limestone" -999.25  83.0000 17.00000 0.0 "f/m"     "silt"    "Stacked_upper_shoreface_sequenses"                             "Stacked_upper_shoreface/proximal_delta_front"
1678.8 "6407_9-4" 81.16000 "Sandstone" "Limestone" -999.25  83.0000 17.00000 0.0 "f/m"     "silt"    "Stacked_upper_shoreface_sequenses"                             "Stacked_upper_shoreface/proximal_delta_front"
1678.9 "6407_9-4" 83.55000 "Sandstone" "Limestone" -999.25  83.0000 17.00000 0.0 "f/m"     "silt"    "Stacked_upper_shoreface_sequenses"                             "Stacked_upper_shoreface/proximal_delta_front"
1679.0 "6407_9-4" 84.50000 "Sandstone" "Limestone" -999.25  83.0000 17.00000 0.0 "f/m"     "silt"    "Stacked_upper_shoreface_sequenses"                             "Stacked_upper_shoreface/proximal_delta_front"
1679.1 "6407_9-4" 84.21000 "Sandstone" "Limestone" -999.25  83.0000 17.00000 0.0 "f/m"     "silt"    "Stacked_upper_shoreface_sequenses"                             "Stacked_upper_shoreface/proximal_delta_front"
1679.2 "6407_9-4" 83.36000 "Sandstone" "Limestone" -999.25  83.0000 17.00000 0.0 "f/m"     "silt"    "Stacked_upper_shoreface_sequenses"                             "Stacked_upper_shoreface/proximal_delta_front"
1679.3 "6407_9-4" 81.81000 "Sandstone" "Limestone" -999.25  83.0000 17.00000 0.0 "f/m"     "silt"    "Stacked_upper_shoreface_sequenses"                             "Stacked_upper_shoreface/proximal_delta_front"
1679.4 "6407_9-4" 80.25000 "Sandstone" "Limestone" -999.25  83.0000 17.00000 0.0 "f/m"     "silt"    "Stacked_upper_shoreface_sequenses"                             "Stacked_upper_shoreface/proximal_delta_front"
1679.5 "6407_9-4" 78.70000 "Sandstone" "Limestone" -999.25  83.0000 17.00000 0.0 "f/m"     "silt"    "Stacked_upper_shoreface_sequenses"                             "Stacked_upper_shoreface/proximal_delta_front"
1679.6 "6407_9-4" 77.15000 "Sandstone" "Limestone" -999.25  83.0000 17.00000 0.0 "f/m"     "silt"    "Stacked_upper_shoreface_sequenses"                             "Stacked_upper_shoreface/proximal_delta_front"
1679.7 "6407_9-4" 75.60000 "Sandstone" "Limestone" -999.25  83.0000 17.00000 0.0 "f/m"     "silt"    "Stacked_upper_shoreface_sequenses"                             "Stacked_upper_shoreface/proximal_delta_front"
1679.8 "6407_9-4" 74.04000 "Sandstone" "Limestone" -999.25  83.0000 17.00000 0.0 "f/m"     "silt"    "Stacked_upper_shoreface_sequenses"                             "Stacked_upper_shoreface/proximal_delta_front"
1679.9 "6407_9-4" 72.49000 "Sandstone" "Limestone" -999.25  83.0000 17.00000 0.0 "f/m"     "silt"    "Stacked_upper_shoreface_sequenses"                             "Stacked_upper_shoreface/proximal_delta_front"
1680.0 "6407_9-4" 71.44000 "Sandstone" "Limestone" -999.25  83.0000 17.00000 0.0 "f/m"     "silt"    "Stacked_upper_shoreface_sequenses"                             "Stacked_upper_shoreface/proximal_delta_front"
1680.1 "6407_9-4" 70.48000 "Sandstone" "Limestone" -999.25  83.0000 17.00000 0.0 "f/m"     "silt"    "Stacked_upper_shoreface_sequenses"                             "Stacked_upper_shoreface/proximal_delta_front"
1680.2 "6407_9-4" 69.53000 "Sandstone" "Limestone" -999.25  83.0000 17.00000 0.0 "f/m"     "silt"    "Stacked_upper_shoreface_sequenses"                             "Stacked_upper_shoreface/proximal_delta_front"
1680.3 "6407_9-4" 68.57000 "Sandstone" "Limestone" -999.25  83.0000 17.00000 0.0 "f/m"     "silt"    "Stacked_upper_shoreface_sequenses"                             "Stacked_upper_shoreface/proximal_delta_front"
1680.4 "6407_9-4" 67.66000 "Sandstone" "Limestone" -999.25  83.0000 17.00000 0.0 "f/m"     "silt"    "Stacked_upper_shoreface_sequenses"                             "Stacked_upper_shoreface/proximal_delta_front"
1680.5 "6407_9-4" 67.32000 "Sandstone" "Limestone" -999.25  83.0000 17.00000 0.0 "f/m"     "silt"    "Stacked_upper_shoreface_sequenses"                             "Stacked_upper_shoreface/proximal_delta_front"
1680.6 "6407_9-4" 66.97000 "Sandstone" "Limestone" -999.25  83.0000 17.00000 0.0 "f/m"     "silt"    "Stacked_upper_shoreface_sequenses"                             "Stacked_upper_shoreface/proximal_delta_front"
1680.7 "6407_9-4" 66.66000 "Sandstone" "Limestone" -999.25  83.0000 17.00000 0.0 "f/m"     "silt"    "Stacked_upper_shoreface_sequenses"                             "Stacked_upper_shoreface/proximal_delta_front"
1680.8 "6407_9-4" 67.40000 "Sandstone" "Limestone" -999.25  83.0000 17.00000 0.0 "f/m"     "silt"    "Stacked_upper_shoreface_sequenses"                             "Stacked_upper_shoreface/proximal_delta_front"
1680.9 "6407_9-4" 68.14000 "Sandstone" "Limestone" -999.25  83.0000 17.00000 0.0 "f/m"     "silt"    "Stacked_upper_shoreface_sequenses"                             "Stacked_upper_shoreface/proximal_delta_front"
1681.0 "6407_9-4" 68.12000 "Sandstone" "Limestone" -999.25  83.0000 17.00000 0.0 "f/m"     "silt"    "Stacked_upper_shoreface_sequenses"                             "Stacked_upper_shoreface/proximal_delta_front"
1681.1 "6407_9-4" 66.84000 "Sandstone" "Limestone" -999.25  83.0000 17.00000 0.0 "f/m"     "silt"    "Stacked_upper_shoreface_sequenses"                             "Stacked_upper_shoreface/proximal_delta_front"
1681.2 "6407_9-4" 65.55000 "Sandstone" "Limestone" -999.25  83.0000 17.00000 0.0 "f/m"     "silt"    "Stacked_upper_shoreface_sequenses"                             "Stacked_upper_shoreface/proximal_delta_front"
1681.3 "6407_9-4" 64.27000 "Sandstone" "Limestone" -999.25  83.0000 17.00000 0.0 "f/m"     "silt"    "Stacked_upper_shoreface_sequenses"                             "Stacked_upper_shoreface/proximal_delta_front"
