~Version
VERS  .                                 3.0 : CWLS LAS ASCII Standard - Version 3.0
WRAP  . NO                                  : One line per depth step
DLM   . SPACE                               : Column data section delimiter
SOURCE. Converted to LAS by Log Studio 4.76 : GeoProvider

~Well
STRT.         1666.0 : Start depth
STOP.         1711.3 : Stop depth
STEP.              1 : Step
NULL.        -999.25 : No-value
COMP.                : Company
WELL. 6407/9-4       : Well
FLD .                : Field
LOC .                : Location
LATI.                : Latitude
LONG.                : Longitude
GDAT.                : Geodetic datum
CNTY.                : County
STAT.                : State
CTRY.                : Country
SRVC. GeoProvider AS : Service company
DATE.                : Date
API .                : API number
RUN .                : Run number

~Parameters
WellboreName.  : Wellbore name
RigName     .  : Rig name
StartDate   .  : Start date

~Curves
DEPTH.m            .  : null {F}Depth mMD
Hole_ID.-          .  : null {S}Hole ID
GR.API             .  : null {F}Gamma Ray
Lithology1.-       .  : null {S}Lithology 1
Lithology2.-       .  : null {S}Lithology 2
Lithology3.-       .  : null {S}Lithology 3
Lithology1.%       .  : null {F}Lithology 1 percentage
Lithology2.%       .  : null {F}Lithology 2 percentage
Lithology3.%       .  : null {F}Lithology 3 percentage
Grain_size_Top.-   .  : null {S}Grain size at the top 
Grain_size_Base.-  .  : null {S}Grain size at the bottom
Sub_Environment.-  .  : null {S}Sub Environment
Gross_Environment.-.  : null {S}Gross Environment

~Ascii
# ...
1704.4 "6407_9-4" 58.38000 "Sandstone" -999.25   -999.25 100.0000      0.0 0.0 "m/c"     "c/vc"    "Proximal_mouth_Upper_shoreface"                                "Proximal_delta_front_(fan_delta)"          
1704.5 "6407_9-4" 57.72000 "Sandstone" -999.25   -999.25 100.0000      0.0 0.0 "m/c"     "c/vc"    "Proximal_mouth_Upper_shoreface"                                "Proximal_delta_front_(fan_delta)"          
1704.6 "6407_9-4" 57.95000 "Sandstone" -999.25   -999.25 100.0000      0.0 0.0 "m/c"     "c/vc"    "Proximal_mouth_Upper_shoreface"                                "Proximal_delta_front_(fan_delta)"          
1704.7 "6407_9-4" 58.18000 "Sandstone" -999.25   -999.25 100.0000      0.0 0.0 "m/c"     "c/vc"    "Proximal_mouth_Upper_shoreface"                                "Proximal_delta_front_(fan_delta)"          
1704.8 "6407_9-4" 58.42000 "Sandstone" -999.25   -999.25 100.0000      0.0 0.0 "m/c"     "c/vc"    "Proximal_mouth_Upper_shoreface"                                "Proximal_delta_front_(fan_delta)"          
1704.9 "6407_9-4" 58.65000 "Sandstone" -999.25   -999.25 100.0000      0.0 0.0 "m/c"     "c/vc"    "Proximal_mouth_Upper_shoreface"                                "Proximal_delta_front_(fan_delta)"          
1705.0 "6407_9-4" 58.96000 "Sandstone" -999.25   -999.25 100.0000      0.0 0.0 "m/c"     "c/vc"    "Proximal_mouth_Upper_shoreface"                                "Proximal_delta_front_(fan_delta)"          
1705.1 "6407_9-4" 59.35000 "Sandstone" -999.25   -999.25 100.0000      0.0 0.0 "m/c"     "c/vc"    "Proximal_mouth_Upper_shoreface"                                "Proximal_delta_front_(fan_delta)"          
1705.2 "6407_9-4" 59.73000 "Sandstone" -999.25   -999.25 100.0000      0.0 0.0 "m/c"     "c/vc"    "Proximal_mouth_Upper_shoreface"                                "Proximal_delta_front_(fan_delta)"          
1705.3 "6407_9-4" 60.11000 "Sandstone" -999.25   -999.25 100.0000      0.0 0.0 "m/c"     "c/vc"    "Proximal_mouth_Upper_shoreface"                                "Proximal_delta_front_(fan_delta)"          
1705.4 "6407_9-4" 60.50000 "Sandstone" -999.25   -999.25 100.0000      0.0 0.0 "m/c"     "c/vc"    "Proximal_mouth_Upper_shoreface"                                "Proximal_delta_front_(fan_delta)"          
1705.5 "6407_9-4" 60.88000 "Sandstone" -999.25   -999.25 100.0000      0.0 0.0 "m/c"     "c/vc"    "Proximal_mouth_Upper_shoreface"                                "Proximal_delta_front_(fan_delta)"          
1705.6 "6407_9-4" 61.28000 "Sandstone" -999.25   -999.25 100.0000      0.0 0.0 "m/c"     "c/vc"    "Proximal_mouth_Upper_shoreface"                                "Proximal_delta_front_(fan_delta)"          
1705.7 "6407_9-4" 61.68000 "Sandstone" -999.25   -999.25 100.0000      0.0 0.0 "m/c"     "c/vc"    "Proximal_mouth_Upper_shoreface"                                "Proximal_delta_front_(fan_delta)"          
1705.8 "6407_9-4" 62.08000 "Sandstone" -999.25   -999.25 100.0000      0.0 0.0 "m/c"     "c/vc"    "Proximal_mouth_Upper_shoreface"                                "Proximal_delta_front_(fan_delta)"          
1705.9 "6407_9-4" 62.48000 "Sandstone" -999.25   -999.25 100.0000      0.0 0.0 "m/c"     "c/vc"    "Proximal_mouth_Upper_shoreface"                                "Proximal_delta_front_(fan_delta)"          
1706.0 "6407_9-4" 66.53000 "Sandstone" -999.25   -999.25 100.0000      0.0 0.0 "m/c"     "c/vc"    "Proximal_mouth_Upper_shoreface"                                "Proximal_delta_front_(fan_delta)"          
1706.1 "6407_9-4" 68.64000 "Sandstone" -999.25   -999.25 100.0000      0.0 0.0 "m/c"     "c/vc"    "Proximal_mouth_Upper_shoreface"                                "Proximal_delta_front_(fan_delta)"          
1706.2 "6407_9-4" 68.11000 "Sandstone" -999.25   -999.25 100.0000      0.0 0.0 "m/c"     "c/vc"    "Proximal_mouth_Upper_shoreface"                                "Proximal_delta_front_(fan_delta)"          
1706.3 "6407_9-4" 67.40000 "Sandstone" -999.25   -999.25 100.0000      0.0 0.0 "m/c"     "c/vc"    "Proximal_mouth_Upper_shoreface"                                "Proximal_delta_front_(fan_delta)"          
1706.4 "6407_9-4" 66.06000 "Sandstone" -999.25   -999.25 100.0000      0.0 0.0 "m/c"     "c/vc"    "Proximal_mouth_Upper_shoreface"                                "Proximal_delta_front_(fan_delta)"          
1706.5 "6407_9-4" 64.72000 "Sandstone" -999.25   -999.25 100.0000      0.0 0.0 "m/c"     "c/vc"    "Proximal_mouth_Upper_shoreface"                                "Proximal_delta_front_(fan_delta)"          
1706.6 "6407_9-4" 63.37000 "Sandstone" -999.25   -999.25 100.0000      0.0 0.0 "m/c"     "c/vc"    "Proximal_mouth_Upper_shoreface"                                "Proximal_delta_front_(fan_delta)"          
1706.7 "6407_9-4" 62.63000 "Sandstone" -999.25   -999.25 100.0000      0.0 0.0 "m/c"     "c/vc"    "Proximal_mouth_Upper_shoreface"                                "Proximal_delta_front_(fan_delta)"          
1706.8 "6407_9-4" 62.27000 "Sandstone" -999.25   -999.25 100.0000      0.0 0.0 "m/c"     "c/vc"    "Proximal_mouth_Upper_shoreface"                                "Proximal_delta_front_(fan_delta)"          
1706.9 "6407_9-4" 61.91000 "Sandstone" -999.25   -999.25 100.0000      0.0 0.0 "m/c"     "c/vc"    "Proximal_mouth_Upper_shoreface"                                "Proximal_delta_front_(fan_delta)"          
1707.0 "6407_9-4" 61.55000 "Sandstone" -999.25   -999.25 100.0000      0.0 0.0 "m/c"     "c/vc"    "Proximal_mouth_Upper_shoreface"                                "Proximal_delta_front_(fan_delta)"          
1707.1 "6407_9-4" 61.55000 "Sandstone" -999.25   -999.25 100.0000      0.0 0.0 "m/c"     "c/vc"    "Proximal_mouth_Upper_shoreface"                                "Proximal_delta_front_(fan_delta)"          
1707.2 "6407_9-4" 61.63000 "Sandstone" -999.25   -999.25 100.0000      0.0 0.0 "m/c"     "c/vc"    "Proximal_mouth_Upper_shoreface"                                "Proximal_delta_front_(fan_delta)"          
1707.3 "6407_9-4" 61.71000 "Sandstone" -999.25   -999.25 100.0000      0.0 0.0 "m/c"     "c/vc"    "Proximal_mouth_Upper_shoreface"                                "Proximal_delta_front_(fan_delta)"          
1707.4 "6407_9-4" 61.79000 "Sandstone" -999.25   -999.25 100.0000      0.0 0.0 "m/c"     "c/vc"    "Proximal_mouth_Upper_shoreface"                                "Proximal_delta_front_(fan_delta)"          
1707.5 "6407_9-4" 61.21000 "Sandstone" -999.25   -999.25 100.0000      0.0 0.0 "m/c"     "c/vc"    "Proximal_mouth_Upper_shoreface"                                "Proximal_delta_front_(fan_delta)"          
1707.6 "6407_9-4" 60.63000 "Sandstone" -999.25   -999.25 100.0000      0.0 0.0 "m/c"     "c/vc"    "Proximal_mouth_Upper_shoreface"                                "Proximal_delta_front_(fan_delta)"          
1707.7 "6407_9-4" 60.05000 "Sandstone" -999.25   -999.25 100.0000      0.0 0.0 "m/c"     "c/vc"    "Proximal_mouth_Upper_shoreface"                                "Proximal_delta_front_(fan_delta)"          
1707.8 "6407_9-4" 59.47000 "Sandstone" -999.25   -999.25 100.0000      0.0 0.0 "m/c"     "c/vc"    "Proximal_mouth_Upper_shoreface"                                "Proximal_delta_front_(fan_delta)"          
1707.9 "6407_9-4" 59.30000 "Sandstone" -999.25   -999.25 100.0000      0.0 0.0 "m/c"     "c/vc"    "Proximal_mouth_Upper_shoreface"                                "Proximal_delta_front_(fan_delta)"          
1708.0 "6407_9-4" 59.22000 "Sandstone" -999.25   -999.25 100.0000      0.0 0.0 "m/c"     "c/vc"    "Proximal_mouth_Upper_shoreface"                                "Proximal_delta_front_(fan_delta)"          
1708.1 "6407_9-4" 60.05000 "Sandstone" -999.25   -999.25 100.0000      0.0 0.0 "m/c"     "c/vc"    "Proximal_mouth_Upper_shoreface"                                "Proximal_delta_front_(fan_delta)"          
1708.2 "6407_9-4" 60.97000 "Sandstone" -999.25   -999.25 100.0000      0.0 0.0 "m/c"     "c/vc"    "Proximal_mouth_Upper_shoreface"                                "Proximal_delta_front_(fan_delta)"          
