~Version
VERS  .                                 3.0 : CWLS LAS ASCII Standard - Version 3.0
WRAP  . NO                                  : One line per depth step
DLM   . SPACE                               : Column data section delimiter
SOURCE. Converted to LAS by Log Studio 4.76 : GeoProvider

~Well
STRT.         1666.0 : Start depth
STOP.         1711.3 : Stop depth
STEP.              1 : Step
NULL.        -999.25 : No-value
COMP.                : Company
WELL. 6407/9-4       : Well
FLD .                : Field
LOC .                : Location
LATI.                : Latitude
LONG.                : Longitude
GDAT.                : Geodetic datum
CNTY.                : County
STAT.                : State
CTRY.                : Country
SRVC. GeoProvider AS : Service company
DATE.                : Date
API .                : API number
RUN .                : Run number

~Parameters
WellboreName.  : Wellbore name
RigName     .  : Rig name
StartDate   .  : Start date

~Curves
DEPTH.m            .  : null {F}Depth mMD
Hole_ID.-          .  : null {S}Hole ID
GR.API             .  : null {F}Gamma Ray
Lithology1.-       .  : null {S}Lithology 1
Lithology2.-       .  : null {S}Lithology 2
Lithology3.-       .  : null {S}Lithology 3
Lithology1.%       .  : null {F}Lithology 1 percentage
Lithology2.%       .  : null {F}Lithology 2 percentage
Lithology3.%       .  : null {F}Lithology 3 percentage
Grain_size_Top.-   .  : null {S}Grain size at the top 
Grain_size_Base.-  .  : null {S}Grain size at the bottom
Sub_Environment.-  .  : null {S}Sub Environment
Gross_Environment.-.  : null {S}Gross Environment

~Ascii
# ...
1708.3 "6407_9-4" 61.89000 "Sandstone" -999.25   -999.25 100.0000      0.0 0.0 "m/c"     "c/vc"    "Proximal_mouth_Upper_shoreface"                                "Proximal_delta_front_(fan_delta)"          
1708.4 "6407_9-4" 62.81000 "Sandstone" -999.25   -999.25 100.0000      0.0 0.0 "m/c"     "c/vc"    "Proximal_mouth_Upper_shoreface"                                "Proximal_delta_front_(fan_delta)"          
1708.5 "6407_9-4" 63.72000 "Sandstone" -999.25   -999.25 100.0000      0.0 0.0 "m/c"     "c/vc"    "Proximal_mouth_Upper_shoreface"                                "Proximal_delta_front_(fan_delta)"          
1708.6 "6407_9-4" 63.34000 "Sandstone" -999.25   -999.25 100.0000      0.0 0.0 "m/c"     "c/vc"    "Proximal_mouth_Upper_shoreface"                                "Proximal_delta_front_(fan_delta)"          
1708.7 "6407_9-4" 62.91000 "Sandstone" -999.25   -999.25 100.0000      0.0 0.0 "m/c"     "c/vc"    "Proximal_mouth_Upper_shoreface"                                "Proximal_delta_front_(fan_delta)"          
1708.8 "6407_9-4" 62.49000 "Sandstone" -999.25   -999.25 100.0000      0.0 0.0 "m/c"     "c/vc"    "Proximal_mouth_Upper_shoreface"                                "Proximal_delta_front_(fan_delta)"          
1708.9 "6407_9-4" 62.06000 "Sandstone" -999.25   -999.25 100.0000      0.0 0.0 "m/c"     "c/vc"    "Proximal_mouth_Upper_shoreface"                                "Proximal_delta_front_(fan_delta)"          
1709.0 "6407_9-4" 61.63000 "Sandstone" -999.25   -999.25 100.0000      0.0 0.0 "m/c"     "c/vc"    "Proximal_mouth_Upper_shoreface"                                "Proximal_delta_front_(fan_delta)"          
1709.1 "6407_9-4" 61.21000 "Sandstone" -999.25   -999.25 100.0000      0.0 0.0 "m/c"     "c/vc"    "Proximal_mouth_Upper_shoreface"                                "Proximal_delta_front_(fan_delta)"          
1709.2 "6407_9-4" 60.78000 "Sandstone" -999.25   -999.25 100.0000      0.0 0.0 "m/c"     "c/vc"    "Proximal_mouth_Upper_shoreface"                                "Proximal_delta_front_(fan_delta)"          
1709.3 "6407_9-4" 60.52000 "Sandstone" -999.25   -999.25 100.0000      0.0 0.0 "m/c"     "c/vc"    "Proximal_mouth_Upper_shoreface"                                "Proximal_delta_front_(fan_delta)"          
1709.4 "6407_9-4" 61.11000 "Sandstone" -999.25   -999.25 100.0000      0.0 0.0 "m/c"     "c/vc"    "Proximal_mouth_Upper_shoreface"                                "Proximal_delta_front_(fan_delta)"          
1709.5 "6407_9-4" 61.70000 "Sandstone" -999.25   -999.25 100.0000      0.0 0.0 "m/c"     "c/vc"    "Proximal_mouth_Upper_shoreface"                                "Proximal_delta_front_(fan_delta)"          
1709.6 "6407_9-4" 62.28000 "Sandstone" -999.25   -999.25 100.0000      0.0 0.0 "m/c"     "c/vc"    "Proximal_mouth_Upper_shoreface"                                "Proximal_delta_front_(fan_delta)"          
1709.7 "6407_9-4" 62.07000 "Sandstone" -999.25   -999.25 100.0000      0.0 0.0 "m/c"     "c/vc"    "Proximal_mouth_Upper_shoreface"                                "Proximal_delta_front_(fan_delta)"          
1709.8 "6407_9-4" 61.21000 "Sandstone" -999.25   -999.25 100.0000      0.0 0.0 "m/c"     "c/vc"    "Proximal_mouth_Upper_shoreface"                                "Proximal_delta_front_(fan_delta)"          
1709.9 "6407_9-4" 60.37000 "Sandstone" -999.25   -999.25 100.0000      0.0 0.0 "m/c"     "c/vc"    "Proximal_mouth_Upper_shoreface"                                "Proximal_delta_front_(fan_delta)"          
1710.0 "6407_9-4" 59.78000 "Sandstone" -999.25   -999.25 100.0000      0.0 0.0 "m/c"     "c/vc"    "Proximal_mouth_Upper_shoreface"                                "Proximal_delta_front_(fan_delta)"          
1710.1 "6407_9-4" 59.18000 "Sandstone" -999.25   -999.25 100.0000      0.0 0.0 "m/c"     "c/vc"    "Proximal_mouth_Upper_shoreface"                                "Proximal_delta_front_(fan_delta)"          
1710.2 "6407_9-4" 59.23000 "Sandstone" -999.25   -999.25 100.0000      0.0 0.0 "m/c"     "c/vc"    "Proximal_mouth_Upper_shoreface"                                "Proximal_delta_front_(fan_delta)"          
1710.3 "6407_9-4" 59.45000 "Sandstone" -999.25   -999.25 100.0000      0.0 0.0 "m/c"     "c/vc"    "Proximal_mouth_Upper_shoreface"                                "Proximal_delta_front_(fan_delta)"          
1710.4 "6407_9-4" 59.78000 "Sandstone" -999.25   -999.25 100.0000      0.0 0.0 "m/c"     "c/vc"    "Proximal_mouth_Upper_shoreface"                                "Proximal_delta_front_(fan_delta)"          
1710.5 "6407_9-4" 60.16000 "Sandstone" -999.25   -999.25 100.0000      0.0 0.0 "m/c"     "c/vc"    "Proximal_mouth_Upper_shoreface"                                "Proximal_delta_front_(fan_delta)"          
1710.6 "6407_9-4" 60.54000 "Sandstone" -999.25   -999.25 100.0000      0.0 0.0 "m/c"     "c/vc"    "Proximal_mouth_Upper_shoreface"                                "Proximal_delta_front_(fan_delta)"          
1710.7 "6407_9-4" 60.86000 "Sandstone" -999.25   -999.25 100.0000      0.0 0.0 "m/c"     "c/vc"    "Proximal_mouth_Upper_shoreface"                                "Proximal_delta_front_(fan_delta)"          
1710.8 "6407_9-4" 60.71000 "Sandstone" -999.25   -999.25 100.0000      0.0 0.0 "m/c"     "c/vc"    "Proximal_mouth_Upper_shoreface"                                "Proximal_delta_front_(fan_delta)"          
1710.9 "6407_9-4" 60.55000 "Sandstone" -999.25   -999.25 100.0000      0.0 0.0 "m/c"     "c/vc"    "Proximal_mouth_Upper_shoreface"                                "Proximal_delta_front_(fan_delta)"          
1711.0 "6407_9-4" 60.40000 "Sandstone" -999.25   -999.25 100.0000      0.0 0.0 "m/c"     "c/vc"    "Proximal_mouth_Upper_shoreface"                                "Proximal_delta_front_(fan_delta)"          
1711.1 "6407_9-4" 60.25000 "Sandstone" -999.25   -999.25 100.0000      0.0 0.0 "m/c"     "c/vc"    "Proximal_mouth_Upper_shoreface"                                "Proximal_delta_front_(fan_delta)"          
1711.2 "6407_9-4" 60.09000 "Sandstone" -999.25   -999.25 100.0000      0.0 0.0 "m/c"     "c/vc"    "Proximal_mouth_Upper_shoreface"                                "Proximal_delta_front_(fan_delta)"          
1711.3 "6407_9-4" 60.13000 "Sandstone" -999.25   -999.25 100.0000      0.0 0.0 "m/c"     "c/vc"    "Proximal_mouth_Upper_shoreface"                                "Proximal_delta_front_(fan_delta)"          
