~Version
VERS  .                                 3.0 : CWLS LAS ASCII Standard - Version 3.0
WRAP  . NO                                  : One line per depth step
DLM   . SPACE                               : Column data section delimiter
SOURCE. Converted to LAS by Log Studio 4.76 : GeoProvider

~Well
STRT.         1666.0 : Start depth
STOP.         1711.3 : Stop depth
STEP.              1 : Step
NULL.        -999.25 : No-value
COMP.                : Company
WELL. 6407/9-4       : Well
FLD .                : Field
LOC .                : Location
LATI.                : Latitude
LONG.                : Longitude
GDAT.                : Geodetic datum
CNTY.                : County
STAT.                : State
CTRY.                : Country
SRVC. GeoProvider AS : Service company
DATE.                : Date
API .                : API number
RUN .                : Run number

~Parameters
WellboreName.  : Wellbore name
RigName     .  : Rig name
StartDate   .  : Start date

~Curves
DEPTH.m            .  : null {F}Depth mMD
Hole_ID.-          .  : null {S}Hole ID
GR.API             .  : null {F}Gamma Ray
Lithology1.-       .  : null {S}Lithology 1
Lithology2.-       .  : null {S}Lithology 2
Lithology3.-       .  : null {S}Lithology 3
Lithology1.%       .  : null {F}Lithology 1 percentage
Lithology2.%       .  : null {F}Lithology 2 percentage
Lithology3.%       .  : null {F}Lithology 3 percentage
Grain_size_Top.-   .  : null {S}Grain size at the top 
Grain_size_Base.-  .  : null {S}Grain size at the bottom
Sub_Environment.-  .  : null {S}Sub Environment
Gross_Environment.-.  : null {S}Gross Environment

~Ascii
# ...
1685.2 "6407_9-4" 81.38000 -999.25   -999.25   -999.25 100.0000      0.0 0.0 -999.25   -999.25   "Coarsening_upwards_prograding_shoreline_sequenses_(Delta_front)" "Prograding_proximal_delta_front_(fan_delta)"
1685.3 "6407_9-4" 81.77000 -999.25   -999.25   -999.25 100.0000      0.0 0.0 -999.25   -999.25   "Coarsening_upwards_prograding_shoreline_sequenses_(Delta_front)" "Prograding_proximal_delta_front_(fan_delta)"
1685.4 "6407_9-4" 80.72000 -999.25   -999.25   -999.25 100.0000      0.0 0.0 -999.25   -999.25   "Coarsening_upwards_prograding_shoreline_sequenses_(Delta_front)" "Prograding_proximal_delta_front_(fan_delta)"
1685.5 "6407_9-4" 79.67000 -999.25   -999.25   -999.25 100.0000      0.0 0.0 -999.25   -999.25   "Coarsening_upwards_prograding_shoreline_sequenses_(Delta_front)" "Prograding_proximal_delta_front_(fan_delta)"
1685.6 "6407_9-4" 78.62000 -999.25   -999.25   -999.25 100.0000      0.0 0.0 -999.25   -999.25   "Coarsening_upwards_prograding_shoreline_sequenses_(Delta_front)" "Prograding_proximal_delta_front_(fan_delta)"
1685.7 "6407_9-4" 77.57000 -999.25   -999.25   -999.25 100.0000      0.0 0.0 -999.25   -999.25   "Coarsening_upwards_prograding_shoreline_sequenses_(Delta_front)" "Prograding_proximal_delta_front_(fan_delta)"
1685.8 "6407_9-4" 75.62000 "Sandstone" "Limestone" -999.25  80.0000 20.00000 0.0 "silt/vf" "m/c"     "Coarsening_upwards_prograding_shoreline_sequenses_(Delta_front)" "Prograding_proximal_delta_front_(fan_delta)"
1685.9 "6407_9-4" 73.48000 "Sandstone" "Limestone" -999.25  80.0000 20.00000 0.0 "silt/vf" "m/c"     "Coarsening_upwards_prograding_shoreline_sequenses_(Delta_front)" "Prograding_proximal_delta_front_(fan_delta)"
1686.0 "6407_9-4" 71.35000 "Sandstone" "Limestone" -999.25  80.0000 20.00000 0.0 "silt/vf" "m/c"     "Coarsening_upwards_prograding_shoreline_sequenses_(Delta_front)" "Prograding_proximal_delta_front_(fan_delta)"
1686.1 "6407_9-4" 69.69000 "Sandstone" "Limestone" -999.25  80.0000 20.00000 0.0 "silt/vf" "m/c"     "Coarsening_upwards_prograding_shoreline_sequenses_(Delta_front)" "Prograding_proximal_delta_front_(fan_delta)"
1686.2 "6407_9-4" 69.92000 "Sandstone" "Limestone" -999.25  80.0000 20.00000 0.0 "silt/vf" "m/c"     "Coarsening_upwards_prograding_shoreline_sequenses_(Delta_front)" "Prograding_proximal_delta_front_(fan_delta)"
1686.3 "6407_9-4" 71.46000 "Sandstone" "Limestone" -999.25  80.0000 20.00000 0.0 "silt/vf" "m/c"     "Coarsening_upwards_prograding_shoreline_sequenses_(Delta_front)" "Prograding_proximal_delta_front_(fan_delta)"
1686.4 "6407_9-4" 73.01000 "Sandstone" "Limestone" -999.25  80.0000 20.00000 0.0 "silt/vf" "m/c"     "Coarsening_upwards_prograding_shoreline_sequenses_(Delta_front)" "Prograding_proximal_delta_front_(fan_delta)"
1686.5 "6407_9-4" 74.49000 "Sandstone" "Limestone" -999.25  80.0000 20.00000 0.0 "silt/vf" "m/c"     "Coarsening_upwards_prograding_shoreline_sequenses_(Delta_front)" "Prograding_proximal_delta_front_(fan_delta)"
1686.6 "6407_9-4" 73.69000 "Sandstone" "Limestone" -999.25  80.0000 20.00000 0.0 "silt/vf" "m/c"     "Coarsening_upwards_prograding_shoreline_sequenses_(Delta_front)" "Prograding_proximal_delta_front_(fan_delta)"
1686.7 "6407_9-4" 72.89000 "Sandstone" "Limestone" -999.25  80.0000 20.00000 0.0 "silt/vf" "m/c"     "Coarsening_upwards_prograding_shoreline_sequenses_(Delta_front)" "Prograding_proximal_delta_front_(fan_delta)"
1686.8 "6407_9-4" 72.10000 "Sandstone" "Limestone" -999.25  80.0000 20.00000 0.0 "silt/vf" "m/c"     "Coarsening_upwards_prograding_shoreline_sequenses_(Delta_front)" "Prograding_proximal_delta_front_(fan_delta)"
1686.9 "6407_9-4" 71.46000 "Sandstone" "Limestone" -999.25  80.0000 20.00000 0.0 "silt/vf" "m/c"     "Coarsening_upwards_prograding_shoreline_sequenses_(Delta_front)" "Prograding_proximal_delta_front_(fan_delta)"
1687.0 "6407_9-4" 71.35000 "Sandstone" "Limestone" -999.25  80.0000 20.00000 0.0 "silt/vf" "m/c"     "Coarsening_upwards_prograding_shoreline_sequenses_(Delta_front)" "Prograding_proximal_delta_front_(fan_delta)"
1687.1 "6407_9-4" 71.25000 "Sandstone" "Limestone" -999.25  80.0000 20.00000 0.0 "silt/vf" "m/c"     "Coarsening_upwards_prograding_shoreline_sequenses_(Delta_front)" "Prograding_proximal_delta_front_(fan_delta)"
1687.2 "6407_9-4" 71.14000 "Sandstone" "Limestone" -999.25  80.0000 20.00000 0.0 "silt/vf" "m/c"     "Coarsening_upwards_prograding_shoreline_sequenses_(Delta_front)" "Prograding_proximal_delta_front_(fan_delta)"
1687.3 "6407_9-4" 71.04000 "Sandstone" "Limestone" -999.25  80.0000 20.00000 0.0 "silt/vf" "m/c"     "Coarsening_upwards_prograding_shoreline_sequenses_(Delta_front)" "Prograding_proximal_delta_front_(fan_delta)"
1687.4 "6407_9-4" 71.18000 "Sandstone" "Limestone" -999.25  80.0000 20.00000 0.0 "silt/vf" "m/c"     "Coarsening_upwards_prograding_shoreline_sequenses_(Delta_front)" "Prograding_proximal_delta_front_(fan_delta)"
1687.5 "6407_9-4" 70.65000 "Sandstone" "Limestone" -999.25  80.0000 20.00000 0.0 "silt/vf" "m/c"     "Coarsening_upwards_prograding_shoreline_sequenses_(Delta_front)" "Prograding_proximal_delta_front_(fan_delta)"
1687.6 "6407_9-4" 70.12000 "Sandstone" "Limestone" -999.25  80.0000 20.00000 0.0 "silt/vf" "m/c"     "Coarsening_upwards_prograding_shoreline_sequenses_(Delta_front)" "Prograding_proximal_delta_front_(fan_delta)"
1687.7 "6407_9-4" 69.59000 "Sandstone" "Limestone" -999.25  80.0000 20.00000 0.0 "silt/vf" "m/c"     "Coarsening_upwards_prograding_shoreline_sequenses_(Delta_front)" "Prograding_proximal_delta_front_(fan_delta)"
1687.8 "6407_9-4" 69.51000 "Sandstone" "Limestone" -999.25  80.0000 20.00000 0.0 "silt/vf" "m/c"     "Coarsening_upwards_prograding_shoreline_sequenses_(Delta_front)" "Prograding_proximal_delta_front_(fan_delta)"
1687.9 "6407_9-4" 69.79000 "Sandstone" "Limestone" -999.25  80.0000 20.00000 0.0 "silt/vf" "m/c"     "Coarsening_upwards_prograding_shoreline_sequenses_(Delta_front)" "Prograding_proximal_delta_front_(fan_delta)"
1688.0 "6407_9-4" 71.75000 "Sandstone" "Limestone" -999.25  80.0000 20.00000 0.0 "silt/vf" "m/c"     "Coarsening_upwards_prograding_shoreline_sequenses_(Delta_front)" "Prograding_proximal_delta_front_(fan_delta)"
1688.1 "6407_9-4" 73.72000 "Sandstone" "Limestone" -999.25  80.0000 20.00000 0.0 "silt/vf" "m/c"     "Coarsening_upwards_prograding_shoreline_sequenses_(Delta_front)" "Prograding_proximal_delta_front_(fan_delta)"
1688.2 "6407_9-4" 75.00000 "Sandstone" "Limestone" -999.25  80.0000 20.00000 0.0 "silt/vf" "m/c"     "Coarsening_upwards_prograding_shoreline_sequenses_(Delta_front)" "Prograding_proximal_delta_front_(fan_delta)"
1688.3 "6407_9-4" 74.62000 "Sandstone" "Limestone" -999.25  80.0000 20.00000 0.0 "silt/vf" "m/c"     "Coarsening_upwards_prograding_shoreline_sequenses_(Delta_front)" "Prograding_proximal_delta_front_(fan_delta)"
1688.4 "6407_9-4" 74.24000 "Sandstone" "Limestone" -999.25  80.0000 20.00000 0.0 "silt/vf" "m/c"     "Coarsening_upwards_prograding_shoreline_sequenses_(Delta_front)" "Prograding_proximal_delta_front_(fan_delta)"
1688.5 "6407_9-4" 73.86000 "Sandstone" "Limestone" -999.25  80.0000 20.00000 0.0 "silt/vf" "m/c"     "Coarsening_upwards_prograding_shoreline_sequenses_(Delta_front)" "Prograding_proximal_delta_front_(fan_delta)"
1688.6 "6407_9-4" 73.47000 "Sandstone" "Limestone" -999.25  80.0000 20.00000 0.0 "silt/vf" "m/c"     "Coarsening_upwards_prograding_shoreline_sequenses_(Delta_front)" "Prograding_proximal_delta_front_(fan_delta)"
1688.7 "6407_9-4" 73.53000 "Sandstone" "Limestone" -999.25  80.0000 20.00000 0.0 "silt/vf" "m/c"     "Coarsening_upwards_prograding_shoreline_sequenses_(Delta_front)" "Prograding_proximal_delta_front_(fan_delta)"
1688.8 "6407_9-4" 73.96000 "Sandstone" "Limestone" -999.25  80.0000 20.00000 0.0 "silt/vf" "m/c"     "Coarsening_upwards_prograding_shoreline_sequenses_(Delta_front)" "Prograding_proximal_delta_front_(fan_delta)"
1688.9 "6407_9-4" 74.39000 "Sandstone" "Limestone" -999.25  80.0000 20.00000 0.0 "silt/vf" "m/c"     "Coarsening_upwards_prograding_shoreline_sequenses_(Delta_front)" "Prograding_proximal_delta_front_(fan_delta)"
