~Version
VERS  .                                 3.0 : CWLS LAS ASCII Standard - Version 3.0
WRAP  . NO                                  : One line per depth step
DLM   . SPACE                               : Column data section delimiter
SOURCE. Converted to LAS by Log Studio 4.76 : GeoProvider

~Well
STRT.         1666.0 : Start depth
STOP.         1711.3 : Stop depth
STEP.              1 : Step
NULL.        -999.25 : No-value
COMP.                : Company
WELL. 6407/9-4       : Well
FLD .                : Field
LOC .                : Location
LATI.                : Latitude
LONG.                : Longitude
GDAT.                : Geodetic datum
CNTY.                : County
STAT.                : State
CTRY.                : Country
SRVC. GeoProvider AS : Service company
DATE.                : Date
API .                : API number
RUN .                : Run number

~Parameters
WellboreName.  : Wellbore name
RigName     .  : Rig name
StartDate   .  : Start date

~Curves
DEPTH.m            .  : null {F}Depth mMD
Hole_ID.-          .  : null {S}Hole ID
GR.API             .  : null {F}Gamma Ray
Lithology1.-       .  : null {S}Lithology 1
Lithology2.-       .  : null {S}Lithology 2
Lithology3.-       .  : null {S}Lithology 3
Lithology1.%       .  : null {F}Lithology 1 percentage
Lithology2.%       .  : null {F}Lithology 2 percentage
Lithology3.%       .  : null {F}Lithology 3 percentage
Grain_size_Top.-   .  : null {S}Grain size at the top 
Grain_size_Base.-  .  : null {S}Grain size at the bottom
Sub_Environment.-  .  : null {S}Sub Environment
Gross_Environment.-.  : null {S}Gross Environment

~Ascii
1666.0 "6407_9-4" 66.53000 "Sandstone" "Limestone" -999.25  90.0000 10.00000 0.0 "f/m"     "f/m"     -999.25                                                         "Stacked_upper_shoreface/proximal_delta_front"
1666.1 "6407_9-4" 65.90000 "Sandstone" "Limestone" -999.25  90.0000 10.00000 0.0 "f/m"     "f/m"     -999.25                                                         "Stacked_upper_shoreface/proximal_delta_front"
1666.2 "6407_9-4" 65.26000 "Sandstone" "Limestone" -999.25  90.0000 10.00000 0.0 "f/m"     "f/m"     -999.25                                                         "Stacked_upper_shoreface/proximal_delta_front"
1666.3 "6407_9-4" 65.43000 "Sandstone" "Limestone" -999.25  90.0000 10.00000 0.0 "f/m"     "f/m"     -999.25                                                         "Stacked_upper_shoreface/proximal_delta_front"
1666.4 "6407_9-4" 65.83000 "Sandstone" "Limestone" -999.25  90.0000 10.00000 0.0 "f/m"     "f/m"     -999.25                                                         "Stacked_upper_shoreface/proximal_delta_front"
1666.5 "6407_9-4" 66.76000 "Sandstone" "Limestone" -999.25  90.0000 10.00000 0.0 "f/m"     "f/m"     -999.25                                                         "Stacked_upper_shoreface/proximal_delta_front"
1666.6 "6407_9-4" 68.24000 "Sandstone" "Limestone" -999.25  90.0000 10.00000 0.0 "f/m"     "f/m"     -999.25                                                         "Stacked_upper_shoreface/proximal_delta_front"
1666.7 "6407_9-4" 69.72000 "Sandstone" "Limestone" -999.25  90.0000 10.00000 0.0 "f/m"     "f/m"     -999.25                                                         "Stacked_upper_shoreface/proximal_delta_front"
1666.8 "6407_9-4" 69.74000 "Sandstone" "Limestone" -999.25  90.0000 10.00000 0.0 "f/m"     "f/m"     -999.25                                                         "Stacked_upper_shoreface/proximal_delta_front"
1666.9 "6407_9-4" 69.48000 "Sandstone" "Limestone" -999.25  90.0000 10.00000 0.0 "f/m"     "f/m"     -999.25                                                         "Stacked_upper_shoreface/proximal_delta_front"
1667.0 "6407_9-4" 69.21000 "Sandstone" "Limestone" -999.25  90.0000 10.00000 0.0 "f/m"     "f/m"     -999.25                                                         "Stacked_upper_shoreface/proximal_delta_front"
1667.1 "6407_9-4" 68.85000 "Sandstone" "Limestone" -999.25  90.0000 10.00000 0.0 "f/m"     "f/m"     -999.25                                                         "Stacked_upper_shoreface/proximal_delta_front"
1667.2 "6407_9-4" 68.34000 "Sandstone" "Limestone" -999.25  90.0000 10.00000 0.0 "f/m"     "f/m"     -999.25                                                         "Stacked_upper_shoreface/proximal_delta_front"
1667.3 "6407_9-4" 67.83000 "Sandstone" "Limestone" -999.25  90.0000 10.00000 0.0 "f/m"     "f/m"     -999.25                                                         "Stacked_upper_shoreface/proximal_delta_front"
1667.4 "6407_9-4" 67.33000 "Sandstone" "Limestone" -999.25  90.0000 10.00000 0.0 "f/m"     "f/m"     -999.25                                                         "Stacked_upper_shoreface/proximal_delta_front"
1667.5 "6407_9-4" 66.89000 "Sandstone" "Limestone" -999.25  90.0000 10.00000 0.0 "f/m"     "f/m"     -999.25                                                         "Stacked_upper_shoreface/proximal_delta_front"
1667.6 "6407_9-4" 66.71000 "Sandstone" "Limestone" -999.25  90.0000 10.00000 0.0 "f/m"     "f/m"     -999.25                                                         "Stacked_upper_shoreface/proximal_delta_front"
1667.7 "6407_9-4" 66.52000 "Sandstone" "Limestone" -999.25  90.0000 10.00000 0.0 "f/m"     "f/m"     -999.25                                                         "Stacked_upper_shoreface/proximal_delta_front"
1667.8 "6407_9-4" 66.33000 "Sandstone" "Limestone" -999.25  90.0000 10.00000 0.0 "f/m"     "f/m"     -999.25                                                         "Stacked_upper_shoreface/proximal_delta_front"
1667.9 "6407_9-4" 66.20000 "Sandstone" "Limestone" -999.25  90.0000 10.00000 0.0 "f/m"     "f/m"     -999.25                                                         "Stacked_upper_shoreface/proximal_delta_front"
1668.0 "6407_9-4" 66.07000 "Sandstone" "Limestone" -999.25  90.0000 10.00000 0.0 "f/m"     "f/m"     -999.25                                                         "Stacked_upper_shoreface/proximal_delta_front"
1668.1 "6407_9-4" 65.95000 "Sandstone" "Limestone" -999.25  90.0000 10.00000 0.0 "f/m"     "f/m"     -999.25                                                         "Stacked_upper_shoreface/proximal_delta_front"
1668.2 "6407_9-4" 65.82000 "Sandstone" "Limestone" -999.25  90.0000 10.00000 0.0 "f/m"     "f/m"     -999.25                                                         "Stacked_upper_shoreface/proximal_delta_front"
1668.3 "6407_9-4" 65.69000 "Sandstone" "Limestone" -999.25  90.0000 10.00000 0.0 "f/m"     "f/m"     -999.25                                                         "Stacked_upper_shoreface/proximal_delta_front"
1668.4 "6407_9-4" 65.60000 "Sandstone" "Limestone" -999.25  90.0000 10.00000 0.0 "f/m"     "f/m"     -999.25                                                         "Stacked_upper_shoreface/proximal_delta_front"
1668.5 "6407_9-4" 65.94000 "Sandstone" "Limestone" -999.25  90.0000 10.00000 0.0 "f/m"     "f/m"     -999.25                                                         "Stacked_upper_shoreface/proximal_delta_front"
1668.6 "6407_9-4" 66.27000 "Sandstone" "Limestone" -999.25  90.0000 10.00000 0.0 "f/m"     "f/m"     -999.25                                                         "Stacked_upper_shoreface/proximal_delta_front"
1668.7 "6407_9-4" 67.84000 "Sandstone" "Limestone" -999.25  90.0000 10.00000 0.0 "f/m"     "f/m"     -999.25                                                         "Stacked_upper_shoreface/proximal_delta_front"
1668.8 "6407_9-4" 69.70000 "Sandstone" "Limestone" -999.25  90.0000 10.00000 0.0 "f/m"     "f/m"     -999.25                                                         "Stacked_upper_shoreface/proximal_delta_front"
1668.9 "6407_9-4" 71.56000 "Sandstone" "Limestone" -999.25  90.0000 10.00000 0.0 "f/m"     "f/m"     -999.25                                                         "Stacked_upper_shoreface/proximal_delta_front"
1669.0 "6407_9-4" 71.37000 "Sandstone" "Limestone" -999.25  90.0000 10.00000 0.0 "f/m"     "f/m"     -999.25                                                         "Stacked_upper_shoreface/proximal_delta_front"
1669.1 "6407_9-4" 71.09000 "Sandstone" "Limestone" -999.25  90.0000 10.00000 0.0 "f/m"     "f/m"     -999.25                                                         "Stacked_upper_shoreface/proximal_delta_front"
1669.2 "6407_9-4" 70.81000 "Sandstone" "Limestone" -999.25  90.0000 10.00000 0.0 "f/m"     "f/m"     -999.25                                                         "Stacked_upper_shoreface/proximal_delta_front"
1669.3 "6407_9-4" 70.54000 "Sandstone" "Limestone" -999.25  90.0000 10.00000 0.0 "f/m"     "f/m"     -999.25                                                         "Stacked_upper_shoreface/proximal_delta_front"
1669.4 "6407_9-4" 70.28000 "Sandstone" "Limestone" -999.25  90.0000 10.00000 0.0 "f/m"     "f/m"     -999.25                                                         "Stacked_upper_shoreface/proximal_delta_front"
1669.5 "6407_9-4" 70.79000 "Sandstone" "Limestone" -999.25  90.0000 10.00000 0.0 "f/m"     "f/m"     -999.25                                                         "Stacked_upper_shoreface/proximal_delta_front"
1669.6 "6407_9-4" 71.31000 "Sandstone" "Limestone" -999.25  90.0000 10.00000 0.0 "f/m"     "f/m"     -999.25                                                         "Stacked_upper_shoreface/proximal_delta_front"
1669.7 "6407_9-4" 71.83000 "Sandstone" "Limestone" -999.25  90.0000 10.00000 0.0 "f/m"     "f/m"     -999.25                                                         "Stacked_upper_shoreface/proximal_delta_front"
