~Version
VERS  .                                 3.0 : CWLS LAS ASCII Standard - Version 3.0
WRAP  . NO                                  : One line per depth step
DLM   . SPACE                               : Column data section delimiter
SOURCE. Converted to LAS by Log Studio 4.76 : GeoProvider

~Well
STRT.         1666.0 : Start depth
STOP.         1711.3 : Stop depth
STEP.              1 : Step
NULL.        -999.25 : No-value
COMP.                : Company
WELL. 6407/9-4       : Well
FLD .                : Field
LOC .                : Location
LATI.                : Latitude
LONG.                : Longitude
GDAT.                : Geodetic datum
CNTY.                : County
STAT.                : State
CTRY.                : Country
SRVC. GeoProvider AS : Service company
DATE.                : Date
API .                : API number
RUN .                : Run number

~Parameters
WellboreName.  : Wellbore name
RigName     .  : Rig name
StartDate   .  : Start date

~Curves
DEPTH.m            .  : null {F}Depth mMD
Hole_ID.-          .  : null {S}Hole ID
GR.API             .  : null {F}Gamma Ray
Lithology1.-       .  : null {S}Lithology 1
Lithology2.-       .  : null {S}Lithology 2
Lithology3.-       .  : null {S}Lithology 3
Lithology1.%       .  : null {F}Lithology 1 percentage
Lithology2.%       .  : null {F}Lithology 2 percentage
Lithology3.%       .  : null {F}Lithology 3 percentage
Grain_size_Top.-   .  : null {S}Grain size at the top 
Grain_size_Base.-  .  : null {S}Grain size at the bottom
Sub_Environment.-  .  : null {S}Sub Environment
Gross_Environment.-.  : null {S}Gross Environment

~Ascii
# ...
1696.6 "6407_9-4" 91.17000 "Sandstone" -999.25   -999.25 100.0000      0.0 0.0 "silt/vf" "silt/vf" "Alternating_lower_and_middle_shoreface_Small_scale_cyclicity"  "Prograding_proximal_delta_front_(fan_delta)"
1696.7 "6407_9-4" 91.39000 "Sandstone" -999.25   -999.25 100.0000      0.0 0.0 "silt/vf" "silt/vf" "Alternating_lower_and_middle_shoreface_Small_scale_cyclicity"  "Prograding_proximal_delta_front_(fan_delta)"
1696.8 "6407_9-4" 91.61000 "Sandstone" -999.25   -999.25 100.0000      0.0 0.0 "silt/vf" "silt/vf" "Alternating_lower_and_middle_shoreface_Small_scale_cyclicity"  "Prograding_proximal_delta_front_(fan_delta)"
1696.9 "6407_9-4" 91.84000 "Sandstone" -999.25   -999.25 100.0000      0.0 0.0 "silt/vf" "silt/vf" "Alternating_lower_and_middle_shoreface_Small_scale_cyclicity"  "Prograding_proximal_delta_front_(fan_delta)"
1697.0 "6407_9-4" 92.03000 "Sandstone" -999.25   -999.25 100.0000      0.0 0.0 "silt/vf" "silt/vf" "Alternating_lower_and_middle_shoreface_Small_scale_cyclicity"  "Prograding_proximal_delta_front_(fan_delta)"
1697.1 "6407_9-4" 92.21000 "Sandstone" -999.25   -999.25 100.0000      0.0 0.0 "f/m"     "f/m"     "Alternating_lower_and_middle_shoreface_Small_scale_cyclicity"  "Prograding_proximal_delta_front_(fan_delta)"
1697.2 "6407_9-4" 92.39000 "Sandstone" -999.25   -999.25 100.0000      0.0 0.0 "f/m"     "f/m"     "Alternating_lower_and_middle_shoreface_Small_scale_cyclicity"  "Prograding_proximal_delta_front_(fan_delta)"
1697.3 "6407_9-4" 92.48000 "Sandstone" -999.25   -999.25 100.0000      0.0 0.0 "f/m"     "f/m"     "Alternating_lower_and_middle_shoreface_Small_scale_cyclicity"  "Prograding_proximal_delta_front_(fan_delta)"
1697.4 "6407_9-4" 92.18000 "Sandstone" -999.25   -999.25 100.0000      0.0 0.0 "f/m"     "f/m"     "Alternating_lower_and_middle_shoreface_Small_scale_cyclicity"  "Prograding_proximal_delta_front_(fan_delta)"
1697.5 "6407_9-4" 91.89000 "Sandstone" -999.25   -999.25 100.0000      0.0 0.0 "f/m"     "f/m"     "Alternating_lower_and_middle_shoreface_Small_scale_cyclicity"  "Prograding_proximal_delta_front_(fan_delta)"
1697.6 "6407_9-4" 91.59000 "Sandstone" -999.25   -999.25 100.0000      0.0 0.0 "f/m"     "f/m"     "Alternating_lower_and_middle_shoreface_Small_scale_cyclicity"  "Prograding_proximal_delta_front_(fan_delta)"
1697.7 "6407_9-4" 91.30000 "Sandstone" -999.25   -999.25 100.0000      0.0 0.0 "f/m"     "f/m"     "Alternating_lower_and_middle_shoreface_Small_scale_cyclicity"  "Prograding_proximal_delta_front_(fan_delta)"
1697.8 "6407_9-4" 91.03000 "Sandstone" -999.25   -999.25 100.0000      0.0 0.0 "f/m"     "f/m"     "Alternating_lower_and_middle_shoreface_Small_scale_cyclicity"  "Prograding_proximal_delta_front_(fan_delta)"
1697.9 "6407_9-4" 91.23000 "Sandstone" -999.25   -999.25 100.0000      0.0 0.0 "f/m"     "f/m"     "Alternating_lower_and_middle_shoreface_Small_scale_cyclicity"  "Prograding_proximal_delta_front_(fan_delta)"
1698.0 "6407_9-4" 91.44000 "Sandstone" -999.25   -999.25 100.0000      0.0 0.0 "f/m"     "f/m"     "Alternating_lower_and_middle_shoreface_Small_scale_cyclicity"  "Prograding_proximal_delta_front_(fan_delta)"
1698.1 "6407_9-4" 91.64000 "Sandstone" -999.25   -999.25 100.0000      0.0 0.0 "f/m"     "f/m"     "Alternating_lower_and_middle_shoreface_Small_scale_cyclicity"  "Prograding_proximal_delta_front_(fan_delta)"
1698.2 "6407_9-4" 91.85000 "Sandstone" -999.25   -999.25 100.0000      0.0 0.0 "f/m"     "f/m"     "Alternating_lower_and_middle_shoreface_Small_scale_cyclicity"  "Prograding_proximal_delta_front_(fan_delta)"
1698.3 "6407_9-4" 92.06000 "Sandstone" -999.25   -999.25 100.0000      0.0 0.0 "silt/vf" "silt"    "Alternating_lower_and_middle_shoreface_Small_scale_cyclicity"  "Prograding_proximal_delta_front_(fan_delta)"
1698.4 "6407_9-4" 91.08000 "Sandstone" -999.25   -999.25 100.0000      0.0 0.0 "silt/vf" "silt"    "Alternating_lower_and_middle_shoreface_Small_scale_cyclicity"  "Prograding_proximal_delta_front_(fan_delta)"
1698.5 "6407_9-4" 89.99000 "Sandstone" -999.25   -999.25 100.0000      0.0 0.0 "silt/vf" "silt"    "Alternating_lower_and_middle_shoreface_Small_scale_cyclicity"  "Prograding_proximal_delta_front_(fan_delta)"
1698.6 "6407_9-4" 88.91000 "Sandstone" -999.25   -999.25 100.0000      0.0 0.0 "silt/vf" "silt"    "Alternating_lower_and_middle_shoreface_Small_scale_cyclicity"  "Prograding_proximal_delta_front_(fan_delta)"
1698.7 "6407_9-4" 87.82000 "Sandstone" -999.25   -999.25 100.0000      0.0 0.0 "silt/vf" "silt"    "Alternating_lower_and_middle_shoreface_Small_scale_cyclicity"  "Prograding_proximal_delta_front_(fan_delta)"
1698.8 "6407_9-4" 86.73000 "Sandstone" -999.25   -999.25 100.0000      0.0 0.0 "silt/vf" "silt"    "Alternating_lower_and_middle_shoreface_Small_scale_cyclicity"  "Prograding_proximal_delta_front_(fan_delta)"
1698.9 "6407_9-4" 86.29000 "Sandstone" -999.25   -999.25 100.0000      0.0 0.0 "silt/vf" "silt"    "Alternating_lower_and_middle_shoreface_Small_scale_cyclicity"  "Prograding_proximal_delta_front_(fan_delta)"
1699.0 "6407_9-4" 88.35000 "Sandstone" -999.25   -999.25 100.0000      0.0 0.0 "silt/vf" "silt"    "Alternating_lower_and_middle_shoreface_Small_scale_cyclicity"  "Prograding_proximal_delta_front_(fan_delta)"
1699.1 "6407_9-4" 90.42000 "Sandstone" -999.25   -999.25 100.0000      0.0 0.0 "silt/vf" "silt"    "Alternating_lower_and_middle_shoreface_Small_scale_cyclicity"  "Prograding_proximal_delta_front_(fan_delta)"
1699.2 "6407_9-4" 92.48000 "Sandstone" -999.25   -999.25 100.0000      0.0 0.0 "silt/vf" "silt"    "Alternating_lower_and_middle_shoreface_Small_scale_cyclicity"  "Prograding_proximal_delta_front_(fan_delta)"
1699.3 "6407_9-4" 96.30000 "Sandstone" -999.25   -999.25 100.0000      0.0 0.0 "silt/vf" "silt"    "Alternating_lower_and_middle_shoreface_Small_scale_cyclicity"  "Prograding_proximal_delta_front_(fan_delta)"
1699.4 "6407_9-4" 97.86000 "Sandstone" -999.25   -999.25 100.0000      0.0 0.0 "silt/vf" "silt"    "Alternating_lower_and_middle_shoreface_Small_scale_cyclicity"  "Prograding_proximal_delta_front_(fan_delta)"
1699.5 "6407_9-4" 98.15000 "Sandstone" -999.25   -999.25 100.0000      0.0 0.0 "silt/vf" "silt"    "Alternating_lower_and_middle_shoreface_Small_scale_cyclicity"  "Prograding_proximal_delta_front_(fan_delta)"
1699.6 "6407_9-4" 98.43000 "Sandstone" -999.25   -999.25 100.0000      0.0 0.0 "silt/vf" "silt"    "Alternating_lower_and_middle_shoreface_Small_scale_cyclicity"  "Prograding_proximal_delta_front_(fan_delta)"
1699.7 "6407_9-4" 97.48000 "Sandstone" -999.25   -999.25 100.0000      0.0 0.0 "silt/vf" "f/m"     "Alternating_lower_and_middle_shoreface_Small_scale_cyclicity"  "Prograding_proximal_delta_front_(fan_delta)"
1699.8 "6407_9-4" 96.50000 "Sandstone" -999.25   -999.25 100.0000      0.0 0.0 "silt/vf" "f/m"     "Alternating_lower_and_middle_shoreface_Small_scale_cyclicity"  "Prograding_proximal_delta_front_(fan_delta)"
1699.9 "6407_9-4" 95.52000 "Sandstone" -999.25   -999.25 100.0000      0.0 0.0 "silt/vf" "f/m"     "Alternating_lower_and_middle_shoreface_Small_scale_cyclicity"  "Prograding_proximal_delta_front_(fan_delta)"
1700.0 "6407_9-4" 94.55000 "Sandstone" -999.25   -999.25 100.0000      0.0 0.0 "silt/vf" "f/m"     "Alternating_lower_and_middle_shoreface_Small_scale_cyclicity"  "Prograding_proximal_delta_front_(fan_delta)"
1700.1 "6407_9-4" 93.89000 "Sandstone" -999.25   -999.25 100.0000      0.0 0.0 "silt/vf" "f/m"     "Alternating_lower_and_middle_shoreface_Small_scale_cyclicity"  "Prograding_proximal_delta_front_(fan_delta)"
1700.2 "6407_9-4" 94.25000 "Sandstone" -999.25   -999.25 100.0000      0.0 0.0 "silt/vf" "f/m"     "Alternating_lower_and_middle_shoreface_Small_scale_cyclicity"  "Prograding_proximal_delta_front_(fan_delta)"
1700.3 "6407_9-4" 94.62000 "Sandstone" -999.25   -999.25 100.0000      0.0 0.0 "silt/vf" "f/m"     "Alternating_lower_and_middle_shoreface_Small_scale_cyclicity"  "Prograding_proximal_delta_front_(fan_delta)"
1700.4 "6407_9-4" 94.98000 "Sandstone" -999.25   -999.25 100.0000      0.0 0.0 "silt/vf" "f/m"     "Alternating_lower_and_middle_shoreface_Small_scale_cyclicity"  "Prograding_proximal_delta_front_(fan_delta)"
