~Version
VERS  .                                 3.0 : CWLS LAS ASCII Standard - Version 3.0
WRAP  . NO                                  : One line per depth step
DLM   . SPACE                               : Column data section delimiter
SOURCE. Converted to LAS by Log Studio 4.76 : GeoProvider

~Well
STRT.         1666.0 : Start depth
STOP.         1711.3 : Stop depth
STEP.              1 : Step
NULL.        -999.25 : No-value
COMP.                : Company
WELL. 6407/9-4       : Well
FLD .                : Field
LOC .                : Location
LATI.                : Latitude
LONG.                : Longitude
GDAT.                : Geodetic datum
CNTY.                : County
STAT.                : State
CTRY.                : Country
SRVC. GeoProvider AS : Service company
DATE.                : Date
API .                : API number
RUN .                : Run number

~Parameters
WellboreName.  : Wellbore name
RigName     .  : Rig name
StartDate   .  : Start date

~Curves
DEPTH.m            .  : null {F}Depth mMD
Hole_ID.-          .  : null {S}Hole ID
GR.API             .  : null {F}Gamma Ray
Lithology1.-       .  : null {S}Lithology 1
Lithology2.-       .  : null {S}Lithology 2
Lithology3.-       .  : null {S}Lithology 3
Lithology1.%       .  : null {F}Lithology 1 percentage
Lithology2.%       .  : null {F}Lithology 2 percentage
Lithology3.%       .  : null {F}Lithology 3 percentage
Grain_size_Top.-   .  : null {S}Grain size at the top 
Grain_size_Base.-  .  : null {S}Grain size at the bottom
Sub_Environment.-  .  : null {S}Sub Environment
Gross_Environment.-.  : null {S}Gross Environment

~Ascii
# ...
1689.0 "6407_9-4" 74.82000 "Sandstone" "Limestone" -999.25  80.0000 20.00000 0.0 "silt/vf" "m/c"     "Coarsening_upwards_prograding_shoreline_sequenses_(Delta_front)" "Prograding_proximal_delta_front_(fan_delta)"
1689.1 "6407_9-4" 75.25000 "Sandstone" "Limestone" -999.25  80.0000 20.00000 0.0 "silt/vf" "m/c"     "Coarsening_upwards_prograding_shoreline_sequenses_(Delta_front)" "Prograding_proximal_delta_front_(fan_delta)"
1689.2 "6407_9-4" 74.55000 "Sandstone" "Limestone" -999.25  80.0000 20.00000 0.0 "silt/vf" "m/c"     "Coarsening_upwards_prograding_shoreline_sequenses_(Delta_front)" "Prograding_proximal_delta_front_(fan_delta)"
1689.3 "6407_9-4" 73.81000 "Sandstone" "Limestone" -999.25  80.0000 20.00000 0.0 "silt/vf" "m/c"     "Coarsening_upwards_prograding_shoreline_sequenses_(Delta_front)" "Prograding_proximal_delta_front_(fan_delta)"
1689.4 "6407_9-4" 73.39000 "Sandstone" "Limestone" -999.25  80.0000 20.00000 0.0 "silt/vf" "m/c"     "Coarsening_upwards_prograding_shoreline_sequenses_(Delta_front)" "Prograding_proximal_delta_front_(fan_delta)"
1689.5 "6407_9-4" 73.69000 "Sandstone" "Limestone" -999.25  80.0000 20.00000 0.0 "silt/vf" "m/c"     "Coarsening_upwards_prograding_shoreline_sequenses_(Delta_front)" "Prograding_proximal_delta_front_(fan_delta)"
1689.6 "6407_9-4" 73.98000 "Sandstone" "Limestone" -999.25  80.0000 20.00000 0.0 "silt/vf" "m/c"     "Coarsening_upwards_prograding_shoreline_sequenses_(Delta_front)" "Prograding_proximal_delta_front_(fan_delta)"
1689.7 "6407_9-4" 73.96000 "Sandstone" "Limestone" -999.25  80.0000 20.00000 0.0 "silt/vf" "m/c"     "Coarsening_upwards_prograding_shoreline_sequenses_(Delta_front)" "Prograding_proximal_delta_front_(fan_delta)"
1689.8 "6407_9-4" 73.05000 "Sandstone" "Limestone" -999.25  80.0000 20.00000 0.0 "silt/vf" "m/c"     "Coarsening_upwards_prograding_shoreline_sequenses_(Delta_front)" "Prograding_proximal_delta_front_(fan_delta)"
1689.9 "6407_9-4" 72.14000 "Sandstone" "Limestone" -999.25  80.0000 20.00000 0.0 "silt/vf" "m/c"     "Coarsening_upwards_prograding_shoreline_sequenses_(Delta_front)" "Prograding_proximal_delta_front_(fan_delta)"
1690.0 "6407_9-4" 71.23000 "Sandstone" "Limestone" -999.25  80.0000 20.00000 0.0 "silt/vf" "m/c"     "Coarsening_upwards_prograding_shoreline_sequenses_(Delta_front)" "Prograding_proximal_delta_front_(fan_delta)"
1690.1 "6407_9-4" 70.31000 "Sandstone" "Limestone" -999.25  80.0000 20.00000 0.0 "silt/vf" "m/c"     "Coarsening_upwards_prograding_shoreline_sequenses_(Delta_front)" "Prograding_proximal_delta_front_(fan_delta)"
1690.2 "6407_9-4" 69.40000 "Sandstone" "Limestone" -999.25  80.0000 20.00000 0.0 "silt/vf" "m/c"     "Coarsening_upwards_prograding_shoreline_sequenses_(Delta_front)" "Prograding_proximal_delta_front_(fan_delta)"
1690.3 "6407_9-4" 68.49000 "Sandstone" "Limestone" -999.25  80.0000 20.00000 0.0 "silt/vf" "m/c"     "Coarsening_upwards_prograding_shoreline_sequenses_(Delta_front)" "Prograding_proximal_delta_front_(fan_delta)"
1690.4 "6407_9-4" 67.58000 "Sandstone" "Limestone" -999.25  80.0000 20.00000 0.0 "silt/vf" "m/c"     "Coarsening_upwards_prograding_shoreline_sequenses_(Delta_front)" "Prograding_proximal_delta_front_(fan_delta)"
1690.5 "6407_9-4" 66.67000 "Sandstone" "Limestone" -999.25  80.0000 20.00000 0.0 "silt/vf" "m/c"     "Coarsening_upwards_prograding_shoreline_sequenses_(Delta_front)" "Prograding_proximal_delta_front_(fan_delta)"
1690.6 "6407_9-4" 65.95000 "Sandstone" "Limestone" -999.25  80.0000 20.00000 0.0 "silt/vf" "m/c"     "Coarsening_upwards_prograding_shoreline_sequenses_(Delta_front)" "Prograding_proximal_delta_front_(fan_delta)"
1690.7 "6407_9-4" 66.51000 "Sandstone" "Limestone" -999.25  80.0000 20.00000 0.0 "silt/vf" "m/c"     "Coarsening_upwards_prograding_shoreline_sequenses_(Delta_front)" "Prograding_proximal_delta_front_(fan_delta)"
1690.8 "6407_9-4" 67.06000 "Sandstone" "Limestone" -999.25  80.0000 20.00000 0.0 "silt/vf" "m/c"     "Coarsening_upwards_prograding_shoreline_sequenses_(Delta_front)" "Prograding_proximal_delta_front_(fan_delta)"
1690.9 "6407_9-4" 67.62000 "Sandstone" "Limestone" -999.25  80.0000 20.00000 0.0 "silt/vf" "m/c"     "Coarsening_upwards_prograding_shoreline_sequenses_(Delta_front)" "Prograding_proximal_delta_front_(fan_delta)"
1691.0 "6407_9-4" 68.08000 "Sandstone" "Limestone" -999.25  80.0000 20.00000 0.0 "silt/vf" "m/c"     "Coarsening_upwards_prograding_shoreline_sequenses_(Delta_front)" "Prograding_proximal_delta_front_(fan_delta)"
1691.1 "6407_9-4" 68.33000 "Sandstone" "Limestone" -999.25  80.0000 20.00000 0.0 "silt/vf" "m/c"     "Coarsening_upwards_prograding_shoreline_sequenses_(Delta_front)" "Prograding_proximal_delta_front_(fan_delta)"
1691.2 "6407_9-4" 68.59000 "Sandstone" "Limestone" -999.25  80.0000 20.00000 0.0 "silt/vf" "m/c"     "Coarsening_upwards_prograding_shoreline_sequenses_(Delta_front)" "Prograding_proximal_delta_front_(fan_delta)"
1691.3 "6407_9-4" 68.84000 "Sandstone" "Limestone" -999.25  80.0000 20.00000 0.0 "silt/vf" "m/c"     "Coarsening_upwards_prograding_shoreline_sequenses_(Delta_front)" "Prograding_proximal_delta_front_(fan_delta)"
1691.4 "6407_9-4" 69.10000 "Sandstone" "Limestone" -999.25  80.0000 20.00000 0.0 "silt/vf" "m/c"     "Coarsening_upwards_prograding_shoreline_sequenses_(Delta_front)" "Prograding_proximal_delta_front_(fan_delta)"
1691.5 "6407_9-4" 69.16000 "Sandstone" "Limestone" -999.25  80.0000 20.00000 0.0 "silt/vf" "m/c"     "Coarsening_upwards_prograding_shoreline_sequenses_(Delta_front)" "Prograding_proximal_delta_front_(fan_delta)"
1691.6 "6407_9-4" 69.09000 "Sandstone" "Limestone" -999.25  80.0000 20.00000 0.0 "silt/vf" "m/c"     "Coarsening_upwards_prograding_shoreline_sequenses_(Delta_front)" "Prograding_proximal_delta_front_(fan_delta)"
1691.7 "6407_9-4" 69.01000 "Sandstone" "Limestone" -999.25  80.0000 20.00000 0.0 "silt/vf" "m/c"     "Coarsening_upwards_prograding_shoreline_sequenses_(Delta_front)" "Prograding_proximal_delta_front_(fan_delta)"
1691.8 "6407_9-4" 68.94000 "Sandstone" "Limestone" -999.25  80.0000 20.00000 0.0 "silt/vf" "m/c"     "Coarsening_upwards_prograding_shoreline_sequenses_(Delta_front)" "Prograding_proximal_delta_front_(fan_delta)"
1691.9 "6407_9-4" 68.26000 "Sandstone" "Limestone" -999.25  80.0000 20.00000 0.0 "silt/vf" "m/c"     "Coarsening_upwards_prograding_shoreline_sequenses_(Delta_front)" "Prograding_proximal_delta_front_(fan_delta)"
1692.0 "6407_9-4" 67.16000 "Sandstone" "Limestone" -999.25  80.0000 20.00000 0.0 "silt/vf" "m/c"     "Coarsening_upwards_prograding_shoreline_sequenses_(Delta_front)" "Prograding_proximal_delta_front_(fan_delta)"
1692.1 "6407_9-4" 66.05000 "Sandstone" "Limestone" -999.25  80.0000 20.00000 0.0 "silt/vf" "m/c"     "Coarsening_upwards_prograding_shoreline_sequenses_(Delta_front)" "Prograding_proximal_delta_front_(fan_delta)"
1692.2 "6407_9-4" 64.94000 "Sandstone" "Limestone" -999.25  80.0000 20.00000 0.0 "silt/vf" "m/c"     "Coarsening_upwards_prograding_shoreline_sequenses_(Delta_front)" "Prograding_proximal_delta_front_(fan_delta)"
1692.3 "6407_9-4" 63.84000 "Sandstone" "Limestone" -999.25  80.0000 20.00000 0.0 "silt/vf" "m/c"     "Coarsening_upwards_prograding_shoreline_sequenses_(Delta_front)" "Prograding_proximal_delta_front_(fan_delta)"
1692.4 "6407_9-4" 62.73000 "Sandstone" "Limestone" -999.25  80.0000 20.00000 0.0 "silt/vf" "m/c"     "Coarsening_upwards_prograding_shoreline_sequenses_(Delta_front)" "Prograding_proximal_delta_front_(fan_delta)"
1692.5 "6407_9-4" 61.63000 "Sandstone" "Limestone" -999.25  80.0000 20.00000 0.0 "silt/vf" "m/c"     "Coarsening_upwards_prograding_shoreline_sequenses_(Delta_front)" "Prograding_proximal_delta_front_(fan_delta)"
1692.6 "6407_9-4" 60.52000 "Sandstone" "Limestone" -999.25  80.0000 20.00000 0.0 "silt/vf" "m/c"     "Coarsening_upwards_prograding_shoreline_sequenses_(Delta_front)" "Prograding_proximal_delta_front_(fan_delta)"
1692.7 "6407_9-4" 59.41000 "Sandstone" "Limestone" -999.25  80.0000 20.00000 0.0 "silt/vf" "m/c"     "Coarsening_upwards_prograding_shoreline_sequenses_(Delta_front)" "Prograding_proximal_delta_front_(fan_delta)"
