~Version
VERS  .                                 3.0 : CWLS LAS ASCII Standard - Version 3.0
WRAP  . NO                                  : One line per depth step
DLM   . SPACE                               : Column data section delimiter
SOURCE. Converted to LAS by Log Studio 4.76 : GeoProvider

~Well
STRT.         1666.0 : Start depth
STOP.         1711.3 : Stop depth
STEP.              1 : Step
NULL.        -999.25 : No-value
COMP.                : Company
WELL. 6407/9-4       : Well
FLD .                : Field
LOC .                : Location
LATI.                : Latitude
LONG.                : Longitude
GDAT.                : Geodetic datum
CNTY.                : County
STAT.                : State
CTRY.                : Country
SRVC. GeoProvider AS : Service company
DATE.                : Date
API .                : API number
RUN .                : Run number

~Parameters
WellboreName.  : Wellbore name
RigName     .  : Rig name
StartDate   .  : Start date

~Curves
DEPTH.m            .  : null {F}Depth mMD
Hole_ID.-          .  : null {S}Hole ID
GR.API             .  : null {F}Gamma Ray
Lithology1.-       .  : null {S}Lithology 1
Lithology2.-       .  : null {S}Lithology 2
Lithology3.-       .  : null {S}Lithology 3
Lithology1.%       .  : null {F}Lithology 1 percentage
Lithology2.%       .  : null {F}Lithology 2 percentage
Lithology3.%       .  : null {F}Lithology 3 percentage
Grain_size_Top.-   .  : null {S}Grain size at the top 
Grain_size_Base.-  .  : null {S}Grain size at the bottom
Sub_Environment.-  .  : null {S}Sub Environment
Gross_Environment.-.  : null {S}Gross Environment

~Ascii
# ...
1700.5 "6407_9-4" 95.01000 "Sandstone" -999.25   -999.25 100.0000      0.0 0.0 "silt/vf" "f/m"     "Alternating_lower_and_middle_shoreface_Small_scale_cyclicity"  "Prograding_proximal_delta_front_(fan_delta)"
1700.6 "6407_9-4" 93.96000 "Sandstone" -999.25   -999.25 100.0000      0.0 0.0 "silt/vf" "f/m"     "Alternating_lower_and_middle_shoreface_Small_scale_cyclicity"  "Prograding_proximal_delta_front_(fan_delta)"
1700.7 "6407_9-4" 92.91000 "Sandstone" -999.25   -999.25 100.0000      0.0 0.0 "silt/vf" "f/m"     "Alternating_lower_and_middle_shoreface_Small_scale_cyclicity"  "Prograding_proximal_delta_front_(fan_delta)"
1700.8 "6407_9-4" 91.86000 "Sandstone" -999.25   -999.25 100.0000      0.0 0.0 "silt/vf" "f/m"     "Alternating_lower_and_middle_shoreface_Small_scale_cyclicity"  "Prograding_proximal_delta_front_(fan_delta)"
1700.9 "6407_9-4" 90.81000 "Sandstone" -999.25   -999.25 100.0000      0.0 0.0 "silt/vf" "f/m"     "Alternating_lower_and_middle_shoreface_Small_scale_cyclicity"  "Prograding_proximal_delta_front_(fan_delta)"
1701.0 "6407_9-4" 89.92000 "Sandstone" -999.25   -999.25 100.0000      0.0 0.0 "silt/vf" "f/m"     "Alternating_lower_and_middle_shoreface_Small_scale_cyclicity"  "Prograding_proximal_delta_front_(fan_delta)"
1701.1 "6407_9-4" 89.21000 "Sandstone" -999.25   -999.25 100.0000      0.0 0.0 "silt/vf" "f/m"     "Alternating_lower_and_middle_shoreface_Small_scale_cyclicity"  "Prograding_proximal_delta_front_(fan_delta)"
1701.2 "6407_9-4" 88.51000 "Sandstone" -999.25   -999.25 100.0000      0.0 0.0 "silt/vf" "f/m"     "Alternating_lower_and_middle_shoreface_Small_scale_cyclicity"  "Prograding_proximal_delta_front_(fan_delta)"
1701.3 "6407_9-4" 87.87000 "Sandstone" -999.25   -999.25 100.0000      0.0 0.0 "silt/vf" "f/m"     "Alternating_lower_and_middle_shoreface_Small_scale_cyclicity"  "Prograding_proximal_delta_front_(fan_delta)"
1701.4 "6407_9-4" 88.54000 "Sandstone" -999.25   -999.25 100.0000      0.0 0.0 "silt/vf" "f/m"     "Alternating_lower_and_middle_shoreface_Small_scale_cyclicity"  "Prograding_proximal_delta_front_(fan_delta)"
1701.5 "6407_9-4" 89.21000 "Sandstone" -999.25   -999.25 100.0000      0.0 0.0 "silt/vf" "f/m"     "Alternating_lower_and_middle_shoreface_Small_scale_cyclicity"  "Prograding_proximal_delta_front_(fan_delta)"
1701.6 "6407_9-4" 89.88000 "Sandstone" -999.25   -999.25 100.0000      0.0 0.0 "silt/vf" "f/m"     "Alternating_lower_and_middle_shoreface_Small_scale_cyclicity"  "Prograding_proximal_delta_front_(fan_delta)"
1701.7 "6407_9-4" 90.04000 "Sandstone" -999.25   -999.25 100.0000      0.0 0.0 "silt/vf" "f/m"     "Alternating_lower_and_middle_shoreface_Small_scale_cyclicity"  "Prograding_proximal_delta_front_(fan_delta)"
1701.8 "6407_9-4" 89.53000 "Sandstone" -999.25   -999.25 100.0000      0.0 0.0 "silt/vf" "f/m"     "Alternating_lower_and_middle_shoreface_Small_scale_cyclicity"  "Prograding_proximal_delta_front_(fan_delta)"
1701.9 "6407_9-4" 89.03000 "Sandstone" -999.25   -999.25 100.0000      0.0 0.0 "silt/vf" "f/m"     "Alternating_lower_and_middle_shoreface_Small_scale_cyclicity"  "Prograding_proximal_delta_front_(fan_delta)"
1702.0 "6407_9-4" 88.53000 "Sandstone" -999.25   -999.25 100.0000      0.0 0.0 "silt/vf" "f/m"     "Alternating_lower_and_middle_shoreface_Small_scale_cyclicity"  "Prograding_proximal_delta_front_(fan_delta)"
1702.1 "6407_9-4" 87.69000 "Sandstone" -999.25   -999.25 100.0000      0.0 0.0 "silt/vf" "f/m"     "Alternating_lower_and_middle_shoreface_Small_scale_cyclicity"  "Prograding_proximal_delta_front_(fan_delta)"
1702.2 "6407_9-4" 87.49000 "Sandstone" -999.25   -999.25 100.0000      0.0 0.0 "silt/vf" "f/m"     "Alternating_lower_and_middle_shoreface_Small_scale_cyclicity"  "Prograding_proximal_delta_front_(fan_delta)"
1702.3 "6407_9-4" 88.02000 "Sandstone" -999.25   -999.25 100.0000      0.0 0.0 "silt/vf" "f/m"     "Alternating_lower_and_middle_shoreface_Small_scale_cyclicity"  "Prograding_proximal_delta_front_(fan_delta)"
1702.4 "6407_9-4" 88.55000 "Sandstone" -999.25   -999.25 100.0000      0.0 0.0 "silt/vf" "f/m"     "Alternating_lower_and_middle_shoreface_Small_scale_cyclicity"  "Prograding_proximal_delta_front_(fan_delta)"
1702.5 "6407_9-4" 89.08000 "Sandstone" -999.25   -999.25 100.0000      0.0 0.0 "silt/vf" "f/m"     "Alternating_lower_and_middle_shoreface_Small_scale_cyclicity"  "Prograding_proximal_delta_front_(fan_delta)"
1702.6 "6407_9-4" 88.52000 "Sandstone" -999.25   -999.25 100.0000      0.0 0.0 "silt/vf" "f/m"     "Transgression"                                                 "Prograding_proximal_delta_front_(fan_delta)"
1702.7 "6407_9-4" 86.85000 "Sandstone" -999.25   -999.25 100.0000      0.0 0.0 "m/c"     "c/vc"    "Transgression"                                                 "Prograding_proximal_delta_front_(fan_delta)"
1702.8 "6407_9-4" 85.18000 "Sandstone" -999.25   -999.25 100.0000      0.0 0.0 "m/c"     "c/vc"    "Transgression"                                                 "Prograding_proximal_delta_front_(fan_delta)"
1702.9 "6407_9-4" 83.52000 "Sandstone" -999.25   -999.25 100.0000      0.0 0.0 "m/c"     "c/vc"    "Transgression"                                                 "Prograding_proximal_delta_front_(fan_delta)"
1703.0 "6407_9-4" 81.85000 "Sandstone" -999.25   -999.25 100.0000      0.0 0.0 "m/c"     "c/vc"    "Transgression"                                                 "Prograding_proximal_delta_front_(fan_delta)"
1703.1 "6407_9-4" 80.18000 "Sandstone" -999.25   -999.25 100.0000      0.0 0.0 "m/c"     "c/vc"    "Erosion"                                                       "Proximal_delta_front_(fan_delta)"          
1703.2 "6407_9-4" 77.90000 "Sandstone" -999.25   -999.25 100.0000      0.0 0.0 "m/c"     "c/vc"    "Erosion"                                                       "Proximal_delta_front_(fan_delta)"          
1703.3 "6407_9-4" 74.75000 "Sandstone" -999.25   -999.25 100.0000      0.0 0.0 "m/c"     "c/vc"    "Erosion"                                                       "Proximal_delta_front_(fan_delta)"          
1703.4 "6407_9-4" 71.60000 "Sandstone" -999.25   -999.25 100.0000      0.0 0.0 "m/c"     "c/vc"    "Erosion"                                                       "Proximal_delta_front_(fan_delta)"          
1703.5 "6407_9-4" 68.44000 "Sandstone" -999.25   -999.25 100.0000      0.0 0.0 "m/c"     "c/vc"    "Erosion"                                                       "Proximal_delta_front_(fan_delta)"          
1703.6 "6407_9-4" 65.29000 "Sandstone" -999.25   -999.25 100.0000      0.0 0.0 "m/c"     "c/vc"    "Erosion"                                                       "Proximal_delta_front_(fan_delta)"          
1703.7 "6407_9-4" 63.71000 "Sandstone" -999.25   -999.25 100.0000      0.0 0.0 "m/c"     "c/vc"    "Proximal_mouth_Upper_shoreface"                                "Proximal_delta_front_(fan_delta)"          
1703.8 "6407_9-4" 62.95000 "Sandstone" -999.25   -999.25 100.0000      0.0 0.0 "m/c"     "c/vc"    "Proximal_mouth_Upper_shoreface"                                "Proximal_delta_front_(fan_delta)"          
1703.9 "6407_9-4" 62.19000 "Sandstone" -999.25   -999.25 100.0000      0.0 0.0 "m/c"     "c/vc"    "Proximal_mouth_Upper_shoreface"                                "Proximal_delta_front_(fan_delta)"          
1704.0 "6407_9-4" 61.43000 "Sandstone" -999.25   -999.25 100.0000      0.0 0.0 "m/c"     "c/vc"    "Proximal_mouth_Upper_shoreface"                                "Proximal_delta_front_(fan_delta)"          
1704.1 "6407_9-4" 60.67000 "Sandstone" -999.25   -999.25 100.0000      0.0 0.0 "m/c"     "c/vc"    "Proximal_mouth_Upper_shoreface"                                "Proximal_delta_front_(fan_delta)"          
1704.2 "6407_9-4" 59.90000 "Sandstone" -999.25   -999.25 100.0000      0.0 0.0 "m/c"     "c/vc"    "Proximal_mouth_Upper_shoreface"                                "Proximal_delta_front_(fan_delta)"          
1704.3 "6407_9-4" 59.14000 "Sandstone" -999.25   -999.25 100.0000      0.0 0.0 "m/c"     "c/vc"    "Proximal_mouth_Upper_shoreface"                                "Proximal_delta_front_(fan_delta)"          
