~Version
VERS  .                                 3.0 : CWLS LAS ASCII Standard - Version 3.0
WRAP  . NO                                  : One line per depth step
DLM   . SPACE                               : Column data section delimiter
SOURCE. Converted to LAS by Log Studio 4.76 : GeoProvider

~Well
STRT.         1372.0 : Start depth
STOP.         1398.0 : Stop depth
STEP.              1 : Step
NULL.        -999.25 : No-value
COMP.                : Company
WELL. 6608/11-1      : Well
FLD .                : Field
LOC .                : Location
LATI.                : Latitude
LONG.                : Longitude
GDAT.                : Geodetic datum
CNTY.                : County
STAT.                : State
CTRY.                : Country
SRVC. GeoProvider AS : Service company
DATE.                : Date
API .                : API number
RUN .                : Run number

~Parameters
WellboreName.  : Wellbore name
RigName     .  : Rig name
StartDate   .  : Start date

~Curves
DEPTH.m            .  : null {F}Depth mMD
Hole_ID.-          .  : null {S}Hole ID
GR.API             .  : null {F}Gamma Ray
Lithology1.-       .  : null {S}Lithology 1
Lithology2.-       .  : null {S}Lithology 2
Lithology3.-       .  : null {S}Lithology 3
Lithology1.%       .  : null {F}Lithology 1 percentage
Lithology2.%       .  : null {F}Lithology 2 percentage
Lithology3.%       .  : null {F}Lithology 3 percentage
Grain_size_Top.-   .  : null {S}Grain size at the top 
Grain_size_Base.-  .  : null {S}Grain size at the bottom
Sub_Environment.-  .  : null {S}Sub Environment
Gross_Environment.-.  : null {S}Gross Environment

~Ascii
1372.0 "6608_11-1"  86.7000 "Limestone" "Clay" -999.25  40.0000 60.00000 0.0 "silt" "silt" "SHALLOW_LACUSTRINE_DEPOSITS_HARD-WATER_MARL_LAKE" "LACUSTRINE_DEPOSITS"
1372.1 "6608_11-1"  85.6300 "Limestone" "Clay" -999.25  40.0000 60.00000 0.0 "silt" "silt" "SHALLOW_LACUSTRINE_DEPOSITS_HARD-WATER_MARL_LAKE" "LACUSTRINE_DEPOSITS"
1372.2 "6608_11-1"  83.2700 "Limestone" "Clay" -999.25  40.0000 60.00000 0.0 "silt" "silt" "SHALLOW_LACUSTRINE_DEPOSITS_HARD-WATER_MARL_LAKE" "LACUSTRINE_DEPOSITS"
1372.3 "6608_11-1"  81.1100 "Limestone" "Clay" -999.25  40.0000 60.00000 0.0 "silt" "silt" "SHALLOW_LACUSTRINE_DEPOSITS_HARD-WATER_MARL_LAKE" "LACUSTRINE_DEPOSITS"
1372.4 "6608_11-1"  78.9400 "Limestone" "Clay" -999.25  40.0000 60.00000 0.0 "silt" "silt" "SHALLOW_LACUSTRINE_DEPOSITS_HARD-WATER_MARL_LAKE" "LACUSTRINE_DEPOSITS"
1372.5 "6608_11-1"  76.7800 "Limestone" "Clay" -999.25  40.0000 60.00000 0.0 "silt" "silt" "SHALLOW_LACUSTRINE_DEPOSITS_HARD-WATER_MARL_LAKE" "LACUSTRINE_DEPOSITS"
1372.6 "6608_11-1"  76.3900 "Limestone" "Clay" -999.25  40.0000 60.00000 0.0 "silt" "silt" "SHALLOW_LACUSTRINE_DEPOSITS_HARD-WATER_MARL_LAKE" "LACUSTRINE_DEPOSITS"
1372.7 "6608_11-1"  77.9500 "Limestone" "Clay" -999.25  40.0000 60.00000 0.0 "silt" "silt" "SHALLOW_LACUSTRINE_DEPOSITS_HARD-WATER_MARL_LAKE" "LACUSTRINE_DEPOSITS"
1372.8 "6608_11-1"  79.7700 "Limestone" "Clay" -999.25  40.0000 60.00000 0.0 "silt" "silt" "SHALLOW_LACUSTRINE_DEPOSITS_HARD-WATER_MARL_LAKE" "LACUSTRINE_DEPOSITS"
1372.9 "6608_11-1"  81.6100 "Limestone" "Clay" -999.25  40.0000 60.00000 0.0 "silt" "silt" "SHALLOW_LACUSTRINE_DEPOSITS_HARD-WATER_MARL_LAKE" "LACUSTRINE_DEPOSITS"
1373.0 "6608_11-1"  83.4600 "Limestone" "Clay" -999.25  40.0000 60.00000 0.0 "silt" "silt" "SHALLOW_LACUSTRINE_DEPOSITS_HARD-WATER_MARL_LAKE" "LACUSTRINE_DEPOSITS"
1373.1 "6608_11-1"  85.3000 "Limestone" "Clay" -999.25  40.0000 60.00000 0.0 "silt" "silt" "SHALLOW_LACUSTRINE_DEPOSITS_HARD-WATER_MARL_LAKE" "LACUSTRINE_DEPOSITS"
1373.2 "6608_11-1"  85.3500 "Limestone" "Clay" -999.25  40.0000 60.00000 0.0 "silt" "silt" "SHALLOW_LACUSTRINE_DEPOSITS_HARD-WATER_MARL_LAKE" "LACUSTRINE_DEPOSITS"
1373.3 "6608_11-1"  84.4200 "Limestone" "Clay" -999.25  40.0000 60.00000 0.0 "silt" "silt" "SHALLOW_LACUSTRINE_DEPOSITS_HARD-WATER_MARL_LAKE" "LACUSTRINE_DEPOSITS"
1373.4 "6608_11-1"  82.9500 "Limestone" "Clay" -999.25  40.0000 60.00000 0.0 "silt" "silt" "SHALLOW_LACUSTRINE_DEPOSITS_HARD-WATER_MARL_LAKE" "LACUSTRINE_DEPOSITS"
1373.5 "6608_11-1"  81.4800 "Limestone" "Clay" -999.25  40.0000 60.00000 0.0 "silt" "silt" "SHALLOW_LACUSTRINE_DEPOSITS_HARD-WATER_MARL_LAKE" "LACUSTRINE_DEPOSITS"
1373.6 "6608_11-1"  80.0100 "Limestone" "Clay" -999.25  40.0000 60.00000 0.0 "silt" "silt" "SHALLOW_LACUSTRINE_DEPOSITS_HARD-WATER_MARL_LAKE" "LACUSTRINE_DEPOSITS"
1373.7 "6608_11-1"  78.6900 "Limestone" "Coal" -999.25 100.0000      0.0 0.0 "c/vc" "c/vc" "SHALLOW_LACUSTRINE_DEPOSITS_HARD-WATER_MARL_LAKE" "LACUSTRINE_DEPOSITS"
1373.8 "6608_11-1"  79.2600 "Limestone" "Coal" -999.25 100.0000      0.0 0.0 "c/vc" "c/vc" "SHALLOW_LACUSTRINE_DEPOSITS_HARD-WATER_MARL_LAKE" "LACUSTRINE_DEPOSITS"
1373.9 "6608_11-1"  81.3200 "Limestone" "Clay" -999.25  50.0000 50.00000 0.0 "silt" "silt" "SHALLOW_LACUSTRINE_DEPOSITS_HARD-WATER_MARL_LAKE" "LACUSTRINE_DEPOSITS"
1374.0 "6608_11-1"  85.2600 "Limestone" "Clay" -999.25  50.0000 50.00000 0.0 "silt" "silt" "SHALLOW_LACUSTRINE_DEPOSITS_HARD-WATER_MARL_LAKE" "LACUSTRINE_DEPOSITS"
1374.1 "6608_11-1"  85.5800 "Limestone" "Clay" -999.25  50.0000 50.00000 0.0 "silt" "silt" "SHALLOW_LACUSTRINE_DEPOSITS_HARD-WATER_MARL_LAKE" "LACUSTRINE_DEPOSITS"
1374.2 "6608_11-1"  84.0500 "Limestone" "Clay" -999.25  50.0000 50.00000 0.0 "silt" "silt" "SHALLOW_LACUSTRINE_DEPOSITS_HARD-WATER_MARL_LAKE" "LACUSTRINE_DEPOSITS"
1374.3 "6608_11-1"  82.5100 "Limestone" "Clay" -999.25  50.0000 50.00000 0.0 "silt" "silt" "SHALLOW_LACUSTRINE_DEPOSITS_HARD-WATER_MARL_LAKE" "LACUSTRINE_DEPOSITS"
1374.4 "6608_11-1"  82.2300 "Limestone" "Clay" -999.25  50.0000 50.00000 0.0 "silt" "silt" "SHALLOW_LACUSTRINE_DEPOSITS_HARD-WATER_MARL_LAKE" "LACUSTRINE_DEPOSITS"
1374.5 "6608_11-1"  83.3100 "Limestone" "Clay" -999.25  50.0000 50.00000 0.0 "silt" "silt" "SHALLOW_LACUSTRINE_DEPOSITS_HARD-WATER_MARL_LAKE" "LACUSTRINE_DEPOSITS"
1374.6 "6608_11-1"  85.3600 "Limestone" "Clay" -999.25  50.0000 50.00000 0.0 "silt" "silt" "SHALLOW_LACUSTRINE_DEPOSITS_HARD-WATER_MARL_LAKE" "LACUSTRINE_DEPOSITS"
1374.7 "6608_11-1"  87.5300 "Limestone" "Clay" -999.25  50.0000 50.00000 0.0 "silt" "silt" "SHALLOW_LACUSTRINE_DEPOSITS_HARD-WATER_MARL_LAKE" "LACUSTRINE_DEPOSITS"
1374.8 "6608_11-1"  89.7000 "Limestone" "Clay" -999.25  50.0000 50.00000 0.0 "silt" "silt" "SHALLOW_LACUSTRINE_DEPOSITS_HARD-WATER_MARL_LAKE" "LACUSTRINE_DEPOSITS"
1374.9 "6608_11-1"  88.8900 "Limestone" "Clay" -999.25  50.0000 50.00000 0.0 "silt" "silt" "SHALLOW_LACUSTRINE_DEPOSITS_HARD-WATER_MARL_LAKE" "LACUSTRINE_DEPOSITS"
1375.0 "6608_11-1"  87.2000 "Limestone" "Clay" -999.25  50.0000 50.00000 0.0 "silt" "silt" "SHALLOW_LACUSTRINE_DEPOSITS_HARD-WATER_MARL_LAKE" "LACUSTRINE_DEPOSITS"
1375.1 "6608_11-1"  85.1000 "Limestone" "Clay" -999.25  50.0000 50.00000 0.0 "silt" "silt" "SHALLOW_LACUSTRINE_DEPOSITS_HARD-WATER_MARL_LAKE" "LACUSTRINE_DEPOSITS"
1375.2 "6608_11-1"  82.9900 "Limestone" "Clay" -999.25  50.0000 50.00000 0.0 "silt" "silt" "SHALLOW_LACUSTRINE_DEPOSITS_HARD-WATER_MARL_LAKE" "LACUSTRINE_DEPOSITS"
1375.3 "6608_11-1"  80.8900 "Limestone" "Clay" -999.25  50.0000 50.00000 0.0 "silt" "silt" "SHALLOW_LACUSTRINE_DEPOSITS_HARD-WATER_MARL_LAKE" "LACUSTRINE_DEPOSITS"
1375.4 "6608_11-1"  80.0900 "Limestone" "Clay" -999.25  50.0000 50.00000 0.0 "silt" "silt" "SHALLOW_LACUSTRINE_DEPOSITS_HARD-WATER_MARL_LAKE" "LACUSTRINE_DEPOSITS"
1375.5 "6608_11-1"  85.2100 "Limestone" "Clay" -999.25  50.0000 50.00000 0.0 "silt" "silt" "SHALLOW_LACUSTRINE_DEPOSITS_HARD-WATER_MARL_LAKE" "LACUSTRINE_DEPOSITS"
1375.6 "6608_11-1"  89.5100 "Limestone" "Clay" -999.25  50.0000 50.00000 0.0 "silt" "silt" "SHALLOW_LACUSTRINE_DEPOSITS_HARD-WATER_MARL_LAKE" "LACUSTRINE_DEPOSITS"
1375.7 "6608_11-1"  88.8700 "Limestone" "Clay" -999.25  50.0000 50.00000 0.0 "silt" "silt" "SHALLOW_LACUSTRINE_DEPOSITS_HARD-WATER_MARL_LAKE" "LACUSTRINE_DEPOSITS"
1375.8 "6608_11-1"  88.0300 "Limestone" "Clay" -999.25  50.0000 50.00000 0.0 "silt" "silt" "SHALLOW_LACUSTRINE_DEPOSITS_HARD-WATER_MARL_LAKE" "LACUSTRINE_DEPOSITS"
1375.9 "6608_11-1"  88.7300 "Limestone" "Clay" -999.25  50.0000 50.00000 0.0 "silt" "silt" "SHALLOW_LACUSTRINE_DEPOSITS_HARD-WATER_MARL_LAKE" "LACUSTRINE_DEPOSITS"
1376.0 "6608_11-1"  90.4800 "Limestone" "Clay" -999.25  50.0000 50.00000 0.0 "silt" "silt" "SHALLOW_LACUSTRINE_DEPOSITS_HARD-WATER_MARL_LAKE" "LACUSTRINE_DEPOSITS"
1376.1 "6608_11-1"  92.2500 "Limestone" "Clay" -999.25  50.0000 50.00000 0.0 "silt" "silt" "SHALLOW_LACUSTRINE_DEPOSITS_HARD-WATER_MARL_LAKE" "LACUSTRINE_DEPOSITS"
1376.2 "6608_11-1"  94.0300 "Limestone" "Clay" -999.25  50.0000 50.00000 0.0 "silt" "silt" "SHALLOW_LACUSTRINE_DEPOSITS_HARD-WATER_MARL_LAKE" "LACUSTRINE_DEPOSITS"
1376.3 "6608_11-1"  95.8000 "Limestone" "Clay" -999.25  50.0000 50.00000 0.0 "silt" "silt" "SHALLOW_LACUSTRINE_DEPOSITS_HARD-WATER_MARL_LAKE" "LACUSTRINE_DEPOSITS"
1376.4 "6608_11-1"  97.5700 "Limestone" "Clay" -999.25  50.0000 50.00000 0.0 "silt" "silt" "SHALLOW_LACUSTRINE_DEPOSITS_HARD-WATER_MARL_LAKE" "LACUSTRINE_DEPOSITS"
1376.5 "6608_11-1"  99.3400 "Limestone" "Clay" -999.25  50.0000 50.00000 0.0 "silt" "silt" "SHALLOW_LACUSTRINE_DEPOSITS_HARD-WATER_MARL_LAKE" "LACUSTRINE_DEPOSITS"
1376.6 "6608_11-1" 100.9800 "Limestone" "Coal" -999.25 100.0000      0.0 0.0 "c/vc" "c"  "SHALLOW_LACUSTRINE_DEPOSITS_HARD-WATER_MARL_LAKE" "LACUSTRINE_DEPOSITS"
1376.7 "6608_11-1" 100.4100 "Limestone" "Coal" -999.25 100.0000      0.0 0.0 "c/vc" "c"  "SHALLOW_LACUSTRINE_DEPOSITS_HARD-WATER_MARL_LAKE" "LACUSTRINE_DEPOSITS"
1376.8 "6608_11-1"  98.2000 "Limestone" "Coal" -999.25 100.0000      0.0 0.0 "c/vc" "c"  "SHALLOW_LACUSTRINE_DEPOSITS_HARD-WATER_MARL_LAKE" "LACUSTRINE_DEPOSITS"
