~Version
VERS  .                                 3.0 : CWLS LAS ASCII Standard - Version 3.0
WRAP  . NO                                  : One line per depth step
DLM   . SPACE                               : Column data section delimiter
SOURCE. Converted to LAS by Log Studio 4.76 : GeoProvider

~Well
STRT.         1372.0 : Start depth
STOP.         1398.0 : Stop depth
STEP.              1 : Step
NULL.        -999.25 : No-value
COMP.                : Company
WELL. 6608/11-1      : Well
FLD .                : Field
LOC .                : Location
LATI.                : Latitude
LONG.                : Longitude
GDAT.                : Geodetic datum
CNTY.                : County
STAT.                : State
CTRY.                : Country
SRVC. GeoProvider AS : Service company
DATE.                : Date
API .                : API number
RUN .                : Run number

~Parameters
WellboreName.  : Wellbore name
RigName     .  : Rig name
StartDate   .  : Start date

~Curves
DEPTH.m            .  : null {F}Depth mMD
Hole_ID.-          .  : null {S}Hole ID
GR.API             .  : null {F}Gamma Ray
Lithology1.-       .  : null {S}Lithology 1
Lithology2.-       .  : null {S}Lithology 2
Lithology3.-       .  : null {S}Lithology 3
Lithology1.%       .  : null {F}Lithology 1 percentage
Lithology2.%       .  : null {F}Lithology 2 percentage
Lithology3.%       .  : null {F}Lithology 3 percentage
Grain_size_Top.-   .  : null {S}Grain size at the top 
Grain_size_Base.-  .  : null {S}Grain size at the bottom
Sub_Environment.-  .  : null {S}Sub Environment
Gross_Environment.-.  : null {S}Gross Environment

~Ascii
# ...
1376.9 "6608_11-1"  95.9900 "Limestone" "Coal" -999.25 100.0000      0.0 0.0 "c/vc" "c"  "SHALLOW_LACUSTRINE_DEPOSITS_HARD-WATER_MARL_LAKE" "LACUSTRINE_DEPOSITS"
1377.0 "6608_11-1"  92.6900 "Limestone" "Coal" -999.25 100.0000      0.0 0.0 "c/vc" "c"  "SHALLOW_LACUSTRINE_DEPOSITS_HARD-WATER_MARL_LAKE" "LACUSTRINE_DEPOSITS"
1377.1 "6608_11-1"  89.1300 "Limestone" "Clay" -999.25  45.0000 55.00000 0.0 "vf" "vf" "SHALLOW_LACUSTRINE_DEPOSITS_HARD-WATER_MARL_LAKE" "LACUSTRINE_DEPOSITS"
1377.2 "6608_11-1"  85.5700 "Limestone" "Clay" -999.25  45.0000 55.00000 0.0 "vf" "vf" "SHALLOW_LACUSTRINE_DEPOSITS_HARD-WATER_MARL_LAKE" "LACUSTRINE_DEPOSITS"
1377.3 "6608_11-1"  82.2100 "Limestone" "Clay" -999.25  45.0000 55.00000 0.0 "vf" "vf" "SHALLOW_LACUSTRINE_DEPOSITS_HARD-WATER_MARL_LAKE" "LACUSTRINE_DEPOSITS"
1377.4 "6608_11-1"  82.0400 "Limestone" "Clay" -999.25  45.0000 55.00000 0.0 "vf" "vf" "SHALLOW_LACUSTRINE_DEPOSITS_HARD-WATER_MARL_LAKE" "LACUSTRINE_DEPOSITS"
1377.5 "6608_11-1"  81.8700 "Limestone" "Clay" -999.25  55.0000 45.00000 0.0 "m"  "m"  "SHALLOW_LACUSTRINE_DEPOSITS_HARD-WATER_MARL_LAKE" "LACUSTRINE_DEPOSITS"
1377.6 "6608_11-1"  80.4700 "Limestone" "Clay" -999.25  55.0000 45.00000 0.0 "m"  "m"  "SHALLOW_LACUSTRINE_DEPOSITS_HARD-WATER_MARL_LAKE" "LACUSTRINE_DEPOSITS"
1377.7 "6608_11-1"  78.5500 "Limestone" "Clay" -999.25  55.0000 45.00000 0.0 "m"  "m"  "SHALLOW_LACUSTRINE_DEPOSITS_HARD-WATER_MARL_LAKE" "LACUSTRINE_DEPOSITS"
1377.8 "6608_11-1"  76.6400 "Limestone" "Clay" -999.25  55.0000 45.00000 0.0 "m"  "m"  "SHALLOW_LACUSTRINE_DEPOSITS_HARD-WATER_MARL_LAKE" "LACUSTRINE_DEPOSITS"
1377.9 "6608_11-1"  75.0200 "Limestone" "Clay" -999.25  55.0000 45.00000 0.0 "m"  "m"  "SHALLOW_LACUSTRINE_DEPOSITS_HARD-WATER_MARL_LAKE" "LACUSTRINE_DEPOSITS"
1378.0 "6608_11-1"  75.7700 "Limestone" "Clay" -999.25  55.0000 45.00000 0.0 "m"  "m"  "SHALLOW_LACUSTRINE_DEPOSITS_HARD-WATER_MARL_LAKE" "LACUSTRINE_DEPOSITS"
1378.1 "6608_11-1"  77.2400 "Limestone" "Clay" -999.25  55.0000 45.00000 0.0 "m"  "m"  "SHALLOW_LACUSTRINE_DEPOSITS_HARD-WATER_MARL_LAKE" "LACUSTRINE_DEPOSITS"
1378.2 "6608_11-1"  78.7000 "Limestone" "Clay" -999.25  45.0000 55.00000 0.0 "silt" "silt" "SHALLOW_LACUSTRINE_DEPOSITS_HARD-WATER_MARL_LAKE" "LACUSTRINE_DEPOSITS"
1378.3 "6608_11-1"  80.1700 "Limestone" "Clay" -999.25  45.0000 55.00000 0.0 "silt" "silt" "SHALLOW_LACUSTRINE_DEPOSITS_HARD-WATER_MARL_LAKE" "LACUSTRINE_DEPOSITS"
1378.4 "6608_11-1"  81.5300 "Limestone" "Clay" -999.25  45.0000 55.00000 0.0 "silt" "silt" "SHALLOW_LACUSTRINE_DEPOSITS_HARD-WATER_MARL_LAKE" "LACUSTRINE_DEPOSITS"
1378.5 "6608_11-1"  82.8300 "Limestone" "Clay" -999.25  45.0000 55.00000 0.0 "silt" "silt" "SHALLOW_LACUSTRINE_DEPOSITS_HARD-WATER_MARL_LAKE" "LACUSTRINE_DEPOSITS"
1378.6 "6608_11-1"  84.0200 "Limestone" "Clay" -999.25  45.0000 55.00000 0.0 "silt" "silt" "SHALLOW_LACUSTRINE_DEPOSITS_HARD-WATER_MARL_LAKE" "LACUSTRINE_DEPOSITS"
1378.7 "6608_11-1"  83.9600 "Limestone" "Clay" -999.25  45.0000 55.00000 0.0 "silt" "silt" "SHALLOW_LACUSTRINE_DEPOSITS_HARD-WATER_MARL_LAKE" "LACUSTRINE_DEPOSITS"
1378.8 "6608_11-1"  83.2200 "Limestone" "Clay" -999.25  45.0000 55.00000 0.0 "silt" "silt" "SHALLOW_LACUSTRINE_DEPOSITS_HARD-WATER_MARL_LAKE" "LACUSTRINE_DEPOSITS"
1378.9 "6608_11-1"  81.5800 "Limestone" "Clay" -999.25  45.0000 55.00000 0.0 "silt" "silt" "SHALLOW_LACUSTRINE_DEPOSITS_HARD-WATER_MARL_LAKE" "LACUSTRINE_DEPOSITS"
1379.0 "6608_11-1"  79.5100 "Limestone" "Clay" -999.25  45.0000 55.00000 0.0 "silt" "silt" "SHALLOW_LACUSTRINE_DEPOSITS_HARD-WATER_MARL_LAKE" "LACUSTRINE_DEPOSITS"
1379.1 "6608_11-1"  77.4400 "Limestone" "Clay" -999.25  45.0000 55.00000 0.0 "silt" "silt" "SHALLOW_LACUSTRINE_DEPOSITS_HARD-WATER_MARL_LAKE" "LACUSTRINE_DEPOSITS"
1379.2 "6608_11-1"  75.3700 "Limestone" "Clay" -999.25  45.0000 55.00000 0.0 "silt" "silt" "SHALLOW_LACUSTRINE_DEPOSITS_HARD-WATER_MARL_LAKE" "LACUSTRINE_DEPOSITS"
1379.3 "6608_11-1"  73.3000 "Limestone" "Clay" -999.25  45.0000 55.00000 0.0 "silt" "silt" "SHALLOW_LACUSTRINE_DEPOSITS_HARD-WATER_MARL_LAKE" "LACUSTRINE_DEPOSITS"
1379.4 "6608_11-1"  71.2300 "Limestone" "Clay" -999.25  45.0000 55.00000 0.0 "silt" "silt" "SHALLOW_LACUSTRINE_DEPOSITS_HARD-WATER_MARL_LAKE" "LACUSTRINE_DEPOSITS"
1379.5 "6608_11-1"  70.7300 "Limestone" "Clay" -999.25  45.0000 55.00000 0.0 "silt" "silt" "Exposure"                                       "LACUSTRINE_DEPOSITS"
1379.6 "6608_11-1"  72.5500 "Limestone" "Clay" -999.25  45.0000 55.00000 0.0 "silt" "silt" "Exposure"                                       "LACUSTRINE_DEPOSITS"
1379.7 "6608_11-1"  74.3800 "Limestone" "Clay" -999.25  45.0000 55.00000 0.0 "silt" "silt" "Exposure"                                       "LACUSTRINE_DEPOSITS"
1379.8 "6608_11-1"  76.7100 "Limestone" "Clay" -999.25  45.0000 55.00000 0.0 "silt" "silt" "Exposure"                                       "LACUSTRINE_DEPOSITS"
1379.9 "6608_11-1"  79.0600 "Limestone" "Clay" -999.25  45.0000 55.00000 0.0 "silt" "silt" "Exposure"                                       "LACUSTRINE_DEPOSITS"
1380.0 "6608_11-1"  81.4000 "Limestone" "Clay" -999.25  45.0000 55.00000 0.0 "silt" "silt" "Exposure"                                       "LACUSTRINE_DEPOSITS"
1380.1 "6608_11-1"  83.7400 "Limestone" "Clay" -999.25  70.0000 30.00000 0.0 "silt" "silt" "SHALLOW_LACUSTRINE_DEPOSITS_HARD-WATER_MARL_LAKE" "LACUSTRINE_DEPOSITS"
1380.2 "6608_11-1"  85.7500 "Limestone" "Clay" -999.25  70.0000 30.00000 0.0 "silt" "silt" "SHALLOW_LACUSTRINE_DEPOSITS_HARD-WATER_MARL_LAKE" "LACUSTRINE_DEPOSITS"
1380.3 "6608_11-1"  85.9600 "Limestone" "Clay" -999.25  70.0000 30.00000 0.0 "silt" "silt" "SHALLOW_LACUSTRINE_DEPOSITS_HARD-WATER_MARL_LAKE" "LACUSTRINE_DEPOSITS"
1380.4 "6608_11-1"  85.9100 "Limestone" "Clay" -999.25  70.0000 30.00000 0.0 "silt" "silt" "SHALLOW_LACUSTRINE_DEPOSITS_HARD-WATER_MARL_LAKE" "LACUSTRINE_DEPOSITS"
1380.5 "6608_11-1"  85.0900 "Limestone" "Clay" -999.25  55.0000 45.00000 0.0 "silt" "silt" "SHALLOW_LACUSTRINE_DEPOSITS_HARD-WATER_MARL_LAKE" "LACUSTRINE_DEPOSITS"
1380.6 "6608_11-1"  84.2700 "Limestone" "Clay" -999.25  55.0000 45.00000 0.0 "silt" "silt" "SHALLOW_LACUSTRINE_DEPOSITS_HARD-WATER_MARL_LAKE" "LACUSTRINE_DEPOSITS"
1380.7 "6608_11-1"  83.4600 "Limestone" "Clay" -999.25  55.0000 45.00000 0.0 "silt" "silt" "SHALLOW_LACUSTRINE_DEPOSITS_HARD-WATER_MARL_LAKE" "LACUSTRINE_DEPOSITS"
1380.8 "6608_11-1"  82.6400 "Limestone" "Clay" -999.25  55.0000 45.00000 0.0 "silt" "silt" "SHALLOW_LACUSTRINE_DEPOSITS_HARD-WATER_MARL_LAKE" "LACUSTRINE_DEPOSITS"
1380.9 "6608_11-1"  81.9000 "Limestone" "Clay" -999.25  55.0000 45.00000 0.0 "silt" "silt" "SHALLOW_LACUSTRINE_DEPOSITS_HARD-WATER_MARL_LAKE" "LACUSTRINE_DEPOSITS"
1381.0 "6608_11-1"  81.9700 "Limestone" "Clay" -999.25  55.0000 45.00000 0.0 "silt" "silt" "SHALLOW_LACUSTRINE_DEPOSITS_HARD-WATER_MARL_LAKE" "LACUSTRINE_DEPOSITS"
1381.1 "6608_11-1"  82.8100 "Limestone" "Clay" -999.25  55.0000 45.00000 0.0 "silt" "silt" "SHALLOW_LACUSTRINE_DEPOSITS_HARD-WATER_MARL_LAKE" "LACUSTRINE_DEPOSITS"
1381.2 "6608_11-1"  85.1200 "Limestone" "Clay" -999.25  55.0000 45.00000 0.0 "silt" "silt" "SHALLOW_LACUSTRINE_DEPOSITS_HARD-WATER_MARL_LAKE" "LACUSTRINE_DEPOSITS"
1381.3 "6608_11-1"  88.1000 "Limestone" "Clay" -999.25  55.0000 45.00000 0.0 "silt" "silt" "SHALLOW_LACUSTRINE_DEPOSITS_HARD-WATER_MARL_LAKE" "LACUSTRINE_DEPOSITS"
1381.4 "6608_11-1"  90.7400 "Limestone" "Clay" -999.25  55.0000 45.00000 0.0 "silt" "silt" "SHALLOW_LACUSTRINE_DEPOSITS_HARD-WATER_MARL_LAKE" "LACUSTRINE_DEPOSITS"
1381.5 "6608_11-1"  90.2200 "Limestone" "Clay" -999.25  55.0000 45.00000 0.0 "silt" "silt" "SHALLOW_LACUSTRINE_DEPOSITS_HARD-WATER_MARL_LAKE" "LACUSTRINE_DEPOSITS"
1381.6 "6608_11-1"  88.3800 "Limestone" "Clay" -999.25  55.0000 45.00000 0.0 "silt" "silt" "SHALLOW_LACUSTRINE_DEPOSITS_HARD-WATER_MARL_LAKE" "LACUSTRINE_DEPOSITS"
1381.7 "6608_11-1"  86.4900 "Limestone" "Clay" -999.25  55.0000 45.00000 0.0 "silt" "silt" "SHALLOW_LACUSTRINE_DEPOSITS_HARD-WATER_MARL_LAKE" "LACUSTRINE_DEPOSITS"
1381.8 "6608_11-1"  84.1100 "Limestone" "Clay" -999.25  55.0000 45.00000 0.0 "silt" "silt" "SHALLOW_LACUSTRINE_DEPOSITS_HARD-WATER_MARL_LAKE" "LACUSTRINE_DEPOSITS"
