~Version
VERS  .                                 3.0 : CWLS LAS ASCII Standard - Version 3.0
WRAP  . NO                                  : One line per depth step
DLM   . SPACE                               : Column data section delimiter
SOURCE. Converted to LAS by Log Studio 4.76 : GeoProvider

~Well
STRT.         1372.0 : Start depth
STOP.         1398.0 : Stop depth
STEP.              1 : Step
NULL.        -999.25 : No-value
COMP.                : Company
WELL. 6608/11-1      : Well
FLD .                : Field
LOC .                : Location
LATI.                : Latitude
LONG.                : Longitude
GDAT.                : Geodetic datum
CNTY.                : County
STAT.                : State
CTRY.                : Country
SRVC. GeoProvider AS : Service company
DATE.                : Date
API .                : API number
RUN .                : Run number

~Parameters
WellboreName.  : Wellbore name
RigName     .  : Rig name
StartDate   .  : Start date

~Curves
DEPTH.m            .  : null {F}Depth mMD
Hole_ID.-          .  : null {S}Hole ID
GR.API             .  : null {F}Gamma Ray
Lithology1.-       .  : null {S}Lithology 1
Lithology2.-       .  : null {S}Lithology 2
Lithology3.-       .  : null {S}Lithology 3
Lithology1.%       .  : null {F}Lithology 1 percentage
Lithology2.%       .  : null {F}Lithology 2 percentage
Lithology3.%       .  : null {F}Lithology 3 percentage
Grain_size_Top.-   .  : null {S}Grain size at the top 
Grain_size_Base.-  .  : null {S}Grain size at the bottom
Sub_Environment.-  .  : null {S}Sub Environment
Gross_Environment.-.  : null {S}Gross Environment

~Ascii
# ...
1381.9 "6608_11-1"  81.0300 "Limestone" "Clay" -999.25  55.0000 45.00000 0.0 "silt" "silt" "SHALLOW_LACUSTRINE_DEPOSITS_HARD-WATER_MARL_LAKE" "LACUSTRINE_DEPOSITS"
1382.0 "6608_11-1"  78.3900 "Limestone" "Clay" -999.25  55.0000 45.00000 0.0 "silt" "silt" "SHALLOW_LACUSTRINE_DEPOSITS_HARD-WATER_MARL_LAKE" "LACUSTRINE_DEPOSITS"
1382.1 "6608_11-1"  77.5100 "Limestone" "Clay" -999.25  55.0000 45.00000 0.0 "silt" "silt" "SHALLOW_LACUSTRINE_DEPOSITS_HARD-WATER_MARL_LAKE" "LACUSTRINE_DEPOSITS"
1382.2 "6608_11-1"  77.6700 "Limestone" "Clay" -999.25  55.0000 45.00000 0.0 "silt" "silt" "SHALLOW_LACUSTRINE_DEPOSITS_HARD-WATER_MARL_LAKE" "LACUSTRINE_DEPOSITS"
1382.3 "6608_11-1"  76.5800 "Limestone" "Clay" -999.25  55.0000 45.00000 0.0 "silt" "silt" "SHALLOW_LACUSTRINE_DEPOSITS_HARD-WATER_MARL_LAKE" "LACUSTRINE_DEPOSITS"
1382.4 "6608_11-1"  73.7600 "Limestone" "Clay" -999.25  55.0000 45.00000 0.0 "silt" "silt" "SHALLOW_LACUSTRINE_DEPOSITS_HARD-WATER_MARL_LAKE" "LACUSTRINE_DEPOSITS"
1382.5 "6608_11-1"  71.8500 "Limestone" "Clay" -999.25  55.0000 45.00000 0.0 "silt" "silt" "SHALLOW_LACUSTRINE_DEPOSITS_HARD-WATER_MARL_LAKE" "LACUSTRINE_DEPOSITS"
1382.6 "6608_11-1"  72.8900 "Limestone" "Clay" -999.25  55.0000 45.00000 0.0 "silt" "silt" "SHALLOW_LACUSTRINE_DEPOSITS_HARD-WATER_MARL_LAKE" "LACUSTRINE_DEPOSITS"
1382.7 "6608_11-1"  76.9500 "Limestone" "Clay" -999.25  55.0000 45.00000 0.0 "silt" "silt" "SHALLOW_LACUSTRINE_DEPOSITS_HARD-WATER_MARL_LAKE" "LACUSTRINE_DEPOSITS"
1382.8 "6608_11-1"  80.2300 "Limestone" "Clay" -999.25  55.0000 45.00000 0.0 "silt" "silt" "SHALLOW_LACUSTRINE_DEPOSITS_HARD-WATER_MARL_LAKE" "LACUSTRINE_DEPOSITS"
1382.9 "6608_11-1"  81.8600 "Limestone" "Clay" -999.25  55.0000 45.00000 0.0 "silt" "silt" "SHALLOW_LACUSTRINE_DEPOSITS_HARD-WATER_MARL_LAKE" "LACUSTRINE_DEPOSITS"
1383.0 "6608_11-1"  81.8400 "Limestone" "Clay" -999.25  55.0000 45.00000 0.0 "silt" "silt" "SHALLOW_LACUSTRINE_DEPOSITS_HARD-WATER_MARL_LAKE" "LACUSTRINE_DEPOSITS"
1383.1 "6608_11-1"  80.9900 "Limestone" "Clay" -999.25  55.0000 45.00000 0.0 "silt" "silt" "SHALLOW_LACUSTRINE_DEPOSITS_HARD-WATER_MARL_LAKE" "LACUSTRINE_DEPOSITS"
1383.2 "6608_11-1"  79.9700 "Limestone" "Clay" -999.25  55.0000 45.00000 0.0 "silt" "silt" "SHALLOW_LACUSTRINE_DEPOSITS_HARD-WATER_MARL_LAKE" "LACUSTRINE_DEPOSITS"
1383.3 "6608_11-1"  78.9600 "Limestone" "Clay" -999.25  55.0000 45.00000 0.0 "silt" "silt" "SHALLOW_LACUSTRINE_DEPOSITS_HARD-WATER_MARL_LAKE" "LACUSTRINE_DEPOSITS"
1383.4 "6608_11-1"  78.1000 "Limestone" "Clay" -999.25  55.0000 45.00000 0.0 "silt" "silt" "SHALLOW_LACUSTRINE_DEPOSITS_HARD-WATER_MARL_LAKE" "LACUSTRINE_DEPOSITS"
1383.5 "6608_11-1"  79.8900 "Limestone" "Clay" -999.25  55.0000 45.00000 0.0 "silt" "silt" "SHALLOW_LACUSTRINE_DEPOSITS_HARD-WATER_MARL_LAKE" "LACUSTRINE_DEPOSITS"
1383.6 "6608_11-1"  82.5000 "Limestone" "Clay" -999.25  55.0000 45.00000 0.0 "silt" "silt" "SHALLOW_LACUSTRINE_DEPOSITS_HARD-WATER_MARL_LAKE" "LACUSTRINE_DEPOSITS"
1383.7 "6608_11-1"  85.1300 "Limestone" "Clay" -999.25  55.0000 45.00000 0.0 "silt" "silt" "SHALLOW_LACUSTRINE_DEPOSITS_HARD-WATER_MARL_LAKE" "LACUSTRINE_DEPOSITS"
1383.8 "6608_11-1"  87.3800 "Limestone" "Clay" -999.25  55.0000 45.00000 0.0 "silt" "silt" "SHALLOW_LACUSTRINE_DEPOSITS_HARD-WATER_MARL_LAKE" "LACUSTRINE_DEPOSITS"
1383.9 "6608_11-1"  86.7500 "Limestone" "Clay" -999.25  55.0000 45.00000 0.0 "silt" "silt" "SHALLOW_LACUSTRINE_DEPOSITS_HARD-WATER_MARL_LAKE" "LACUSTRINE_DEPOSITS"
1384.0 "6608_11-1"  85.0700 "Limestone" "Clay" -999.25  55.0000 45.00000 0.0 "silt" "silt" "SHALLOW_LACUSTRINE_DEPOSITS_HARD-WATER_MARL_LAKE" "LACUSTRINE_DEPOSITS"
1384.1 "6608_11-1"  83.3900 "Limestone" "Clay" -999.25  55.0000 45.00000 0.0 "silt" "silt" "SHALLOW_LACUSTRINE_DEPOSITS_HARD-WATER_MARL_LAKE" "LACUSTRINE_DEPOSITS"
1384.2 "6608_11-1"  81.8400 "Limestone" "Clay" -999.25  55.0000 45.00000 0.0 "silt" "silt" "SHALLOW_LACUSTRINE_DEPOSITS_HARD-WATER_MARL_LAKE" "LACUSTRINE_DEPOSITS"
1384.3 "6608_11-1"  81.1600 "Limestone" "Clay" -999.25  55.0000 45.00000 0.0 "silt" "silt" "SHALLOW_LACUSTRINE_DEPOSITS_HARD-WATER_MARL_LAKE" "LACUSTRINE_DEPOSITS"
1384.4 "6608_11-1"  82.1000 "Limestone" "Clay" -999.25  55.0000 45.00000 0.0 "silt" "silt" "SHALLOW_LACUSTRINE_DEPOSITS_HARD-WATER_MARL_LAKE" "LACUSTRINE_DEPOSITS"
1384.5 "6608_11-1"  83.4400 "Limestone" "Clay" -999.25  55.0000 45.00000 0.0 "silt" "silt" "SHALLOW_LACUSTRINE_DEPOSITS_HARD-WATER_MARL_LAKE" "LACUSTRINE_DEPOSITS"
1384.6 "6608_11-1"  84.7700 "Limestone" "Clay" -999.25  55.0000 45.00000 0.0 "silt" "silt" "SHALLOW_LACUSTRINE_DEPOSITS_HARD-WATER_MARL_LAKE" "LACUSTRINE_DEPOSITS"
1384.7 "6608_11-1"  86.3200 "Limestone" "Clay" -999.25  55.0000 45.00000 0.0 "silt" "silt" "SHALLOW_LACUSTRINE_DEPOSITS_HARD-WATER_MARL_LAKE" "LACUSTRINE_DEPOSITS"
1384.8 "6608_11-1"  87.9700 "Limestone" "Clay" -999.25  55.0000 45.00000 0.0 "silt" "silt" "SHALLOW_LACUSTRINE_DEPOSITS_HARD-WATER_MARL_LAKE" "LACUSTRINE_DEPOSITS"
1384.9 "6608_11-1"  89.6200 "Limestone" "Clay" -999.25  55.0000 45.00000 0.0 "silt" "silt" "SHALLOW_LACUSTRINE_DEPOSITS_HARD-WATER_MARL_LAKE" "LACUSTRINE_DEPOSITS"
1385.0 "6608_11-1"  91.1700 "Limestone" "Clay" -999.25  55.0000 45.00000 0.0 "silt" "silt" "SHALLOW_LACUSTRINE_DEPOSITS_HARD-WATER_MARL_LAKE" "LACUSTRINE_DEPOSITS"
1385.1 "6608_11-1"  91.9700 "Limestone" "Clay" -999.25  55.0000 45.00000 0.0 "silt" "silt" "SHALLOW_LACUSTRINE_DEPOSITS_HARD-WATER_MARL_LAKE" "LACUSTRINE_DEPOSITS"
1385.2 "6608_11-1"  91.5200 "Limestone" "Clay" -999.25  55.0000 45.00000 0.0 "silt" "silt" "SHALLOW_LACUSTRINE_DEPOSITS_HARD-WATER_MARL_LAKE" "LACUSTRINE_DEPOSITS"
1385.3 "6608_11-1"  89.6200 "Limestone" "Clay" -999.25  55.0000 45.00000 0.0 "silt" "silt" "SHALLOW_LACUSTRINE_DEPOSITS_HARD-WATER_MARL_LAKE" "LACUSTRINE_DEPOSITS"
1385.4 "6608_11-1"  87.7200 "Limestone" "Clay" -999.25  55.0000 45.00000 0.0 "silt" "silt" "SHALLOW_LACUSTRINE_DEPOSITS_HARD-WATER_MARL_LAKE" "LACUSTRINE_DEPOSITS"
1385.5 "6608_11-1"  85.8200 "Limestone" "Clay" -999.25  55.0000 45.00000 0.0 "silt" "silt" "SHALLOW_LACUSTRINE_DEPOSITS_HARD-WATER_MARL_LAKE" "LACUSTRINE_DEPOSITS"
1385.6 "6608_11-1"  83.9300 "Limestone" "Clay" -999.25  55.0000 45.00000 0.0 "silt" "silt" "SHALLOW_LACUSTRINE_DEPOSITS_HARD-WATER_MARL_LAKE" "LACUSTRINE_DEPOSITS"
1385.7 "6608_11-1"  82.1200 "Limestone" "Clay" -999.25  55.0000 45.00000 0.0 "silt" "silt" "SHALLOW_LACUSTRINE_DEPOSITS_HARD-WATER_MARL_LAKE" "LACUSTRINE_DEPOSITS"
1385.8 "6608_11-1"  82.9700 "Limestone" "Clay" -999.25  55.0000 45.00000 0.0 "silt" "silt" "SHALLOW_LACUSTRINE_DEPOSITS_HARD-WATER_MARL_LAKE" "LACUSTRINE_DEPOSITS"
1385.9 "6608_11-1"  85.8000 "Limestone" "Clay" -999.25  55.0000 45.00000 0.0 "silt" "silt" "SHALLOW_LACUSTRINE_DEPOSITS_HARD-WATER_MARL_LAKE" "LACUSTRINE_DEPOSITS"
1386.0 "6608_11-1"  88.1800 "Limestone" "Clay" -999.25  55.0000 45.00000 0.0 "silt" "silt" "SHALLOW_LACUSTRINE_DEPOSITS_HARD-WATER_MARL_LAKE" "LACUSTRINE_DEPOSITS"
1386.1 "6608_11-1"  87.9600 "Limestone" "Clay" -999.25  55.0000 45.00000 0.0 "silt" "silt" "SHALLOW_LACUSTRINE_DEPOSITS_HARD-WATER_MARL_LAKE" "LACUSTRINE_DEPOSITS"
1386.2 "6608_11-1"  86.0100 "Limestone" "Clay" -999.25  55.0000 45.00000 0.0 "silt" "silt" "SHALLOW_LACUSTRINE_DEPOSITS_HARD-WATER_MARL_LAKE" "LACUSTRINE_DEPOSITS"
1386.3 "6608_11-1"  84.0200 "Limestone" "Clay" -999.25  55.0000 45.00000 0.0 "silt" "silt" "SHALLOW_LACUSTRINE_DEPOSITS_HARD-WATER_MARL_LAKE" "LACUSTRINE_DEPOSITS"
1386.4 "6608_11-1"  82.4100 "Limestone" "Clay" -999.25  55.0000 45.00000 0.0 "silt" "silt" "SHALLOW_LACUSTRINE_DEPOSITS_HARD-WATER_MARL_LAKE" "LACUSTRINE_DEPOSITS"
1386.5 "6608_11-1"  83.7100 "Limestone" "Clay" -999.25  55.0000 45.00000 0.0 "silt" "silt" "SHALLOW_LACUSTRINE_DEPOSITS_HARD-WATER_MARL_LAKE" "LACUSTRINE_DEPOSITS"
1386.6 "6608_11-1"  86.0400 "Limestone" "Clay" -999.25  55.0000 45.00000 0.0 "silt" "silt" "SHALLOW_LACUSTRINE_DEPOSITS_HARD-WATER_MARL_LAKE" "LACUSTRINE_DEPOSITS"
1386.7 "6608_11-1"  88.6500 "Limestone" "Clay" -999.25  55.0000 45.00000 0.0 "silt" "silt" "SHALLOW_LACUSTRINE_DEPOSITS_HARD-WATER_MARL_LAKE" "LACUSTRINE_DEPOSITS"
