~Version
VERS  .                                 3.0 : CWLS LAS ASCII Standard - Version 3.0
WRAP  . NO                                  : One line per depth step
DLM   . SPACE                               : Column data section delimiter
SOURCE. Converted to LAS by Log Studio 4.76 : GeoProvider

~Well
STRT.         1372.0 : Start depth
STOP.         1398.0 : Stop depth
STEP.              1 : Step
NULL.        -999.25 : No-value
COMP.                : Company
WELL. 6608/11-1      : Well
FLD .                : Field
LOC .                : Location
LATI.                : Latitude
LONG.                : Longitude
GDAT.                : Geodetic datum
CNTY.                : County
STAT.                : State
CTRY.                : Country
SRVC. GeoProvider AS : Service company
DATE.                : Date
API .                : API number
RUN .                : Run number

~Parameters
WellboreName.  : Wellbore name
RigName     .  : Rig name
StartDate   .  : Start date

~Curves
DEPTH.m            .  : null {F}Depth mMD
Hole_ID.-          .  : null {S}Hole ID
GR.API             .  : null {F}Gamma Ray
Lithology1.-       .  : null {S}Lithology 1
Lithology2.-       .  : null {S}Lithology 2
Lithology3.-       .  : null {S}Lithology 3
Lithology1.%       .  : null {F}Lithology 1 percentage
Lithology2.%       .  : null {F}Lithology 2 percentage
Lithology3.%       .  : null {F}Lithology 3 percentage
Grain_size_Top.-   .  : null {S}Grain size at the top 
Grain_size_Base.-  .  : null {S}Grain size at the bottom
Sub_Environment.-  .  : null {S}Sub Environment
Gross_Environment.-.  : null {S}Gross Environment

~Ascii
# ...
1386.8 "6608_11-1"  89.6800 "Limestone" "Clay" -999.25  55.0000 45.00000 0.0 "silt" "silt" "SHALLOW_LACUSTRINE_DEPOSITS_HARD-WATER_MARL_LAKE" "LACUSTRINE_DEPOSITS"
1386.9 "6608_11-1"  87.7000 "Limestone" "Clay" -999.25  55.0000 45.00000 0.0 "silt" "silt" "SHALLOW_LACUSTRINE_DEPOSITS_HARD-WATER_MARL_LAKE" "LACUSTRINE_DEPOSITS"
1387.0 "6608_11-1"  86.1400 "Limestone" "Clay" -999.25  55.0000 45.00000 0.0 "silt" "silt" "SHALLOW_LACUSTRINE_DEPOSITS_HARD-WATER_MARL_LAKE" "LACUSTRINE_DEPOSITS"
1387.1 "6608_11-1"  85.8700 "Limestone" "Clay" -999.25  55.0000 45.00000 0.0 "silt" "silt" "SHALLOW_LACUSTRINE_DEPOSITS_HARD-WATER_MARL_LAKE" "LACUSTRINE_DEPOSITS"
1387.2 "6608_11-1"  85.4700 "Limestone" "Clay" -999.25  55.0000 45.00000 0.0 "silt" "silt" "SHALLOW_LACUSTRINE_DEPOSITS_HARD-WATER_MARL_LAKE" "LACUSTRINE_DEPOSITS"
1387.3 "6608_11-1"  83.8000 "Limestone" "Clay" -999.25  55.0000 45.00000 0.0 "silt" "silt" "SHALLOW_LACUSTRINE_DEPOSITS_HARD-WATER_MARL_LAKE" "LACUSTRINE_DEPOSITS"
1387.4 "6608_11-1"  81.4900 "Limestone" "Clay" -999.25  55.0000 45.00000 0.0 "silt" "silt" "SHALLOW_LACUSTRINE_DEPOSITS_HARD-WATER_MARL_LAKE" "LACUSTRINE_DEPOSITS"
1387.5 "6608_11-1"  80.2200 "Limestone" "Clay" -999.25  55.0000 45.00000 0.0 "silt" "silt" "SHALLOW_LACUSTRINE_DEPOSITS_HARD-WATER_MARL_LAKE" "LACUSTRINE_DEPOSITS"
1387.6 "6608_11-1"  81.9300 "Limestone" "Clay" -999.25  55.0000 45.00000 0.0 "silt" "silt" "SHALLOW_LACUSTRINE_DEPOSITS_HARD-WATER_MARL_LAKE" "LACUSTRINE_DEPOSITS"
1387.7 "6608_11-1"  86.2300 "Limestone" "Clay" -999.25  55.0000 45.00000 0.0 "silt" "silt" "SHALLOW_LACUSTRINE_DEPOSITS_HARD-WATER_MARL_LAKE" "LACUSTRINE_DEPOSITS"
1387.8 "6608_11-1"  90.5300 "Limestone" "Clay" -999.25  55.0000 45.00000 0.0 "silt" "silt" "SHALLOW_LACUSTRINE_DEPOSITS_HARD-WATER_MARL_LAKE" "LACUSTRINE_DEPOSITS"
1387.9 "6608_11-1"  94.8400 "Limestone" "Clay" -999.25  55.0000 45.00000 0.0 "silt" "silt" "SHALLOW_LACUSTRINE_DEPOSITS_HARD-WATER_MARL_LAKE" "LACUSTRINE_DEPOSITS"
1388.0 "6608_11-1"  97.3100 "Limestone" "Clay" -999.25  55.0000 45.00000 0.0 "silt" "silt" "SHALLOW_LACUSTRINE_DEPOSITS_HARD-WATER_MARL_LAKE" "LACUSTRINE_DEPOSITS"
1388.1 "6608_11-1"  95.2200 "Limestone" "Clay" -999.25  55.0000 45.00000 0.0 "silt" "silt" "SHALLOW_LACUSTRINE_DEPOSITS_HARD-WATER_MARL_LAKE" "LACUSTRINE_DEPOSITS"
1388.2 "6608_11-1"  91.4600 "Limestone" "Clay" -999.25  55.0000 45.00000 0.0 "silt" "silt" "SHALLOW_LACUSTRINE_DEPOSITS_HARD-WATER_MARL_LAKE" "LACUSTRINE_DEPOSITS"
1388.3 "6608_11-1"  89.2100 "Limestone" "Clay" -999.25  55.0000 45.00000 0.0 "silt" "silt" "SHALLOW_LACUSTRINE_DEPOSITS_HARD-WATER_MARL_LAKE" "LACUSTRINE_DEPOSITS"
1388.4 "6608_11-1"  89.3000 "Limestone" "Clay" -999.25  55.0000 45.00000 0.0 "silt" "silt" "SHALLOW_LACUSTRINE_DEPOSITS_HARD-WATER_MARL_LAKE" "LACUSTRINE_DEPOSITS"
1388.5 "6608_11-1"  90.0800 "Limestone" "Clay" -999.25  55.0000 45.00000 0.0 "silt" "silt" "SHALLOW_LACUSTRINE_DEPOSITS_HARD-WATER_MARL_LAKE" "LACUSTRINE_DEPOSITS"
1388.6 "6608_11-1"  91.4200 "Limestone" "Clay" -999.25  55.0000 45.00000 0.0 "silt" "silt" "SHALLOW_LACUSTRINE_DEPOSITS_HARD-WATER_MARL_LAKE" "LACUSTRINE_DEPOSITS"
1388.7 "6608_11-1"  91.5500 "Limestone" "Clay" -999.25  55.0000 45.00000 0.0 "silt" "silt" "SHALLOW_LACUSTRINE_DEPOSITS_HARD-WATER_MARL_LAKE" "LACUSTRINE_DEPOSITS"
1388.8 "6608_11-1"  90.7700 "Limestone" "Clay" -999.25  55.0000 45.00000 0.0 "silt" "silt" "SHALLOW_LACUSTRINE_DEPOSITS_HARD-WATER_MARL_LAKE" "LACUSTRINE_DEPOSITS"
1388.9 "6608_11-1"  89.7300 "Limestone" "Clay" -999.25  55.0000 45.00000 0.0 "silt" "silt" "SHALLOW_LACUSTRINE_DEPOSITS_HARD-WATER_MARL_LAKE" "LACUSTRINE_DEPOSITS"
1389.0 "6608_11-1"  88.5500 "Limestone" "Clay" -999.25  55.0000 45.00000 0.0 "silt" "silt" "SHALLOW_LACUSTRINE_DEPOSITS_HARD-WATER_MARL_LAKE" "LACUSTRINE_DEPOSITS"
1389.1 "6608_11-1"  87.3700 "Limestone" "Clay" -999.25  55.0000 45.00000 0.0 "silt" "silt" "SHALLOW_LACUSTRINE_DEPOSITS_HARD-WATER_MARL_LAKE" "LACUSTRINE_DEPOSITS"
1389.2 "6608_11-1"  86.3400 "Limestone" "Clay" -999.25  55.0000 45.00000 0.0 "silt" "silt" "SHALLOW_LACUSTRINE_DEPOSITS_HARD-WATER_MARL_LAKE" "LACUSTRINE_DEPOSITS"
1389.3 "6608_11-1"  86.0300 "Limestone" "Clay" -999.25  55.0000 45.00000 0.0 "silt" "silt" "SHALLOW_LACUSTRINE_DEPOSITS_HARD-WATER_MARL_LAKE" "LACUSTRINE_DEPOSITS"
1389.4 "6608_11-1"  86.8700 "Limestone" "Clay" -999.25  55.0000 45.00000 0.0 "silt" "silt" "SHALLOW_LACUSTRINE_DEPOSITS_HARD-WATER_MARL_LAKE" "LACUSTRINE_DEPOSITS"
1389.5 "6608_11-1"  90.5600 "Limestone" "Clay" -999.25  55.0000 45.00000 0.0 "silt" "silt" "SHALLOW_LACUSTRINE_DEPOSITS_HARD-WATER_MARL_LAKE" "LACUSTRINE_DEPOSITS"
1389.6 "6608_11-1"  94.6700 "Limestone" "Clay" -999.25  55.0000 45.00000 0.0 "silt" "silt" "SHALLOW_LACUSTRINE_DEPOSITS_HARD-WATER_MARL_LAKE" "LACUSTRINE_DEPOSITS"
1389.7 "6608_11-1"  99.2200 "Limestone" "Clay" -999.25  55.0000 45.00000 0.0 "silt" "silt" "SHALLOW_LACUSTRINE_DEPOSITS_HARD-WATER_MARL_LAKE" "LACUSTRINE_DEPOSITS"
1389.8 "6608_11-1" 100.5200 "Limestone" "Clay" -999.25  55.0000 45.00000 0.0 "silt" "silt" "SHALLOW_LACUSTRINE_DEPOSITS_HARD-WATER_MARL_LAKE" "LACUSTRINE_DEPOSITS"
1389.9 "6608_11-1" 100.8800 "Limestone" "Clay" -999.25  55.0000 45.00000 0.0 "silt" "silt" "SHALLOW_LACUSTRINE_DEPOSITS_HARD-WATER_MARL_LAKE" "LACUSTRINE_DEPOSITS"
1390.0 "6608_11-1" 101.3400 "Limestone" "Clay" -999.25  55.0000 45.00000 0.0 "silt" "silt" "SHALLOW_LACUSTRINE_DEPOSITS_HARD-WATER_MARL_LAKE" "LACUSTRINE_DEPOSITS"
1390.1 "6608_11-1" 103.5200 "Limestone" "Clay" -999.25  55.0000 45.00000 0.0 "silt" "silt" "SHALLOW_LACUSTRINE_DEPOSITS_HARD-WATER_MARL_LAKE" "LACUSTRINE_DEPOSITS"
1390.2 "6608_11-1" 106.0100 "Limestone" "Clay" -999.25  55.0000 45.00000 0.0 "silt" "silt" "SHALLOW_LACUSTRINE_DEPOSITS_HARD-WATER_MARL_LAKE" "LACUSTRINE_DEPOSITS"
1390.3 "6608_11-1" 108.5000 "Limestone" "Clay" -999.25  55.0000 45.00000 0.0 "silt" "silt" "SHALLOW_LACUSTRINE_DEPOSITS_HARD-WATER_MARL_LAKE" "LACUSTRINE_DEPOSITS"
1390.4 "6608_11-1" 108.5000 "Limestone" "Clay" -999.25  55.0000 45.00000 0.0 "silt" "silt" "SHALLOW_LACUSTRINE_DEPOSITS_HARD-WATER_MARL_LAKE" "LACUSTRINE_DEPOSITS"
1390.5 "6608_11-1" 103.0800 "Limestone" "Clay" -999.25  55.0000 45.00000 0.0 "silt" "silt" "SHALLOW_LACUSTRINE_DEPOSITS_HARD-WATER_MARL_LAKE" "LACUSTRINE_DEPOSITS"
1390.6 "6608_11-1"  97.5400 "Limestone" "Clay" -999.25  55.0000 45.00000 0.0 "silt" "silt" "SHALLOW_LACUSTRINE_DEPOSITS_HARD-WATER_MARL_LAKE" "LACUSTRINE_DEPOSITS"
1390.7 "6608_11-1"  91.9900 "Limestone" "Clay" -999.25  55.0000 45.00000 0.0 "silt" "silt" "SHALLOW_LACUSTRINE_DEPOSITS_HARD-WATER_MARL_LAKE" "LACUSTRINE_DEPOSITS"
1390.8 "6608_11-1"  88.2500 "Limestone" "Clay" -999.25  55.0000 45.00000 0.0 "silt" "silt" "SHALLOW_LACUSTRINE_DEPOSITS_HARD-WATER_MARL_LAKE" "LACUSTRINE_DEPOSITS"
1390.9 "6608_11-1"  87.7400 "Limestone" "Clay" -999.25  55.0000 45.00000 0.0 "silt" "silt" "SHALLOW_LACUSTRINE_DEPOSITS_HARD-WATER_MARL_LAKE" "LACUSTRINE_DEPOSITS"
1391.0 "6608_11-1"  87.5100 "Limestone" "Clay" -999.25  55.0000 45.00000 0.0 "silt" "silt" "SHALLOW_LACUSTRINE_DEPOSITS_HARD-WATER_MARL_LAKE" "LACUSTRINE_DEPOSITS"
1391.1 "6608_11-1"  86.4000 "Limestone" "Clay" -999.25  55.0000 45.00000 0.0 "silt" "silt" "SHALLOW_LACUSTRINE_DEPOSITS_HARD-WATER_MARL_LAKE" "LACUSTRINE_DEPOSITS"
1391.2 "6608_11-1"  85.0900 "Limestone" "Clay" -999.25  55.0000 45.00000 0.0 "silt" "silt" "SHALLOW_LACUSTRINE_DEPOSITS_HARD-WATER_MARL_LAKE" "LACUSTRINE_DEPOSITS"
1391.3 "6608_11-1"  83.7800 "Limestone" "Clay" -999.25  55.0000 45.00000 0.0 "silt" "silt" "SHALLOW_LACUSTRINE_DEPOSITS_HARD-WATER_MARL_LAKE" "LACUSTRINE_DEPOSITS"
1391.4 "6608_11-1"  83.0500 "Limestone" "Clay" -999.25  55.0000 45.00000 0.0 "silt" "silt" "SHALLOW_LACUSTRINE_DEPOSITS_HARD-WATER_MARL_LAKE" "LACUSTRINE_DEPOSITS"
1391.5 "6608_11-1"  82.3700 "Limestone" "Clay" -999.25  55.0000 45.00000 0.0 "silt" "silt" "SHALLOW_LACUSTRINE_DEPOSITS_HARD-WATER_MARL_LAKE" "LACUSTRINE_DEPOSITS"
1391.6 "6608_11-1"  80.7900 "Limestone" "Clay" -999.25  55.0000 45.00000 0.0 "silt" "silt" "SHALLOW_LACUSTRINE_DEPOSITS_HARD-WATER_MARL_LAKE" "LACUSTRINE_DEPOSITS"
