~Version
VERS  .                                 3.0 : CWLS LAS ASCII Standard - Version 3.0
WRAP  . NO                                  : One line per depth step
DLM   . SPACE                               : Column data section delimiter
SOURCE. Converted to LAS by Log Studio 4.76 : GeoProvider

~Well
STRT.         1372.0 : Start depth
STOP.         1398.0 : Stop depth
STEP.              1 : Step
NULL.        -999.25 : No-value
COMP.                : Company
WELL. 6608/11-1      : Well
FLD .                : Field
LOC .                : Location
LATI.                : Latitude
LONG.                : Longitude
GDAT.                : Geodetic datum
CNTY.                : County
STAT.                : State
CTRY.                : Country
SRVC. GeoProvider AS : Service company
DATE.                : Date
API .                : API number
RUN .                : Run number

~Parameters
WellboreName.  : Wellbore name
RigName     .  : Rig name
StartDate   .  : Start date

~Curves
DEPTH.m            .  : null {F}Depth mMD
Hole_ID.-          .  : null {S}Hole ID
GR.API             .  : null {F}Gamma Ray
Lithology1.-       .  : null {S}Lithology 1
Lithology2.-       .  : null {S}Lithology 2
Lithology3.-       .  : null {S}Lithology 3
Lithology1.%       .  : null {F}Lithology 1 percentage
Lithology2.%       .  : null {F}Lithology 2 percentage
Lithology3.%       .  : null {F}Lithology 3 percentage
Grain_size_Top.-   .  : null {S}Grain size at the top 
Grain_size_Base.-  .  : null {S}Grain size at the bottom
Sub_Environment.-  .  : null {S}Sub Environment
Gross_Environment.-.  : null {S}Gross Environment

~Ascii
# ...
1391.7 "6608_11-1"  79.2000 "Limestone" "Clay" -999.25  55.0000 45.00000 0.0 "silt" "silt" "SHALLOW_LACUSTRINE_DEPOSITS_HARD-WATER_MARL_LAKE" "LACUSTRINE_DEPOSITS"
1391.8 "6608_11-1"  78.4900 "Limestone" "Clay" -999.25  55.0000 45.00000 0.0 "silt" "silt" "SHALLOW_LACUSTRINE_DEPOSITS_HARD-WATER_MARL_LAKE" "LACUSTRINE_DEPOSITS"
1391.9 "6608_11-1"  78.9700 "Limestone" "Clay" -999.25  55.0000 45.00000 0.0 "silt" "silt" "SHALLOW_LACUSTRINE_DEPOSITS_HARD-WATER_MARL_LAKE" "LACUSTRINE_DEPOSITS"
1392.0 "6608_11-1"  80.6000 "Limestone" "Clay" -999.25  55.0000 45.00000 0.0 "silt" "silt" "SHALLOW_LACUSTRINE_DEPOSITS_HARD-WATER_MARL_LAKE" "LACUSTRINE_DEPOSITS"
1392.1 "6608_11-1"  83.3200 "Limestone" "Clay" -999.25  55.0000 45.00000 0.0 "silt" "silt" "SHALLOW_LACUSTRINE_DEPOSITS_HARD-WATER_MARL_LAKE" "LACUSTRINE_DEPOSITS"
1392.2 "6608_11-1"  86.0500 "Limestone" "Clay" -999.25  55.0000 45.00000 0.0 "silt" "silt" "SHALLOW_LACUSTRINE_DEPOSITS_HARD-WATER_MARL_LAKE" "LACUSTRINE_DEPOSITS"
1392.3 "6608_11-1"  90.4000 "Limestone" "Clay" -999.25  55.0000 45.00000 0.0 "silt" "silt" "SHALLOW_LACUSTRINE_DEPOSITS_HARD-WATER_MARL_LAKE" "LACUSTRINE_DEPOSITS"
1392.4 "6608_11-1"  94.6100 "Limestone" "Clay" -999.25  55.0000 45.00000 0.0 "silt" "silt" "SHALLOW_LACUSTRINE_DEPOSITS_HARD-WATER_MARL_LAKE" "LACUSTRINE_DEPOSITS"
1392.5 "6608_11-1"  97.8700 "Limestone" "Clay" -999.25  55.0000 45.00000 0.0 "silt" "silt" "SHALLOW_LACUSTRINE_DEPOSITS_HARD-WATER_MARL_LAKE" "LACUSTRINE_DEPOSITS"
1392.6 "6608_11-1" 101.1300 "Limestone" "Clay" -999.25  55.0000 45.00000 0.0 "silt" "silt" "SHALLOW_LACUSTRINE_DEPOSITS_HARD-WATER_MARL_LAKE" "LACUSTRINE_DEPOSITS"
1392.7 "6608_11-1" 103.2400 "Limestone" "Clay" -999.25  55.0000 45.00000 0.0 "silt" "silt" "SHALLOW_LACUSTRINE_DEPOSITS_HARD-WATER_MARL_LAKE" "LACUSTRINE_DEPOSITS"
1392.8 "6608_11-1" 103.1600 "Limestone" "Clay" -999.25  60.0000 40.00000 0.0 "vf" "vf/f" "SHALLOW_LACUSTRINE_DEPOSITS_HARD-WATER_MARL_LAKE" "LACUSTRINE_DEPOSITS"
1392.9 "6608_11-1" 101.9900 "Limestone" "Clay" -999.25  60.0000 40.00000 0.0 "vf" "vf/f" "SHALLOW_LACUSTRINE_DEPOSITS_HARD-WATER_MARL_LAKE" "LACUSTRINE_DEPOSITS"
1393.0 "6608_11-1"  99.5600 "Limestone" "Clay" -999.25  60.0000 40.00000 0.0 "vf" "vf/f" "SHALLOW_LACUSTRINE_DEPOSITS_HARD-WATER_MARL_LAKE" "LACUSTRINE_DEPOSITS"
1393.1 "6608_11-1"  97.0400 "Limestone" "Clay" -999.25  60.0000 40.00000 0.0 "vf" "vf/f" "SHALLOW_LACUSTRINE_DEPOSITS_HARD-WATER_MARL_LAKE" "LACUSTRINE_DEPOSITS"
1393.2 "6608_11-1"  94.3700 "Limestone" "Clay" -999.25  50.0000 50.00000 0.0 "silt" "silt" "SHALLOW_LACUSTRINE_DEPOSITS_HARD-WATER_MARL_LAKE" "LACUSTRINE_DEPOSITS"
1393.3 "6608_11-1"  90.7000 "Limestone" "Clay" -999.25  50.0000 50.00000 0.0 "silt" "silt" "SHALLOW_LACUSTRINE_DEPOSITS_HARD-WATER_MARL_LAKE" "LACUSTRINE_DEPOSITS"
1393.4 "6608_11-1"  87.0200 "Limestone" "Clay" -999.25  50.0000 50.00000 0.0 "silt" "silt" "SHALLOW_LACUSTRINE_DEPOSITS_HARD-WATER_MARL_LAKE" "LACUSTRINE_DEPOSITS"
1393.5 "6608_11-1"  83.9200 "Limestone" "Clay" -999.25  50.0000 50.00000 0.0 "silt" "silt" "SHALLOW_LACUSTRINE_DEPOSITS_HARD-WATER_MARL_LAKE" "LACUSTRINE_DEPOSITS"
1393.6 "6608_11-1"  84.1900 "Limestone" "Clay" -999.25  50.0000 50.00000 0.0 "silt" "silt" "SHALLOW_LACUSTRINE_DEPOSITS_HARD-WATER_MARL_LAKE" "LACUSTRINE_DEPOSITS"
1393.7 "6608_11-1"  85.2900 "Limestone" "Clay" -999.25  50.0000 50.00000 0.0 "silt" "silt" "SHALLOW_LACUSTRINE_DEPOSITS_HARD-WATER_MARL_LAKE" "LACUSTRINE_DEPOSITS"
1393.8 "6608_11-1"  86.7000 "Limestone" "Clay" -999.25  50.0000 50.00000 0.0 "silt" "silt" "SHALLOW_LACUSTRINE_DEPOSITS_HARD-WATER_MARL_LAKE" "LACUSTRINE_DEPOSITS"
1393.9 "6608_11-1"  88.2900 "Limestone" "Clay" -999.25  50.0000 50.00000 0.0 "silt" "silt" "SHALLOW_LACUSTRINE_DEPOSITS_HARD-WATER_MARL_LAKE" "LACUSTRINE_DEPOSITS"
1394.0 "6608_11-1"  88.6100 "Limestone" "Clay" -999.25  50.0000 50.00000 0.0 "silt" "silt" "SHALLOW_LACUSTRINE_DEPOSITS_HARD-WATER_MARL_LAKE" "LACUSTRINE_DEPOSITS"
1394.1 "6608_11-1"  87.6200 "Limestone" "Clay" -999.25  50.0000 50.00000 0.0 "silt" "silt" "SHALLOW_LACUSTRINE_DEPOSITS_HARD-WATER_MARL_LAKE" "LACUSTRINE_DEPOSITS"
1394.2 "6608_11-1"  86.3900 "Limestone" "Clay" -999.25  50.0000 50.00000 0.0 "silt" "silt" "SHALLOW_LACUSTRINE_DEPOSITS_HARD-WATER_MARL_LAKE" "LACUSTRINE_DEPOSITS"
1394.3 "6608_11-1"  85.4000 "Limestone" "Clay" -999.25  50.0000 50.00000 0.0 "silt" "silt" "SHALLOW_LACUSTRINE_DEPOSITS_HARD-WATER_MARL_LAKE" "LACUSTRINE_DEPOSITS"
1394.4 "6608_11-1"  84.5600 "Limestone" "Clay" -999.25  50.0000 50.00000 0.0 "silt" "silt" "SHALLOW_LACUSTRINE_DEPOSITS_HARD-WATER_MARL_LAKE" "LACUSTRINE_DEPOSITS"
1394.5 "6608_11-1"  85.4200 "Limestone" "Clay" -999.25  50.0000 50.00000 0.0 "silt" "silt" "SHALLOW_LACUSTRINE_DEPOSITS_HARD-WATER_MARL_LAKE" "LACUSTRINE_DEPOSITS"
1394.6 "6608_11-1"  86.7800 "Limestone" "Clay" -999.25  50.0000 50.00000 0.0 "silt" "silt" "SHALLOW_LACUSTRINE_DEPOSITS_HARD-WATER_MARL_LAKE" "LACUSTRINE_DEPOSITS"
1394.7 "6608_11-1"  88.5700 "Limestone" "Clay" -999.25  50.0000 50.00000 0.0 "silt" "silt" "SHALLOW_LACUSTRINE_DEPOSITS_HARD-WATER_MARL_LAKE" "LACUSTRINE_DEPOSITS"
1394.8 "6608_11-1"  89.7000 "Limestone" "Clay" -999.25  50.0000 50.00000 0.0 "silt" "silt" "SHALLOW_LACUSTRINE_DEPOSITS_HARD-WATER_MARL_LAKE" "LACUSTRINE_DEPOSITS"
1394.9 "6608_11-1"  88.8100 "Limestone" "Clay" -999.25  50.0000 50.00000 0.0 "silt" "silt" "SHALLOW_LACUSTRINE_DEPOSITS_HARD-WATER_MARL_LAKE" "LACUSTRINE_DEPOSITS"
1395.0 "6608_11-1"  88.7700 "Limestone" "Clay" -999.25  50.0000 50.00000 0.0 "silt" "silt" "SHALLOW_LACUSTRINE_DEPOSITS_HARD-WATER_MARL_LAKE" "LACUSTRINE_DEPOSITS"
1395.1 "6608_11-1"  89.4200 "Limestone" "Clay" -999.25  50.0000 50.00000 0.0 "silt" "silt" "SHALLOW_LACUSTRINE_DEPOSITS_HARD-WATER_MARL_LAKE" "LACUSTRINE_DEPOSITS"
1395.2 "6608_11-1"  91.4400 "Limestone" "Clay" -999.25  50.0000 50.00000 0.0 "silt" "silt" "SHALLOW_LACUSTRINE_DEPOSITS_HARD-WATER_MARL_LAKE" "LACUSTRINE_DEPOSITS"
1395.3 "6608_11-1"  89.4900 "Limestone" "Clay" -999.25  50.0000 50.00000 0.0 "silt" "silt" "SHALLOW_LACUSTRINE_DEPOSITS_HARD-WATER_MARL_LAKE" "LACUSTRINE_DEPOSITS"
1395.4 "6608_11-1"  87.1700 "Limestone" "Clay" -999.25  50.0000 50.00000 0.0 "silt" "silt" "SHALLOW_LACUSTRINE_DEPOSITS_HARD-WATER_MARL_LAKE" "LACUSTRINE_DEPOSITS"
1395.5 "6608_11-1"  84.8500 "Limestone" "Clay" -999.25  50.0000 50.00000 0.0 "silt" "silt" "SHALLOW_LACUSTRINE_DEPOSITS_HARD-WATER_MARL_LAKE" "LACUSTRINE_DEPOSITS"
1395.6 "6608_11-1"  87.5600 "Limestone" "Clay" -999.25  50.0000 50.00000 0.0 "silt" "silt" "SHALLOW_LACUSTRINE_DEPOSITS_HARD-WATER_MARL_LAKE" "LACUSTRINE_DEPOSITS"
1395.7 "6608_11-1"  90.2700 "Limestone" "Clay" -999.25  50.0000 50.00000 0.0 "silt" "silt" "SHALLOW_LACUSTRINE_DEPOSITS_HARD-WATER_MARL_LAKE" "LACUSTRINE_DEPOSITS"
1395.8 "6608_11-1"  92.9700 "Limestone" "Clay" -999.25  50.0000 50.00000 0.0 "silt" "silt" "SHALLOW_LACUSTRINE_DEPOSITS_HARD-WATER_MARL_LAKE" "LACUSTRINE_DEPOSITS"
1395.9 "6608_11-1"  95.6800 "Limestone" "Clay" -999.25  50.0000 50.00000 0.0 "silt" "silt" "SHALLOW_LACUSTRINE_DEPOSITS_HARD-WATER_MARL_LAKE" "LACUSTRINE_DEPOSITS"
1396.0 "6608_11-1"  97.1200 "Limestone" "Clay" -999.25  50.0000 50.00000 0.0 "silt" "silt" "SHALLOW_LACUSTRINE_DEPOSITS_HARD-WATER_MARL_LAKE" "LACUSTRINE_DEPOSITS"
1396.1 "6608_11-1"  96.3200 "Limestone" "Clay" -999.25  50.0000 50.00000 0.0 "silt" "silt" "SHALLOW_LACUSTRINE_DEPOSITS_HARD-WATER_MARL_LAKE" "LACUSTRINE_DEPOSITS"
1396.2 "6608_11-1"  95.1100 "Limestone" "Clay" -999.25  50.0000 50.00000 0.0 "silt" "silt" "SHALLOW_LACUSTRINE_DEPOSITS_HARD-WATER_MARL_LAKE" "LACUSTRINE_DEPOSITS"
1396.3 "6608_11-1"  94.8700 "Limestone" "Clay" -999.25  50.0000 50.00000 0.0 "silt" "silt" "SHALLOW_LACUSTRINE_DEPOSITS_HARD-WATER_MARL_LAKE" "LACUSTRINE_DEPOSITS"
1396.4 "6608_11-1"  97.3400 "Limestone" "Clay" -999.25  50.0000 50.00000 0.0 "silt" "silt" "SHALLOW_LACUSTRINE_DEPOSITS_HARD-WATER_MARL_LAKE" "LACUSTRINE_DEPOSITS"
1396.5 "6608_11-1"  99.1600 "Limestone" "Clay" -999.25  50.0000 50.00000 0.0 "silt" "silt" "SHALLOW_LACUSTRINE_DEPOSITS_HARD-WATER_MARL_LAKE" "LACUSTRINE_DEPOSITS"
