~Version
VERS  .                                 3.0 : CWLS LAS ASCII Standard - Version 3.0
WRAP  . NO                                  : One line per depth step
DLM   . SPACE                               : Column data section delimiter
SOURCE. Converted to LAS by Log Studio 4.76 : GeoProvider

~Well
STRT.         2472.0 : Start depth
STOP.         2615.0 : Stop depth
STEP.              1 : Step
NULL.        -999.25 : No-value
COMP.                : Company
WELL. 6407/6-3       : Well
FLD .                : Field
LOC .                : Location
LATI.                : Latitude
LONG.                : Longitude
GDAT.                : Geodetic datum
CNTY.                : County
STAT.                : State
CTRY.                : Country
SRVC. GeoProvider AS : Service company
DATE.                : Date
API .                : API number
RUN .                : Run number

~Parameters
WellboreName.  : Wellbore name
RigName     .  : Rig name
StartDate   .  : Start date

~Curves
DEPTH.m            .  : null {F}Depth mMD
Hole_ID.-          .  : null {S}Hole ID
GR.API             .  : null {F}Gamma Ray
Lithology1.-       .  : null {S}Lithology 1
Lithology2.-       .  : null {S}Lithology 2
Lithology3.-       .  : null {S}Lithology 3
Lithology1.%       .  : null {F}Lithology 1 percentage
Lithology2.%       .  : null {F}Lithology 2 percentage
Lithology3.%       .  : null {F}Lithology 3 percentage
Grain_size_Top.-   .  : null {S}Grain size at the top 
Grain_size_Base.-  .  : null {S}Grain size at the bottom
Sub_Environment.-  .  : null {S}Sub Environment
Gross_Environment.-.  : null {S}Gross Environment

~Ascii
# ...
2611.3 "6407_6-3" 114.3800 "Sandstone" -999.25   -999.25   100.0000      0.0      0.0 "f"        "f/m"      "Storm/flompulser"                                                "Prograderende_delta_front"  
2611.4 "6407_6-3" 115.3800 "Sandstone" -999.25   -999.25   100.0000      0.0      0.0 "f"        "f/m"      "Storm/flompulser"                                                "Prograderende_delta_front"  
2611.5 "6407_6-3" 116.5000 "Sandstone" -999.25   -999.25   100.0000      0.0      0.0 "f"        "f/m"      "Storm/flompulser"                                                "Prograderende_delta_front"  
2611.6 "6407_6-3" 118.4500 "Sandstone" -999.25   -999.25   100.0000      0.0      0.0 "f"        "f/m"      "Storm/flompulser"                                                "Prograderende_delta_front"  
2611.7 "6407_6-3" 123.9600 "Sandstone" -999.25   -999.25   100.0000      0.0      0.0 "f"        "f/m"      "Storm/flompulser"                                                "Prograderende_delta_front"  
2611.8 "6407_6-3" 127.0000 "Sandstone" -999.25   -999.25   100.0000      0.0      0.0 "f"        "f/m"      "Storm/flompulser"                                                "Prograderende_delta_front"  
2611.9 "6407_6-3" 128.3600 "Sandstone" -999.25   -999.25   100.0000      0.0      0.0 "f"        "f/m"      "Storm/flompulser"                                                "Prograderende_delta_front"  
2612.0 "6407_6-3" 128.7900 "Sandstone" -999.25   -999.25   100.0000      0.0      0.0 "f"        "f/m"      "Storm/flompulser"                                                "Prograderende_delta_front"  
2612.1 "6407_6-3" 128.7900 "Sandstone" -999.25   -999.25   100.0000      0.0      0.0 "f"        "f/m"      "Storm/flompulser"                                                "Prograderende_delta_front"  
2612.2 "6407_6-3" 128.2100 "Sandstone" -999.25   -999.25   100.0000      0.0      0.0 "f"        "f/m"      "Storm/flompulser"                                                "Prograderende_delta_front"  
2612.3 "6407_6-3" 127.6200 "Sandstone" "Shale"   -999.25    85.0000 15.00000      0.0 "vf/f"     "vc"       "Storm/flompulser"                                                "Prograderende_delta_front"  
2612.4 "6407_6-3" 127.0400 "Sandstone" "Shale"   -999.25    85.0000 15.00000      0.0 "vf/f"     "vc"       "Storm/flompulser"                                                "Prograderende_delta_front"  
2612.5 "6407_6-3" 127.0200 "Sandstone" "Shale"   -999.25    85.0000 15.00000      0.0 "vf/f"     "vc"       -999.25                                                           "Prograderende_delta_front"  
2612.6 "6407_6-3" 127.4200 "Sandstone" "Shale"   -999.25    85.0000 15.00000      0.0 "vf/f"     "vc"       -999.25                                                           "Prograderende_delta_front"  
2612.7 "6407_6-3" 127.8100 "Sandstone" "Shale"   -999.25    85.0000 15.00000      0.0 "vf/f"     "vc"       -999.25                                                           "Prograderende_delta_front"  
2612.8 "6407_6-3" 127.6400 "Sandstone" "Shale"   -999.25    85.0000 15.00000      0.0 "vf/f"     "vc"       -999.25                                                           "Prograderende_delta_front"  
2612.9 "6407_6-3" 125.6800 "Sandstone" "Shale"   -999.25    85.0000 15.00000      0.0 "vf/f"     "vc"       -999.25                                                           "Prograderende_delta_front"  
2613.0 "6407_6-3" 123.6200 "Sandstone" "Shale"   -999.25    85.0000 15.00000      0.0 "vf/f"     "vc"       -999.25                                                           "Prograderende_delta_front"  
2613.1 "6407_6-3" 120.5200 "Sandstone" "Shale"   -999.25    85.0000 15.00000      0.0 "vf/f"     "vc"       -999.25                                                           "Prograderende_delta_front"  
2613.2 "6407_6-3" 115.8900 "Sandstone" "Shale"   -999.25    85.0000 15.00000      0.0 "vf/f"     "vc"       -999.25                                                           "Prograderende_delta_front"  
2613.3 "6407_6-3" 110.5600 "Sandstone" "Shale"   -999.25    85.0000 15.00000      0.0 "vf/f"     "vc"       -999.25                                                           "Prograderende_delta_front"  
2613.4 "6407_6-3" 105.0300 "Sandstone" "Shale"   -999.25    85.0000 15.00000      0.0 "vf/f"     "vc"       -999.25                                                           "Prograderende_delta_front"  
2613.5 "6407_6-3" 100.8000 "Sandstone" "Shale"   -999.25    85.0000 15.00000      0.0 "vf/f"     "vc"       -999.25                                                           "Prograderende_delta_front"  
2613.6 "6407_6-3"  93.6000 "Sandstone" "Shale"   -999.25    85.0000 15.00000      0.0 "vf/f"     "vc"       -999.25                                                           "Prograderende_delta_front"  
2613.7 "6407_6-3"  -999.25 "Sandstone" "Shale"   -999.25    85.0000 15.00000      0.0 "vf/f"     "vc"       -999.25                                                           "Prograderende_delta_front"  
2613.8 "6407_6-3"  -999.25 "Sandstone" "Shale"   -999.25    85.0000 15.00000      0.0 "vf/f"     "vc"       -999.25                                                           "Prograderende_delta_front"  
2613.9 "6407_6-3"  -999.25 "Sandstone" "Shale"   -999.25    85.0000 15.00000      0.0 "vf/f"     "vc"       -999.25                                                           "Prograderende_delta_front"  
2614.0 "6407_6-3"  -999.25 "Sandstone" "Shale"   -999.25    85.0000 15.00000      0.0 "vf/f"     "vc"       -999.25                                                           "Prograderende_delta_front"  
2614.1 "6407_6-3"  -999.25 "Sandstone" "Shale"   -999.25    85.0000 15.00000      0.0 "vf/f"     "vc"       -999.25                                                           "Prograderende_delta_front"  
2614.2 "6407_6-3"  -999.25 "Sandstone" "Shale"   -999.25    85.0000 15.00000      0.0 "vf/f"     "vc"       -999.25                                                           "Prograderende_delta_front"  
2614.3 "6407_6-3"  -999.25 -999.25   -999.25   -999.25   100.0000      0.0      0.0 -999.25    -999.25    -999.25                                                           "Prograderende_delta_front"  
2614.4 "6407_6-3"  -999.25 "Sandstone" -999.25   -999.25   100.0000      0.0      0.0 "m/c"      "m/c"      -999.25                                                           "Prograderende_delta_front"  
2614.5 "6407_6-3"  -999.25 "Sandstone" -999.25   -999.25   100.0000      0.0      0.0 "m/c"      "m/c"      -999.25                                                           "Prograderende_delta_front"  
2614.6 "6407_6-3"  -999.25 "Sandstone" -999.25   -999.25   100.0000      0.0      0.0 "m/c"      "m/c"      -999.25                                                           "Prograderende_delta_front"  
2614.7 "6407_6-3"  -999.25 "Sandstone" -999.25   -999.25   100.0000      0.0      0.0 "m/c"      "m/c"      -999.25                                                           "Prograderende_delta_front"  
2614.8 "6407_6-3"  -999.25 "Sandstone" -999.25   -999.25   100.0000      0.0      0.0 "m/c"      "m/c"      -999.25                                                           "Prograderende_delta_front"  
2614.9 "6407_6-3"  -999.25 "Sandstone" -999.25   -999.25   100.0000      0.0      0.0 "m/c"      "m/c"      -999.25                                                           "Prograderende_delta_front"  
2615.0 "6407_6-3"  -999.25 "Sandstone" -999.25   -999.25   100.0000      0.0      0.0 "m/c"      "m/c"      -999.25                                                           "Prograderende_delta_front"  
