~Version
VERS  .                                 3.0 : CWLS LAS ASCII Standard - Version 3.0
WRAP  . NO                                  : One line per depth step
DLM   . SPACE                               : Column data section delimiter
SOURCE. Converted to LAS by Log Studio 4.76 : GeoProvider

~Well
STRT.         2472.0 : Start depth
STOP.         2615.0 : Stop depth
STEP.              1 : Step
NULL.        -999.25 : No-value
COMP.                : Company
WELL. 6407/6-3       : Well
FLD .                : Field
LOC .                : Location
LATI.                : Latitude
LONG.                : Longitude
GDAT.                : Geodetic datum
CNTY.                : County
STAT.                : State
CTRY.                : Country
SRVC. GeoProvider AS : Service company
DATE.                : Date
API .                : API number
RUN .                : Run number

~Parameters
WellboreName.  : Wellbore name
RigName     .  : Rig name
StartDate   .  : Start date

~Curves
DEPTH.m            .  : null {F}Depth mMD
Hole_ID.-          .  : null {S}Hole ID
GR.API             .  : null {F}Gamma Ray
Lithology1.-       .  : null {S}Lithology 1
Lithology2.-       .  : null {S}Lithology 2
Lithology3.-       .  : null {S}Lithology 3
Lithology1.%       .  : null {F}Lithology 1 percentage
Lithology2.%       .  : null {F}Lithology 2 percentage
Lithology3.%       .  : null {F}Lithology 3 percentage
Grain_size_Top.-   .  : null {S}Grain size at the top 
Grain_size_Base.-  .  : null {S}Grain size at the bottom
Sub_Environment.-  .  : null {S}Sub Environment
Gross_Environment.-.  : null {S}Gross Environment

~Ascii
# ...
2535.8 "6407_6-3" 130.5700 "Sandstone" "Shale"   -999.25    10.0000 90.00000      0.0 "silt/vf"  "silt/vf"  "Åpen_marin_distale_facies,_lav_energiforhold,_reduserende_forhold" "Prodelta"                   
2535.9 "6407_6-3" 130.5600 "Sandstone" "Shale"   -999.25    10.0000 90.00000      0.0 "silt/vf"  "silt/vf"  "Åpen_marin_distale_facies,_lav_energiforhold,_reduserende_forhold" "Prodelta"                   
2536.0 "6407_6-3" 130.5600 "Sandstone" "Shale"   -999.25    10.0000 90.00000      0.0 "silt/vf"  "silt/vf"  "Åpen_marin_distale_facies,_lav_energiforhold,_reduserende_forhold" "Prodelta"                   
2536.1 "6407_6-3" 130.5600 "Sandstone" "Shale"   -999.25    10.0000 90.00000      0.0 "silt/vf"  "silt/vf"  "Åpen_marin_distale_facies,_lav_energiforhold,_reduserende_forhold" "Prodelta"                   
2536.2 "6407_6-3" 130.5600 "Sandstone" "Shale"   -999.25    10.0000 90.00000      0.0 "silt/vf"  "silt/vf"  "Åpen_marin_distale_facies,_lav_energiforhold,_reduserende_forhold" "Prodelta"                   
2536.3 "6407_6-3" 130.5600 "Sandstone" "Shale"   -999.25    10.0000 90.00000      0.0 "silt/vf"  "silt/vf"  "Åpen_marin_distale_facies,_lav_energiforhold,_reduserende_forhold" "Prodelta"                   
2536.4 "6407_6-3" 130.5600 "Sandstone" "Shale"   -999.25    10.0000 90.00000      0.0 "silt/vf"  "silt/vf"  "Åpen_marin_distale_facies,_lav_energiforhold,_reduserende_forhold" "Prodelta"                   
2536.5 "6407_6-3" 130.5600 "Sandstone" "Shale"   -999.25    10.0000 90.00000      0.0 "silt/vf"  "silt/vf"  "Åpen_marin_distale_facies,_lav_energiforhold,_reduserende_forhold" "Prodelta"                   
2536.6 "6407_6-3" 130.5600 "Sandstone" "Shale"   -999.25    10.0000 90.00000      0.0 "silt/vf"  "silt/vf"  "Åpen_marin_distale_facies,_lav_energiforhold,_reduserende_forhold" "Prodelta"                   
2536.7 "6407_6-3" 130.5600 "Sandstone" "Shale"   -999.25    10.0000 90.00000      0.0 "silt/vf"  "silt/vf"  "Åpen_marin_distale_facies,_lav_energiforhold,_reduserende_forhold" "Prodelta"                   
2536.8 "6407_6-3" 130.5600 "Sandstone" "Shale"   -999.25    10.0000 90.00000      0.0 "silt/vf"  "silt/vf"  "Åpen_marin_distale_facies,_lav_energiforhold,_reduserende_forhold" "Prodelta"                   
2536.9 "6407_6-3" 130.5600 "Sandstone" "Shale"   -999.25    10.0000 90.00000      0.0 "silt/vf"  "silt/vf"  "Åpen_marin_distale_facies,_lav_energiforhold,_reduserende_forhold" "Prodelta"                   
2537.0 "6407_6-3" 130.5600 "Sandstone" "Shale"   -999.25    10.0000 90.00000      0.0 "silt/vf"  "silt/vf"  "Åpen_marin_distale_facies,_lav_energiforhold,_reduserende_forhold" "Prodelta"                   
2537.1 "6407_6-3" 130.5600 "Sandstone" "Shale"   -999.25    10.0000 90.00000      0.0 "silt/vf"  "silt/vf"  "Åpen_marin_distale_facies,_lav_energiforhold,_reduserende_forhold" "Prodelta"                   
2537.2 "6407_6-3" 130.5600 "Sandstone" "Shale"   -999.25    10.0000 90.00000      0.0 "silt/vf"  "silt/vf"  "Åpen_marin_distale_facies,_lav_energiforhold,_reduserende_forhold" "Prodelta"                   
2537.3 "6407_6-3" 130.5600 "Sandstone" "Shale"   -999.25    10.0000 90.00000      0.0 "silt/vf"  "silt/vf"  "Åpen_marin_distale_facies,_lav_energiforhold,_reduserende_forhold" "Prodelta"                   
2537.4 "6407_6-3" 130.5600 "Sandstone" "Shale"   -999.25    10.0000 90.00000      0.0 "silt/vf"  "silt/vf"  "Åpen_marin_distale_facies,_lav_energiforhold,_reduserende_forhold" "Prodelta"                   
2537.5 "6407_6-3" 130.5600 "Sandstone" "Shale"   -999.25    10.0000 90.00000      0.0 "silt/vf"  "silt/vf"  "Åpen_marin_distale_facies,_lav_energiforhold,_reduserende_forhold" "Prodelta"                   
2537.6 "6407_6-3" 130.5600 "Sandstone" -999.25   -999.25   100.0000      0.0      0.0 -999.25    -999.25    "Åpen_marin_distale_facies,_lav_energiforhold,_reduserende_forhold" "Prodelta"                   
2537.7 "6407_6-3" 130.5600 "Sandstone" -999.25   -999.25   100.0000      0.0      0.0 -999.25    -999.25    "Åpen_marin_distale_facies,_lav_energiforhold,_reduserende_forhold" "Prodelta"                   
2537.8 "6407_6-3" 130.5600 "Sandstone" -999.25   -999.25   100.0000      0.0      0.0 -999.25    -999.25    "Åpen_marin_distale_facies,_lav_energiforhold,_reduserende_forhold" "Prodelta"                   
2537.9 "6407_6-3" 130.5600 "Sandstone" -999.25   -999.25   100.0000      0.0      0.0 -999.25    -999.25    "Åpen_marin_distale_facies,_lav_energiforhold,_reduserende_forhold" "Prodelta"                   
2538.0 "6407_6-3" 130.5600 "Sandstone" -999.25   -999.25   100.0000      0.0      0.0 -999.25    -999.25    "Åpen_marin_distale_facies,_lav_energiforhold,_reduserende_forhold" "Prodelta"                   
2538.1 "6407_6-3" 130.5600 "Sandstone" "Shale"   -999.25     5.0000 95.00000      0.0 "silt"     "silt/vf"  "Åpen_marin_distale_facies,_lav_energiforhold,_reduserende_forhold" "Prodelta"                   
2538.2 "6407_6-3" 130.5600 "Sandstone" "Shale"   -999.25     5.0000 95.00000      0.0 "silt"     "silt/vf"  "Åpen_marin_distale_facies,_lav_energiforhold,_reduserende_forhold" "Prodelta"                   
2538.3 "6407_6-3" 130.5600 "Sandstone" "Shale"   -999.25     5.0000 95.00000      0.0 "silt"     "silt/vf"  "Åpen_marin_distale_facies,_lav_energiforhold,_reduserende_forhold" "Prodelta"                   
2538.4 "6407_6-3" 130.5600 "Sandstone" "Shale"   -999.25     5.0000 95.00000      0.0 "silt"     "silt/vf"  "Åpen_marin_distale_facies,_lav_energiforhold,_reduserende_forhold" "Prodelta"                   
2538.5 "6407_6-3" 130.5600 "Sandstone" "Shale"   -999.25     5.0000 95.00000      0.0 "silt"     "silt/vf"  "Åpen_marin_distale_facies,_lav_energiforhold,_reduserende_forhold" "Prodelta"                   
2538.6 "6407_6-3" 130.5600 "Sandstone" "Shale"   -999.25     5.0000 95.00000      0.0 "silt"     "silt/vf"  "Åpen_marin_distale_facies,_lav_energiforhold,_reduserende_forhold" "Prodelta"                   
2538.7 "6407_6-3" 130.5600 "Sandstone" "Shale"   -999.25     5.0000 95.00000      0.0 "silt"     "silt/vf"  "Åpen_marin_distale_facies,_lav_energiforhold,_reduserende_forhold" "Prodelta"                   
2538.8 "6407_6-3" 130.5600 "Sandstone" "Shale"   -999.25     5.0000 95.00000      0.0 "silt"     "silt/vf"  "Åpen_marin_distale_facies,_lav_energiforhold,_reduserende_forhold" "Prodelta"                   
2538.9 "6407_6-3" 130.5600 "Sandstone" "Shale"   -999.25     5.0000 95.00000      0.0 "silt"     "silt/vf"  "Åpen_marin_distale_facies,_lav_energiforhold,_reduserende_forhold" "Prodelta"                   
2539.0 "6407_6-3" 130.5600 "Sandstone" "Shale"   -999.25     5.0000 95.00000      0.0 "silt"     "silt/vf"  "Åpen_marin_distale_facies,_lav_energiforhold,_reduserende_forhold" "Prodelta"                   
2539.1 "6407_6-3" 130.5600 "Sandstone" "Shale"   -999.25     5.0000 95.00000      0.0 "silt"     "silt/vf"  "Åpen_marin_distale_facies,_lav_energiforhold,_reduserende_forhold" "Prodelta"                   
2539.2 "6407_6-3" 130.5600 "Sandstone" "Shale"   -999.25     5.0000 95.00000      0.0 "silt"     "silt/vf"  "Åpen_marin_distale_facies,_lav_energiforhold,_reduserende_forhold" "Prodelta"                   
2539.3 "6407_6-3" 130.5600 "Sandstone" "Shale"   -999.25     5.0000 95.00000      0.0 "silt"     "silt/vf"  "Åpen_marin_distale_facies,_lav_energiforhold,_reduserende_forhold" "Prodelta"                   
2539.4 "6407_6-3" 130.5600 "Sandstone" "Shale"   -999.25     5.0000 95.00000      0.0 "silt"     "silt/vf"  "Åpen_marin_distale_facies,_lav_energiforhold,_reduserende_forhold" "Prodelta"                   
2539.5 "6407_6-3" 130.5600 "Sandstone" "Shale"   -999.25     5.0000 95.00000      0.0 "silt"     "silt/vf"  "Åpen_marin_distale_facies,_lav_energiforhold,_reduserende_forhold" "Prodelta"                   
2539.6 "6407_6-3" 130.5600 "Sandstone" "Shale"   -999.25     5.0000 95.00000      0.0 "silt"     "silt/vf"  "Åpen_marin_distale_facies,_lav_energiforhold,_reduserende_forhold" "Prodelta"                   
