~Version
VERS  .                                 3.0 : CWLS LAS ASCII Standard - Version 3.0
WRAP  . NO                                  : One line per depth step
DLM   . SPACE                               : Column data section delimiter
SOURCE. Converted to LAS by Log Studio 4.76 : GeoProvider

~Well
STRT.         2472.0 : Start depth
STOP.         2615.0 : Stop depth
STEP.              1 : Step
NULL.        -999.25 : No-value
COMP.                : Company
WELL. 6407/6-3       : Well
FLD .                : Field
LOC .                : Location
LATI.                : Latitude
LONG.                : Longitude
GDAT.                : Geodetic datum
CNTY.                : County
STAT.                : State
CTRY.                : Country
SRVC. GeoProvider AS : Service company
DATE.                : Date
API .                : API number
RUN .                : Run number

~Parameters
WellboreName.  : Wellbore name
RigName     .  : Rig name
StartDate   .  : Start date

~Curves
DEPTH.m            .  : null {F}Depth mMD
Hole_ID.-          .  : null {S}Hole ID
GR.API             .  : null {F}Gamma Ray
Lithology1.-       .  : null {S}Lithology 1
Lithology2.-       .  : null {S}Lithology 2
Lithology3.-       .  : null {S}Lithology 3
Lithology1.%       .  : null {F}Lithology 1 percentage
Lithology2.%       .  : null {F}Lithology 2 percentage
Lithology3.%       .  : null {F}Lithology 3 percentage
Grain_size_Top.-   .  : null {S}Grain size at the top 
Grain_size_Base.-  .  : null {S}Grain size at the bottom
Sub_Environment.-  .  : null {S}Sub Environment
Gross_Environment.-.  : null {S}Gross Environment

~Ascii
# ...
2563.5 "6407_6-3" 112.6300 "Sandstone" "Shale"   -999.25    92.0000  8.00000      0.0 "m"        "f"        -999.25                                                           "Tidevannsdominert_delta_front"
2563.6 "6407_6-3" 106.2900 "Sandstone" "Shale"   -999.25    92.0000  8.00000      0.0 "m"        "f"        -999.25                                                           "Tidevannsdominert_delta_front"
2563.7 "6407_6-3" 105.8200 "Sandstone" "Shale"   -999.25    92.0000  8.00000      0.0 "m"        "f"        -999.25                                                           "Tidevannsdominert_delta_front"
2563.8 "6407_6-3" 108.7200 "Sandstone" "Shale"   -999.25    92.0000  8.00000      0.0 "m"        "f"        -999.25                                                           "Tidevannsdominert_delta_front"
2563.9 "6407_6-3" 112.3100 "Sandstone" "Shale"   -999.25    92.0000  8.00000      0.0 "m"        "f"        -999.25                                                           "Tidevannsdominert_delta_front"
2564.0 "6407_6-3" 115.7200 "Sandstone" "Shale"   -999.25    92.0000  8.00000      0.0 "m"        "f"        -999.25                                                           "Tidevannsdominert_delta_front"
2564.1 "6407_6-3" 118.8900 "Sandstone" "Shale"   -999.25    92.0000  8.00000      0.0 "m"        "f"        -999.25                                                           "Tidevannsdominert_delta_front"
2564.2 "6407_6-3" 122.0500 "Sandstone" "Shale"   -999.25    92.0000  8.00000      0.0 "m"        "f"        -999.25                                                           "Tidevannsdominert_delta_front"
2564.3 "6407_6-3" 123.9900 "Sandstone" "Shale"   -999.25    92.0000  8.00000      0.0 "m"        "f"        -999.25                                                           "Tidevannsdominert_delta_front"
2564.4 "6407_6-3" 124.3000 "Sandstone" "Shale"   -999.25    92.0000  8.00000      0.0 "m"        "f"        -999.25                                                           "Tidevannsdominert_delta_front"
2564.5 "6407_6-3" 123.8500 "Sandstone" "Shale"   -999.25    92.0000  8.00000      0.0 "m"        "f"        -999.25                                                           "Tidevannsdominert_delta_front"
2564.6 "6407_6-3" 122.9500 "Sandstone" -999.25   -999.25   100.0000      0.0      0.0 "f"        "vf"       -999.25                                                           "Tidevannsdominert_delta_front"
2564.7 "6407_6-3" 121.9400 "Sandstone" -999.25   -999.25   100.0000      0.0      0.0 "f"        "vf"       -999.25                                                           "Tidevannsdominert_delta_front"
2564.8 "6407_6-3" 120.8500 "Sandstone" -999.25   -999.25   100.0000      0.0      0.0 "f"        "vf"       -999.25                                                           "Tidevannsdominert_delta_front"
2564.9 "6407_6-3" 120.2800 "Sandstone" -999.25   -999.25   100.0000      0.0      0.0 "f/m"      "f/m"      -999.25                                                           "Tidevannsdominert_delta_front"
2565.0 "6407_6-3" 120.0700 "Sandstone" -999.25   -999.25   100.0000      0.0      0.0 "f/m"      "f/m"      -999.25                                                           "Tidevannsdominert_delta_front"
2565.1 "6407_6-3" 120.3500 "Sandstone" -999.25   -999.25   100.0000      0.0      0.0 "f/m"      "f/m"      -999.25                                                           "Tidevannsdominert_delta_front"
2565.2 "6407_6-3" 120.8800 "Sandstone" "Shale"   -999.25    95.0000  5.00000      0.0 "f/m"      "f/m"      -999.25                                                           "Tidevannsdominert_delta_front"
2565.3 "6407_6-3" 122.0900 "Sandstone" "Shale"   -999.25    95.0000  5.00000      0.0 "f/m"      "f/m"      -999.25                                                           "Tidevannsdominert_delta_front"
2565.4 "6407_6-3" 123.3000 "Sandstone" "Shale"   -999.25    95.0000  5.00000      0.0 "f/m"      "f/m"      -999.25                                                           "Tidevannsdominert_delta_front"
2565.5 "6407_6-3" 124.9800 "Sandstone" "Shale"   -999.25    95.0000  5.00000      0.0 "f/m"      "f/m"      -999.25                                                           "Tidevannsdominert_delta_front"
2565.6 "6407_6-3" 126.8800 "Sandstone" "Shale"   -999.25    95.0000  5.00000      0.0 "f/m"      "f/m"      -999.25                                                           "Tidevannsdominert_delta_front"
2565.7 "6407_6-3" 130.3900 "Sandstone" "Shale"   -999.25    95.0000  5.00000      0.0 "f/m"      "f/m"      -999.25                                                           "Tidevannsdominert_delta_front"
2565.8 "6407_6-3" 130.4000 "Sandstone" "Shale"   -999.25    95.0000  5.00000      0.0 "f/m"      "f/m"      -999.25                                                           "Tidevannsdominert_delta_front"
2565.9 "6407_6-3" 130.4200 "Sandstone" "Shale"   -999.25    95.0000  5.00000      0.0 "f/m"      "f/m"      -999.25                                                           "Tidevannsdominert_delta_front"
2566.0 "6407_6-3" 130.4300 "Sandstone" "Shale"   -999.25    95.0000  5.00000      0.0 "f/m"      "f/m"      -999.25                                                           "Tidevannsdominert_delta_front"
2566.1 "6407_6-3" 130.4500 -999.25   -999.25   -999.25   100.0000      0.0      0.0 -999.25    -999.25    -999.25                                                           "Tidevannsdominert_delta_front"
2566.2 "6407_6-3" 130.4600 -999.25   -999.25   -999.25   100.0000      0.0      0.0 -999.25    -999.25    -999.25                                                           "Tidevannsdominert_delta_front"
2566.3 "6407_6-3" 130.4800 -999.25   -999.25   -999.25   100.0000      0.0      0.0 -999.25    -999.25    -999.25                                                           -999.25                      
2566.4 "6407_6-3" 130.5000 -999.25   -999.25   -999.25   100.0000      0.0      0.0 -999.25    -999.25    -999.25                                                           -999.25                      
2566.5 "6407_6-3" 130.5100 -999.25   -999.25   -999.25   100.0000      0.0      0.0 -999.25    -999.25    -999.25                                                           -999.25                      
2566.6 "6407_6-3" 130.5300 -999.25   -999.25   -999.25   100.0000      0.0      0.0 -999.25    -999.25    -999.25                                                           -999.25                      
2566.7 "6407_6-3" 130.5400 -999.25   -999.25   -999.25   100.0000      0.0      0.0 -999.25    -999.25    -999.25                                                           -999.25                      
2566.8 "6407_6-3" 130.5600 -999.25   -999.25   -999.25   100.0000      0.0      0.0 -999.25    -999.25    -999.25                                                           -999.25                      
2566.9 "6407_6-3" 130.5700 -999.25   -999.25   -999.25   100.0000      0.0      0.0 -999.25    -999.25    -999.25                                                           -999.25                      
2567.0 "6407_6-3" 129.8300 -999.25   -999.25   -999.25   100.0000      0.0      0.0 -999.25    -999.25    -999.25                                                           -999.25                      
2567.1 "6407_6-3" 128.5400 -999.25   -999.25   -999.25   100.0000      0.0      0.0 -999.25    -999.25    -999.25                                                           -999.25                      
2567.2 "6407_6-3" 127.6800 -999.25   -999.25   -999.25   100.0000      0.0      0.0 -999.25    -999.25    -999.25                                                           -999.25                      
2567.3 "6407_6-3" 126.8100 -999.25   -999.25   -999.25   100.0000      0.0      0.0 -999.25    -999.25    -999.25                                                           -999.25                      
2567.4 "6407_6-3" 126.2300 -999.25   -999.25   -999.25   100.0000      0.0      0.0 -999.25    -999.25    -999.25                                                           -999.25                      
