~Version
VERS  .                                 3.0 : CWLS LAS ASCII Standard - Version 3.0
WRAP  . NO                                  : One line per depth step
DLM   . SPACE                               : Column data section delimiter
SOURCE. Converted to LAS by Log Studio 4.76 : GeoProvider

~Well
STRT.         2472.0 : Start depth
STOP.         2615.0 : Stop depth
STEP.              1 : Step
NULL.        -999.25 : No-value
COMP.                : Company
WELL. 6407/6-3       : Well
FLD .                : Field
LOC .                : Location
LATI.                : Latitude
LONG.                : Longitude
GDAT.                : Geodetic datum
CNTY.                : County
STAT.                : State
CTRY.                : Country
SRVC. GeoProvider AS : Service company
DATE.                : Date
API .                : API number
RUN .                : Run number

~Parameters
WellboreName.  : Wellbore name
RigName     .  : Rig name
StartDate   .  : Start date

~Curves
DEPTH.m            .  : null {F}Depth mMD
Hole_ID.-          .  : null {S}Hole ID
GR.API             .  : null {F}Gamma Ray
Lithology1.-       .  : null {S}Lithology 1
Lithology2.-       .  : null {S}Lithology 2
Lithology3.-       .  : null {S}Lithology 3
Lithology1.%       .  : null {F}Lithology 1 percentage
Lithology2.%       .  : null {F}Lithology 2 percentage
Lithology3.%       .  : null {F}Lithology 3 percentage
Grain_size_Top.-   .  : null {S}Grain size at the top 
Grain_size_Base.-  .  : null {S}Grain size at the bottom
Sub_Environment.-  .  : null {S}Sub Environment
Gross_Environment.-.  : null {S}Gross Environment

~Ascii
# ...
2579.5 "6407_6-3" 107.8800 "Sandstone" "Shale"   "Limestone"  50.0000 40.00000 10.00000 "silt/vf"  "vf"       "Nedre_strandskråning_prodelta,_åpen_marin"                       "Bølgedominert_delta_front"  
2579.6 "6407_6-3" 106.1100 "Sandstone" "Shale"   "Limestone"  50.0000 40.00000 10.00000 "silt/vf"  "vf"       "Nedre_strandskråning_prodelta,_åpen_marin"                       "Bølgedominert_delta_front"  
2579.7 "6407_6-3" 104.2200 "Sandstone" "Shale"   "Limestone"  50.0000 40.00000 10.00000 "silt/vf"  "vf"       "Nedre_strandskråning_prodelta,_åpen_marin"                       "Bølgedominert_delta_front"  
2579.8 "6407_6-3" 101.6500 "Sandstone" "Shale"   "Limestone"  50.0000 40.00000 10.00000 "silt/vf"  "vf"       "Nedre_strandskråning_prodelta,_åpen_marin"                       "Bølgedominert_delta_front"  
2579.9 "6407_6-3"  98.4800 "Sandstone" "Shale"   "Limestone"  50.0000 40.00000 10.00000 "silt/vf"  "vf"       "Nedre_strandskråning_prodelta,_åpen_marin"                       "Bølgedominert_delta_front"  
2580.0 "6407_6-3"  95.3100 "Sandstone" "Shale"   "Limestone"  50.0000 40.00000 10.00000 "silt/vf"  "vf"       "Nedre_strandskråning_prodelta,_åpen_marin"                       "Bølgedominert_delta_front"  
2580.1 "6407_6-3"  88.8300 "Sandstone" "Shale"   "Limestone"  50.0000 40.00000 10.00000 "silt/vf"  "vf"       "Nedre_strandskråning_prodelta,_åpen_marin"                       "Bølgedominert_delta_front"  
2580.2 "6407_6-3"  85.5500 "Sandstone" "Shale"   "Limestone"  50.0000 40.00000 10.00000 "silt/vf"  "vf"       "Nedre_strandskråning_prodelta,_åpen_marin"                       "Bølgedominert_delta_front"  
2580.3 "6407_6-3"  85.1500 "Sandstone" "Shale"   "Limestone"  50.0000 40.00000 10.00000 "silt/vf"  "vf"       "Nedre_strandskråning_prodelta,_åpen_marin"                       "Bølgedominert_delta_front"  
2580.4 "6407_6-3"  86.1800 "Sandstone" "Shale"   "Limestone"  50.0000 40.00000 10.00000 "silt/vf"  "vf"       "Nedre_strandskråning_prodelta,_åpen_marin"                       "Bølgedominert_delta_front"  
2580.5 "6407_6-3"  90.0900 "Sandstone" "Shale"   "Limestone"  50.0000 40.00000 10.00000 "silt/vf"  "vf"       "Nedre_strandskråning_prodelta,_åpen_marin"                       "Bølgedominert_delta_front"  
2580.6 "6407_6-3"  94.0500 "Sandstone" "Shale"   "Limestone"  50.0000 40.00000 10.00000 "silt/vf"  "vf"       "Nedre_strandskråning_prodelta,_åpen_marin"                       "Bølgedominert_delta_front"  
2580.7 "6407_6-3"  98.7800 "Sandstone" "Shale"   "Limestone"  50.0000 40.00000 10.00000 "silt/vf"  "vf"       "Nedre_strandskråning_prodelta,_åpen_marin"                       "Bølgedominert_delta_front"  
2580.8 "6407_6-3" 101.3300 "Sandstone" "Shale"   "Limestone"  50.0000 40.00000 10.00000 "silt/vf"  "vf"       "Nedre_strandskråning_prodelta,_åpen_marin"                       "Bølgedominert_delta_front"  
2580.9 "6407_6-3" 103.7900 "Sandstone" "Shale"   "Limestone"  50.0000 40.00000 10.00000 "silt/vf"  "vf"       "Nedre_strandskråning_prodelta,_åpen_marin"                       "Bølgedominert_delta_front"  
2581.0 "6407_6-3" 105.3300 "Sandstone" "Shale"   "Limestone"  50.0000 40.00000 10.00000 "silt/vf"  "vf"       "Nedre_strandskråning_prodelta,_åpen_marin"                       "Bølgedominert_delta_front"  
2581.1 "6407_6-3" 106.4600 "Sandstone" "Shale"   "Limestone"  50.0000 40.00000 10.00000 "silt/vf"  "vf"       "Nedre_strandskråning_prodelta,_åpen_marin"                       "Bølgedominert_delta_front"  
2581.2 "6407_6-3" 107.5600 "Sandstone" "Shale"   "Limestone"  50.0000 40.00000 10.00000 "silt/vf"  "vf"       "Nedre_strandskråning_prodelta,_åpen_marin"                       "Bølgedominert_delta_front"  
2581.3 "6407_6-3" 107.9700 "Sandstone" "Shale"   "Limestone"  50.0000 40.00000 10.00000 "silt/vf"  "vf"       "Nedre_strandskråning_prodelta,_åpen_marin"                       "Bølgedominert_delta_front"  
2581.4 "6407_6-3" 108.3800 "Sandstone" "Shale"   "Limestone"  50.0000 40.00000 10.00000 "silt/vf"  "vf"       "Nedre_strandskråning_prodelta,_åpen_marin"                       "Bølgedominert_delta_front"  
2581.5 "6407_6-3" 108.7800 "Sandstone" "Shale"   "Limestone"  50.0000 40.00000 10.00000 "silt/vf"  "vf"       "Nedre_strandskråning_prodelta,_åpen_marin"                       "Bølgedominert_delta_front"  
2581.6 "6407_6-3" 109.1400 "Sandstone" "Shale"   "Limestone"  50.0000 40.00000 10.00000 "silt/vf"  "vf"       "Nedre_strandskråning_prodelta,_åpen_marin"                       "Bølgedominert_delta_front"  
2581.7 "6407_6-3" 109.8800 "Sandstone" "Shale"   "Limestone"  50.0000 40.00000 10.00000 "silt/vf"  "vf"       "Nedre_strandskråning_prodelta,_åpen_marin"                       "Bølgedominert_delta_front"  
2581.8 "6407_6-3" 112.5400 "Sandstone" "Shale"   "Limestone"  50.0000 40.00000 10.00000 "silt/vf"  "vf"       "Nedre_strandskråning_prodelta,_åpen_marin"                       "Bølgedominert_delta_front"  
2581.9 "6407_6-3" 114.1900 "Sandstone" "Shale"   "Limestone"  50.0000 40.00000 10.00000 "silt/vf"  "vf"       "Nedre_strandskråning_prodelta,_åpen_marin"                       "Bølgedominert_delta_front"  
2582.0 "6407_6-3" 115.2400 "Sandstone" "Shale"   "Limestone"  50.0000 40.00000 10.00000 "silt/vf"  "vf"       "Nedre_strandskråning_prodelta,_åpen_marin"                       "Bølgedominert_delta_front"  
2582.1 "6407_6-3" 116.0600 "Sandstone" "Shale"   "Limestone"  50.0000 40.00000 10.00000 "silt/vf"  "vf"       "Nedre_strandskråning_prodelta,_åpen_marin"                       "Bølgedominert_delta_front"  
2582.2 "6407_6-3" 116.8400 "Sandstone" "Shale"   "Limestone"  50.0000 40.00000 10.00000 "silt/vf"  "vf"       "Nedre_strandskråning_prodelta,_åpen_marin"                       "Bølgedominert_delta_front"  
2582.3 "6407_6-3" 117.1200 "Sandstone" "Shale"   "Limestone"  50.0000 40.00000 10.00000 "silt/vf"  "vf"       "Nedre_strandskråning_prodelta,_åpen_marin"                       "Bølgedominert_delta_front"  
2582.4 "6407_6-3" 117.4000 "Sandstone" "Shale"   "Limestone"  50.0000 40.00000 10.00000 "silt/vf"  "vf"       "Nedre_strandskråning_prodelta,_åpen_marin"                       "Bølgedominert_delta_front"  
2582.5 "6407_6-3" 117.6800 "Sandstone" "Shale"   "Limestone"  50.0000 40.00000 10.00000 "silt/vf"  "vf"       "Nedre_strandskråning_prodelta,_åpen_marin"                       "Bølgedominert_delta_front"  
2582.6 "6407_6-3" 117.9600 "Sandstone" "Shale"   "Limestone"  50.0000 40.00000 10.00000 "silt/vf"  "vf"       "Nedre_strandskråning_prodelta,_åpen_marin"                       "Bølgedominert_delta_front"  
2582.7 "6407_6-3" 118.1300 "Sandstone" "Shale"   "Limestone"  50.0000 40.00000 10.00000 "silt/vf"  "vf"       "Nedre_strandskråning_prodelta,_åpen_marin"                       "Bølgedominert_delta_front"  
2582.8 "6407_6-3" 118.2700 "Sandstone" "Shale"   "Limestone"  50.0000 40.00000 10.00000 "silt/vf"  "vf"       "Nedre_strandskråning_prodelta,_åpen_marin"                       "Bølgedominert_delta_front"  
2582.9 "6407_6-3" 118.4100 "Sandstone" "Shale"   "Limestone"  50.0000 40.00000 10.00000 "silt/vf"  "vf"       "Nedre_strandskråning_prodelta,_åpen_marin"                       "Bølgedominert_delta_front"  
2583.0 "6407_6-3" 118.7500 "Sandstone" "Shale"   "Limestone"  50.0000 40.00000 10.00000 "silt/vf"  "vf"       "Nedre_strandskråning_prodelta,_åpen_marin"                       "Bølgedominert_delta_front"  
2583.1 "6407_6-3" 119.6100 "Sandstone" "Shale"   "Limestone"  50.0000 40.00000 10.00000 "silt/vf"  "vf"       "Nedre_strandskråning_prodelta,_åpen_marin"                       "Bølgedominert_delta_front"  
2583.2 "6407_6-3" 121.4400 "Sandstone" "Shale"   "Limestone"  50.0000 40.00000 10.00000 "silt/vf"  "vf"       "Nedre_strandskråning_prodelta,_åpen_marin"                       "Bølgedominert_delta_front"  
2583.3 "6407_6-3" 123.8200 "Sandstone" "Shale"   "Limestone"  50.0000 40.00000 10.00000 "silt/vf"  "vf"       "Nedre_strandskråning_prodelta,_åpen_marin"                       "Bølgedominert_delta_front"  
