~Version
VERS  .                                 3.0 : CWLS LAS ASCII Standard - Version 3.0
WRAP  . NO                                  : One line per depth step
DLM   . SPACE                               : Column data section delimiter
SOURCE. Converted to LAS by Log Studio 4.76 : GeoProvider

~Well
STRT.         2472.0 : Start depth
STOP.         2615.0 : Stop depth
STEP.              1 : Step
NULL.        -999.25 : No-value
COMP.                : Company
WELL. 6407/6-3       : Well
FLD .                : Field
LOC .                : Location
LATI.                : Latitude
LONG.                : Longitude
GDAT.                : Geodetic datum
CNTY.                : County
STAT.                : State
CTRY.                : Country
SRVC. GeoProvider AS : Service company
DATE.                : Date
API .                : API number
RUN .                : Run number

~Parameters
WellboreName.  : Wellbore name
RigName     .  : Rig name
StartDate   .  : Start date

~Curves
DEPTH.m            .  : null {F}Depth mMD
Hole_ID.-          .  : null {S}Hole ID
GR.API             .  : null {F}Gamma Ray
Lithology1.-       .  : null {S}Lithology 1
Lithology2.-       .  : null {S}Lithology 2
Lithology3.-       .  : null {S}Lithology 3
Lithology1.%       .  : null {F}Lithology 1 percentage
Lithology2.%       .  : null {F}Lithology 2 percentage
Lithology3.%       .  : null {F}Lithology 3 percentage
Grain_size_Top.-   .  : null {S}Grain size at the top 
Grain_size_Base.-  .  : null {S}Grain size at the bottom
Sub_Environment.-  .  : null {S}Sub Environment
Gross_Environment.-.  : null {S}Gross Environment

~Ascii
# ...
2480.0 "6407_6-3"  64.7300 "Sandstone" -999.25   -999.25   100.0000      0.0      0.0 "c"        "c"        "Proksimal_braid_delta_front_or_braided_channel_syste"            "Braidplane-braid_delta_front"
2480.1 "6407_6-3"  64.7300 "Sandstone" -999.25   -999.25   100.0000      0.0      0.0 "c"        "c"        "Proksimal_braid_delta_front_or_braided_channel_syste"            "Braidplane-braid_delta_front"
2480.2 "6407_6-3"  64.8500 "Sandstone" -999.25   -999.25   100.0000      0.0      0.0 "c"        "c"        "Proksimal_braid_delta_front_or_braided_channel_syste"            "Braidplane-braid_delta_front"
2480.3 "6407_6-3"  65.1100 "Sandstone" -999.25   -999.25   100.0000      0.0      0.0 "c"        "c"        "Proksimal_braid_delta_front_or_braided_channel_syste"            "Braidplane-braid_delta_front"
2480.4 "6407_6-3"  65.3600 "Sandstone" -999.25   -999.25   100.0000      0.0      0.0 "c"        "c"        "Proksimal_braid_delta_front_or_braided_channel_syste"            "Braidplane-braid_delta_front"
2480.5 "6407_6-3"  65.6100 "Sandstone" -999.25   -999.25   100.0000      0.0      0.0 "c"        "c"        "Proksimal_braid_delta_front_or_braided_channel_syste"            "Braidplane-braid_delta_front"
2480.6 "6407_6-3"  65.8600 "Sandstone" -999.25   -999.25   100.0000      0.0      0.0 "c"        "c"        "Proksimal_braid_delta_front_or_braided_channel_syste"            "Braidplane-braid_delta_front"
2480.7 "6407_6-3"  66.2800 "Sandstone" -999.25   -999.25   100.0000      0.0      0.0 "c"        "c"        "Proksimal_braid_delta_front_or_braided_channel_syste"            "Braidplane-braid_delta_front"
2480.8 "6407_6-3"  66.8500 "Sandstone" -999.25   -999.25   100.0000      0.0      0.0 "c"        "c"        "Proksimal_braid_delta_front_or_braided_channel_syste"            "Braidplane-braid_delta_front"
2480.9 "6407_6-3"  67.4200 "Sandstone" -999.25   -999.25   100.0000      0.0      0.0 "c"        "c"        "Proksimal_braid_delta_front_or_braided_channel_syste"            "Braidplane-braid_delta_front"
2481.0 "6407_6-3"  67.9900 "Sandstone" -999.25   -999.25   100.0000      0.0      0.0 "c"        "c"        "Proksimal_braid_delta_front_or_braided_channel_syste"            "Braidplane-braid_delta_front"
2481.1 "6407_6-3"  68.5600 "Sandstone" -999.25   -999.25   100.0000      0.0      0.0 "c"        "c"        "Proksimal_braid_delta_front_or_braided_channel_syste"            "Braidplane-braid_delta_front"
2481.2 "6407_6-3"  69.1000 "Sandstone" -999.25   -999.25   100.0000      0.0      0.0 "c"        "c"        "Proksimal_braid_delta_front_or_braided_channel_syste"            "Braidplane-braid_delta_front"
2481.3 "6407_6-3"  69.6300 "Sandstone" -999.25   -999.25   100.0000      0.0      0.0 "c"        "c"        "Proksimal_braid_delta_front_or_braided_channel_syste"            "Braidplane-braid_delta_front"
2481.4 "6407_6-3"  70.1600 "Sandstone" -999.25   -999.25   100.0000      0.0      0.0 "c"        "c"        "Proksimal_braid_delta_front_or_braided_channel_syste"            "Braidplane-braid_delta_front"
2481.5 "6407_6-3"  70.7000 "Sandstone" -999.25   -999.25   100.0000      0.0      0.0 "c"        "c"        "Proksimal_braid_delta_front_or_braided_channel_syste"            "Braidplane-braid_delta_front"
2481.6 "6407_6-3"  71.2300 "Sandstone" -999.25   -999.25   100.0000      0.0      0.0 "c"        "c"        "Proksimal_braid_delta_front_or_braided_channel_syste"            "Braidplane-braid_delta_front"
2481.7 "6407_6-3"  71.7600 "Sandstone" -999.25   -999.25   100.0000      0.0      0.0 "c"        "c"        "Proksimal_braid_delta_front_or_braided_channel_syste"            "Braidplane-braid_delta_front"
2481.8 "6407_6-3"  71.9000 "Sandstone" -999.25   -999.25   100.0000      0.0      0.0 "c"        "c"        "Proksimal_braid_delta_front_or_braided_channel_syste"            "Braidplane-braid_delta_front"
2481.9 "6407_6-3"  71.6500 "Sandstone" -999.25   -999.25   100.0000      0.0      0.0 "c"        "c"        "Proksimal_braid_delta_front_or_braided_channel_syste"            "Braidplane-braid_delta_front"
2482.0 "6407_6-3"  71.3600 "Sandstone" -999.25   -999.25   100.0000      0.0      0.0 "c"        "c"        "Proksimal_braid_delta_front_or_braided_channel_syste"            "Braidplane-braid_delta_front"
2482.1 "6407_6-3"  71.6700 "Sandstone" -999.25   -999.25   100.0000      0.0      0.0 "c"        "c"        "Proksimal_braid_delta_front_or_braided_channel_syste"            "Braidplane-braid_delta_front"
2482.2 "6407_6-3"  72.0100 "Sandstone" -999.25   -999.25   100.0000      0.0      0.0 "c"        "c"        "Proksimal_braid_delta_front_or_braided_channel_syste"            "Braidplane-braid_delta_front"
2482.3 "6407_6-3"  72.9700 "Sandstone" -999.25   -999.25   100.0000      0.0      0.0 "c"        "c"        "Proksimal_braid_delta_front_or_braided_channel_syste"            "Braidplane-braid_delta_front"
2482.4 "6407_6-3"  73.6900 "Sandstone" -999.25   -999.25   100.0000      0.0      0.0 "c"        "c"        "Proksimal_braid_delta_front_or_braided_channel_syste"            "Braidplane-braid_delta_front"
2482.5 "6407_6-3"  73.6500 "Sandstone" -999.25   -999.25   100.0000      0.0      0.0 "c"        "c"        "Proksimal_braid_delta_front_or_braided_channel_syste"            "Braidplane-braid_delta_front"
2482.6 "6407_6-3"  72.5100 "Sandstone" -999.25   -999.25   100.0000      0.0      0.0 "c"        "c"        "Proksimal_braid_delta_front_or_braided_channel_syste"            "Braidplane-braid_delta_front"
2482.7 "6407_6-3"  71.1100 -999.25   -999.25   -999.25   100.0000      0.0      0.0 -999.25    -999.25    -999.25                                                           -999.25                      
2482.8 "6407_6-3"  69.7000 -999.25   -999.25   -999.25   100.0000      0.0      0.0 -999.25    -999.25    -999.25                                                           -999.25                      
2482.9 "6407_6-3"  68.4500 -999.25   -999.25   -999.25   100.0000      0.0      0.0 -999.25    -999.25    -999.25                                                           -999.25                      
2483.0 "6407_6-3"  67.3400 -999.25   -999.25   -999.25   100.0000      0.0      0.0 -999.25    -999.25    -999.25                                                           -999.25                      
2483.1 "6407_6-3"  67.0900 -999.25   -999.25   -999.25   100.0000      0.0      0.0 -999.25    -999.25    -999.25                                                           -999.25                      
2483.2 "6407_6-3"  66.9200 -999.25   -999.25   -999.25   100.0000      0.0      0.0 -999.25    -999.25    -999.25                                                           -999.25                      
2483.3 "6407_6-3"  67.1000 -999.25   -999.25   -999.25   100.0000      0.0      0.0 -999.25    -999.25    -999.25                                                           -999.25                      
2483.4 "6407_6-3"  67.3100 -999.25   -999.25   -999.25   100.0000      0.0      0.0 -999.25    -999.25    -999.25                                                           -999.25                      
2483.5 "6407_6-3"  67.5600 -999.25   -999.25   -999.25   100.0000      0.0      0.0 -999.25    -999.25    -999.25                                                           -999.25                      
2483.6 "6407_6-3"  68.0100 -999.25   -999.25   -999.25   100.0000      0.0      0.0 -999.25    -999.25    -999.25                                                           -999.25                      
2483.7 "6407_6-3"  68.4600 -999.25   -999.25   -999.25   100.0000      0.0      0.0 -999.25    -999.25    -999.25                                                           -999.25                      
2483.8 "6407_6-3"  68.9100 -999.25   -999.25   -999.25   100.0000      0.0      0.0 -999.25    -999.25    -999.25                                                           -999.25                      
2483.9 "6407_6-3"  69.3600 -999.25   -999.25   -999.25   100.0000      0.0      0.0 -999.25    -999.25    -999.25                                                           -999.25                      
