~Version
VERS  .                                 3.0 : CWLS LAS ASCII Standard - Version 3.0
WRAP  . NO                                  : One line per depth step
DLM   . SPACE                               : Column data section delimiter
SOURCE. Converted to LAS by Log Studio 4.76 : GeoProvider

~Well
STRT.         2472.0 : Start depth
STOP.         2615.0 : Stop depth
STEP.              1 : Step
NULL.        -999.25 : No-value
COMP.                : Company
WELL. 6407/6-3       : Well
FLD .                : Field
LOC .                : Location
LATI.                : Latitude
LONG.                : Longitude
GDAT.                : Geodetic datum
CNTY.                : County
STAT.                : State
CTRY.                : Country
SRVC. GeoProvider AS : Service company
DATE.                : Date
API .                : API number
RUN .                : Run number

~Parameters
WellboreName.  : Wellbore name
RigName     .  : Rig name
StartDate   .  : Start date

~Curves
DEPTH.m            .  : null {F}Depth mMD
Hole_ID.-          .  : null {S}Hole ID
GR.API             .  : null {F}Gamma Ray
Lithology1.-       .  : null {S}Lithology 1
Lithology2.-       .  : null {S}Lithology 2
Lithology3.-       .  : null {S}Lithology 3
Lithology1.%       .  : null {F}Lithology 1 percentage
Lithology2.%       .  : null {F}Lithology 2 percentage
Lithology3.%       .  : null {F}Lithology 3 percentage
Grain_size_Top.-   .  : null {S}Grain size at the top 
Grain_size_Base.-  .  : null {S}Grain size at the bottom
Sub_Environment.-  .  : null {S}Sub Environment
Gross_Environment.-.  : null {S}Gross Environment

~Ascii
# ...
2504.0 "6407_6-3"  88.7100 "Sandstone" -999.25   -999.25   100.0000      0.0      0.0 "vf"       "vf/f"     "Øvre_strandskråning,_overgang_til_nedre_strandskråning"          "Distal_deltafront"          
2504.1 "6407_6-3"  87.7000 "Sandstone" -999.25   -999.25   100.0000      0.0      0.0 "vf"       "vf/f"     "Øvre_strandskråning,_overgang_til_nedre_strandskråning"          "Distal_deltafront"          
2504.2 "6407_6-3"  86.7900 "Sandstone" -999.25   -999.25   100.0000      0.0      0.0 "vf"       "vf/f"     "Øvre_strandskråning,_overgang_til_nedre_strandskråning"          "Distal_deltafront"          
2504.3 "6407_6-3"  86.3000 "Sandstone" -999.25   -999.25   100.0000      0.0      0.0 "vf"       "vf/f"     "Øvre_strandskråning,_overgang_til_nedre_strandskråning"          "Distal_deltafront"          
2504.4 "6407_6-3"  86.1400 "Sandstone" -999.25   -999.25   100.0000      0.0      0.0 "vf"       "vf/f"     "Øvre_strandskråning,_overgang_til_nedre_strandskråning"          "Distal_deltafront"          
2504.5 "6407_6-3"  85.9800 "Sandstone" -999.25   -999.25   100.0000      0.0      0.0 "vf"       "vf/f"     "Øvre_strandskråning,_overgang_til_nedre_strandskråning"          "Distal_deltafront"          
2504.6 "6407_6-3"  85.7500 "Sandstone" -999.25   -999.25   100.0000      0.0      0.0 "vf"       "vf/f"     "Øvre_strandskråning,_overgang_til_nedre_strandskråning"          "Distal_deltafront"          
2504.7 "6407_6-3"  85.2700 "Sandstone" -999.25   -999.25   100.0000      0.0      0.0 "vf"       "vf/f"     "Øvre_strandskråning,_overgang_til_nedre_strandskråning"          "Distal_deltafront"          
2504.8 "6407_6-3"  84.6500 "Sandstone" -999.25   -999.25   100.0000      0.0      0.0 "vf"       "vf/f"     "Øvre_strandskråning,_overgang_til_nedre_strandskråning"          "Distal_deltafront"          
2504.9 "6407_6-3"  83.7000 "Sandstone" -999.25   -999.25   100.0000      0.0      0.0 "vf"       "vf/f"     "Øvre_strandskråning,_overgang_til_nedre_strandskråning"          "Distal_deltafront"          
2505.0 "6407_6-3"  83.1600 "Sandstone" -999.25   -999.25   100.0000      0.0      0.0 "vf"       "vf/f"     "Øvre_strandskråning,_overgang_til_nedre_strandskråning"          "Distal_deltafront"          
2505.1 "6407_6-3"  82.7800 "Sandstone" -999.25   -999.25   100.0000      0.0      0.0 "vf"       "vf/f"     "Øvre_strandskråning,_overgang_til_nedre_strandskråning"          "Distal_deltafront"          
2505.2 "6407_6-3"  83.1600 "Sandstone" -999.25   -999.25   100.0000      0.0      0.0 "vf"       "vf/f"     "Øvre_strandskråning,_overgang_til_nedre_strandskråning"          "Distal_deltafront"          
2505.3 "6407_6-3"  83.7400 "Sandstone" -999.25   -999.25   100.0000      0.0      0.0 "vf"       "vf/f"     "Øvre_strandskråning,_overgang_til_nedre_strandskråning"          "Distal_deltafront"          
2505.4 "6407_6-3"  84.6100 "Sandstone" -999.25   -999.25   100.0000      0.0      0.0 "vf"       "vf/f"     "Øvre_strandskråning,_overgang_til_nedre_strandskråning"          "Distal_deltafront"          
2505.5 "6407_6-3"  85.0900 "Sandstone" -999.25   -999.25   100.0000      0.0      0.0 "vf"       "vf/f"     "Øvre_strandskråning,_overgang_til_nedre_strandskråning"          "Distal_deltafront"          
2505.6 "6407_6-3"  85.5700 "Sandstone" -999.25   -999.25   100.0000      0.0      0.0 "vf"       "vf/f"     "Øvre_strandskråning,_overgang_til_nedre_strandskråning"          "Distal_deltafront"          
2505.7 "6407_6-3"  86.0500 "Sandstone" -999.25   -999.25   100.0000      0.0      0.0 "vf"       "vf/f"     "Øvre_strandskråning,_overgang_til_nedre_strandskråning"          "Distal_deltafront"          
2505.8 "6407_6-3"  86.5300 "Sandstone" -999.25   -999.25   100.0000      0.0      0.0 "vf"       "vf/f"     "Øvre_strandskråning,_overgang_til_nedre_strandskråning"          "Distal_deltafront"          
2505.9 "6407_6-3"  87.0100 "Sandstone" -999.25   -999.25   100.0000      0.0      0.0 "vf"       "vf/f"     "Øvre_strandskråning,_overgang_til_nedre_strandskråning"          "Distal_deltafront"          
2506.0 "6407_6-3"  87.4900 "Sandstone" -999.25   -999.25   100.0000      0.0      0.0 "vf"       "vf/f"     "Øvre_strandskråning,_overgang_til_nedre_strandskråning"          "Distal_deltafront"          
2506.1 "6407_6-3"  87.9700 "Sandstone" -999.25   -999.25   100.0000      0.0      0.0 "vf"       "vf/f"     "Øvre_strandskråning,_overgang_til_nedre_strandskråning"          "Distal_deltafront"          
2506.2 "6407_6-3"  88.4500 "Sandstone" -999.25   -999.25   100.0000      0.0      0.0 "vf"       "vf/f"     "Øvre_strandskråning,_overgang_til_nedre_strandskråning"          "Distal_deltafront"          
2506.3 "6407_6-3"  88.8000 "Sandstone" -999.25   -999.25   100.0000      0.0      0.0 "vf"       "vf/f"     "Øvre_strandskråning,_overgang_til_nedre_strandskråning"          "Distal_deltafront"          
2506.4 "6407_6-3"  88.9200 "Sandstone" -999.25   -999.25   100.0000      0.0      0.0 "vf"       "vf/f"     "Øvre_strandskråning,_overgang_til_nedre_strandskråning"          "Distal_deltafront"          
2506.5 "6407_6-3"  88.7300 "Sandstone" -999.25   -999.25   100.0000      0.0      0.0 "vf"       "vf/f"     "Øvre_strandskråning,_overgang_til_nedre_strandskråning"          "Distal_deltafront"          
2506.6 "6407_6-3"  88.5400 "Sandstone" -999.25   -999.25   100.0000      0.0      0.0 "vf"       "vf/f"     "Øvre_strandskråning,_overgang_til_nedre_strandskråning"          "Distal_deltafront"          
2506.7 "6407_6-3"  88.4900 "Sandstone" -999.25   -999.25   100.0000      0.0      0.0 "vf"       "vf/f"     "Øvre_strandskråning,_overgang_til_nedre_strandskråning"          "Distal_deltafront"          
2506.8 "6407_6-3"  88.4700 "Sandstone" -999.25   -999.25   100.0000      0.0      0.0 "vf"       "vf/f"     "Øvre_strandskråning,_overgang_til_nedre_strandskråning"          "Distal_deltafront"          
2506.9 "6407_6-3"  88.7500 "Sandstone" -999.25   -999.25   100.0000      0.0      0.0 "vf"       "vf/f"     "Øvre_strandskråning,_overgang_til_nedre_strandskråning"          "Distal_deltafront"          
2507.0 "6407_6-3"  89.0300 "Sandstone" -999.25   -999.25   100.0000      0.0      0.0 "vf"       "vf/f"     "Øvre_strandskråning,_overgang_til_nedre_strandskråning"          "Distal_deltafront"          
2507.1 "6407_6-3"  90.0100 "Sandstone" -999.25   -999.25   100.0000      0.0      0.0 "vf"       "vf/f"     "Øvre_strandskråning,_overgang_til_nedre_strandskråning"          "Distal_deltafront"          
2507.2 "6407_6-3"  91.0300 "Sandstone" -999.25   -999.25   100.0000      0.0      0.0 "vf"       "vf/f"     "Øvre_strandskråning,_overgang_til_nedre_strandskråning"          "Distal_deltafront"          
2507.3 "6407_6-3"  92.2500 "Sandstone" -999.25   -999.25   100.0000      0.0      0.0 "vf"       "vf/f"     "Øvre_strandskråning,_overgang_til_nedre_strandskråning"          "Distal_deltafront"          
2507.4 "6407_6-3"  93.2300 "Sandstone" -999.25   -999.25   100.0000      0.0      0.0 "vf"       "vf/f"     "Øvre_strandskråning,_overgang_til_nedre_strandskråning"          "Distal_deltafront"          
2507.5 "6407_6-3"  93.9500 "Sandstone" -999.25   -999.25   100.0000      0.0      0.0 "vf"       "vf/f"     "Øvre_strandskråning,_overgang_til_nedre_strandskråning"          "Distal_deltafront"          
2507.6 "6407_6-3"  94.5300 "Sandstone" -999.25   -999.25   100.0000      0.0      0.0 "vf"       "vf/f"     "Øvre_strandskråning,_overgang_til_nedre_strandskråning"          "Distal_deltafront"          
2507.7 "6407_6-3"  94.6800 "Sandstone" -999.25   -999.25   100.0000      0.0      0.0 "vf"       "vf/f"     "Øvre_strandskråning,_overgang_til_nedre_strandskråning"          "Distal_deltafront"          
2507.8 "6407_6-3"  94.8200 "Sandstone" -999.25   -999.25   100.0000      0.0      0.0 "vf"       "vf/f"     "Øvre_strandskråning,_overgang_til_nedre_strandskråning"          "Distal_deltafront"          
2507.9 "6407_6-3"  94.6900 "Sandstone" -999.25   -999.25   100.0000      0.0      0.0 "vf"       "vf/f"     "Øvre_strandskråning,_overgang_til_nedre_strandskråning"          "Distal_deltafront"          
