~Version
VERS  .                                 3.0 : CWLS LAS ASCII Standard - Version 3.0
WRAP  . NO                                  : One line per depth step
DLM   . SPACE                               : Column data section delimiter
SOURCE. Converted to LAS by Log Studio 4.76 : GeoProvider

~Well
STRT.         2472.0 : Start depth
STOP.         2615.0 : Stop depth
STEP.              1 : Step
NULL.        -999.25 : No-value
COMP.                : Company
WELL. 6407/6-3       : Well
FLD .                : Field
LOC .                : Location
LATI.                : Latitude
LONG.                : Longitude
GDAT.                : Geodetic datum
CNTY.                : County
STAT.                : State
CTRY.                : Country
SRVC. GeoProvider AS : Service company
DATE.                : Date
API .                : API number
RUN .                : Run number

~Parameters
WellboreName.  : Wellbore name
RigName     .  : Rig name
StartDate   .  : Start date

~Curves
DEPTH.m            .  : null {F}Depth mMD
Hole_ID.-          .  : null {S}Hole ID
GR.API             .  : null {F}Gamma Ray
Lithology1.-       .  : null {S}Lithology 1
Lithology2.-       .  : null {S}Lithology 2
Lithology3.-       .  : null {S}Lithology 3
Lithology1.%       .  : null {F}Lithology 1 percentage
Lithology2.%       .  : null {F}Lithology 2 percentage
Lithology3.%       .  : null {F}Lithology 3 percentage
Grain_size_Top.-   .  : null {S}Grain size at the top 
Grain_size_Base.-  .  : null {S}Grain size at the bottom
Sub_Environment.-  .  : null {S}Sub Environment
Gross_Environment.-.  : null {S}Gross Environment

~Ascii
# ...
2520.0 "6407_6-3" 119.0400 "Sandstone" "Shale"   -999.25    93.0000  7.00000      0.0 "vf/f"     "vf/f"     "Strand/_øvre_strandskråning"                                     "Bølgedominert_delta_front"  
2520.1 "6407_6-3" 119.8700 "Sandstone" "Shale"   -999.25    93.0000  7.00000      0.0 "vf/f"     "vf/f"     -999.25                                                           "Bølgedominert_delta_front"  
2520.2 "6407_6-3" 120.6600 "Sandstone" "Shale"   -999.25    93.0000  7.00000      0.0 "vf/f"     "vf/f"     -999.25                                                           "Bølgedominert_delta_front"  
2520.3 "6407_6-3" 120.9300 "Sandstone" "Shale"   -999.25    93.0000  7.00000      0.0 "vf/f"     "vf/f"     -999.25                                                           "Bølgedominert_delta_front"  
2520.4 "6407_6-3" 121.0200 "Sandstone" "Shale"   -999.25    93.0000  7.00000      0.0 "vf/f"     "vf/f"     -999.25                                                           "Bølgedominert_delta_front"  
2520.5 "6407_6-3" 120.5600 "Sandstone" "Shale"   -999.25    93.0000  7.00000      0.0 "vf/f"     "vf/f"     -999.25                                                           "Bølgedominert_delta_front"  
2520.6 "6407_6-3" 119.7700 "Sandstone" "Shale"   -999.25    93.0000  7.00000      0.0 "vf/f"     "vf/f"     -999.25                                                           "Bølgedominert_delta_front"  
2520.7 "6407_6-3" 119.0700 "Sandstone" "Shale"   -999.25    93.0000  7.00000      0.0 "vf/f"     "vf/f"     -999.25                                                           "Bølgedominert_delta_front"  
2520.8 "6407_6-3" 118.7900 "Sandstone" "Shale"   -999.25    93.0000  7.00000      0.0 "vf/f"     "vf/f"     -999.25                                                           "Bølgedominert_delta_front"  
2520.9 "6407_6-3" 119.0100 "Sandstone" "Shale"   -999.25    93.0000  7.00000      0.0 "vf/f"     "vf/f"     -999.25                                                           "Bølgedominert_delta_front"  
2521.0 "6407_6-3" 119.3800 "Sandstone" "Shale"   -999.25    93.0000  7.00000      0.0 "vf/f"     "vf/f"     -999.25                                                           "Bølgedominert_delta_front"  
2521.1 "6407_6-3" 120.2700 "Sandstone" "Shale"   -999.25    93.0000  7.00000      0.0 "vf/f"     "vf/f"     -999.25                                                           "Bølgedominert_delta_front"  
2521.2 "6407_6-3" 121.2300 "Sandstone" "Shale"   -999.25    93.0000  7.00000      0.0 "vf/f"     "vf/f"     -999.25                                                           "Bølgedominert_delta_front"  
2521.3 "6407_6-3" 122.2700 "Sandstone" "Shale"   -999.25    93.0000  7.00000      0.0 "vf/f"     "vf/f"     -999.25                                                           "Bølgedominert_delta_front"  
2521.4 "6407_6-3" 124.2100 "Sandstone" "Shale"   -999.25    93.0000  7.00000      0.0 "vf/f"     "vf/f"     -999.25                                                           "Bølgedominert_delta_front"  
2521.5 "6407_6-3" 127.0500 "Sandstone" "Shale"   -999.25    93.0000  7.00000      0.0 "vf/f"     "vf/f"     -999.25                                                           "Bølgedominert_delta_front"  
2521.6 "6407_6-3" 129.8800 "Sandstone" -999.25   -999.25   100.0000      0.0      0.0 -999.25    -999.25    -999.25                                                           "Bølgedominert_delta_front"  
2521.7 "6407_6-3" 130.9400 "Sandstone" -999.25   -999.25   100.0000      0.0      0.0 -999.25    -999.25    -999.25                                                           "Bølgedominert_delta_front"  
2521.8 "6407_6-3" 130.9300 "Sandstone" -999.25   -999.25   100.0000      0.0      0.0 -999.25    -999.25    -999.25                                                           "Bølgedominert_delta_front"  
2521.9 "6407_6-3" 130.9300 "Sandstone" -999.25   -999.25   100.0000      0.0      0.0 -999.25    -999.25    -999.25                                                           "Bølgedominert_delta_front"  
2522.0 "6407_6-3" 130.9300 "Sandstone" -999.25   -999.25   100.0000      0.0      0.0 -999.25    -999.25    -999.25                                                           "Bølgedominert_delta_front"  
2522.1 "6407_6-3" 130.9300 "Sandstone" "Shale"   -999.25    75.0000 25.00000      0.0 "vf"       "vf/f"     -999.25                                                           "Bølgedominert_delta_front"  
2522.2 "6407_6-3" 130.9200 "Sandstone" "Shale"   -999.25    75.0000 25.00000      0.0 "vf"       "vf/f"     -999.25                                                           "Bølgedominert_delta_front"  
2522.3 "6407_6-3" 130.9200 "Sandstone" "Shale"   -999.25    75.0000 25.00000      0.0 "vf"       "vf/f"     -999.25                                                           "Bølgedominert_delta_front"  
2522.4 "6407_6-3" 130.9200 "Sandstone" "Shale"   -999.25    75.0000 25.00000      0.0 "vf"       "vf/f"     -999.25                                                           "Bølgedominert_delta_front"  
2522.5 "6407_6-3" 130.9200 "Sandstone" "Shale"   -999.25    75.0000 25.00000      0.0 "vf"       "vf/f"     -999.25                                                           "Bølgedominert_delta_front"  
2522.6 "6407_6-3" 130.9100 "Sandstone" "Shale"   -999.25    75.0000 25.00000      0.0 "vf"       "vf/f"     -999.25                                                           "Bølgedominert_delta_front"  
2522.7 "6407_6-3" 130.9100 "Sandstone" "Shale"   -999.25    75.0000 25.00000      0.0 "vf"       "vf/f"     -999.25                                                           "Bølgedominert_delta_front"  
2522.8 "6407_6-3" 130.9100 "Sandstone" "Shale"   -999.25    75.0000 25.00000      0.0 "vf"       "vf/f"     -999.25                                                           "Bølgedominert_delta_front"  
2522.9 "6407_6-3" 130.9100 "Sandstone" "Shale"   -999.25    75.0000 25.00000      0.0 "vf"       "vf/f"     -999.25                                                           "Bølgedominert_delta_front"  
2523.0 "6407_6-3" 130.9000 "Sandstone" "Shale"   -999.25    75.0000 25.00000      0.0 "vf"       "vf/f"     -999.25                                                           "Bølgedominert_delta_front"  
2523.1 "6407_6-3" 130.9000 "Sandstone" "Shale"   -999.25    75.0000 25.00000      0.0 "vf"       "vf/f"     -999.25                                                           "Bølgedominert_delta_front"  
2523.2 "6407_6-3" 130.9000 "Sandstone" "Shale"   -999.25    75.0000 25.00000      0.0 "vf"       "vf/f"     -999.25                                                           "Bølgedominert_delta_front"  
2523.3 "6407_6-3" 130.9000 "Sandstone" "Shale"   -999.25    75.0000 25.00000      0.0 "vf"       "vf/f"     -999.25                                                           "Bølgedominert_delta_front"  
2523.4 "6407_6-3" 130.8900 "Sandstone" "Shale"   -999.25    75.0000 25.00000      0.0 "vf"       "vf/f"     -999.25                                                           "Bølgedominert_delta_front"  
2523.5 "6407_6-3" 130.8900 "Sandstone" "Shale"   -999.25    75.0000 25.00000      0.0 "vf"       "vf/f"     -999.25                                                           "Bølgedominert_delta_front"  
2523.6 "6407_6-3" 130.8900 "Sandstone" "Shale"   -999.25    75.0000 25.00000      0.0 "vf"       "vf/f"     -999.25                                                           "Bølgedominert_delta_front"  
2523.7 "6407_6-3" 130.8800 "Sandstone" "Shale"   -999.25    75.0000 25.00000      0.0 "vf"       "vf/f"     -999.25                                                           "Bølgedominert_delta_front"  
2523.8 "6407_6-3" 130.8800 "Sandstone" "Shale"   -999.25    75.0000 25.00000      0.0 "vf"       "vf/f"     -999.25                                                           "Bølgedominert_delta_front"  
2523.9 "6407_6-3" 130.8800 "Sandstone" "Shale"   -999.25    75.0000 25.00000      0.0 "vf"       "vf/f"     -999.25                                                           "Bølgedominert_delta_front"  
