~Version
VERS  .                                 3.0 : CWLS LAS ASCII Standard - Version 3.0
WRAP  . NO                                  : One line per depth step
DLM   . SPACE                               : Column data section delimiter
SOURCE. Converted to LAS by Log Studio 4.76 : GeoProvider

~Well
STRT.         2472.0 : Start depth
STOP.         2615.0 : Stop depth
STEP.              1 : Step
NULL.        -999.25 : No-value
COMP.                : Company
WELL. 6407/6-3       : Well
FLD .                : Field
LOC .                : Location
LATI.                : Latitude
LONG.                : Longitude
GDAT.                : Geodetic datum
CNTY.                : County
STAT.                : State
CTRY.                : Country
SRVC. GeoProvider AS : Service company
DATE.                : Date
API .                : API number
RUN .                : Run number

~Parameters
WellboreName.  : Wellbore name
RigName     .  : Rig name
StartDate   .  : Start date

~Curves
DEPTH.m            .  : null {F}Depth mMD
Hole_ID.-          .  : null {S}Hole ID
GR.API             .  : null {F}Gamma Ray
Lithology1.-       .  : null {S}Lithology 1
Lithology2.-       .  : null {S}Lithology 2
Lithology3.-       .  : null {S}Lithology 3
Lithology1.%       .  : null {F}Lithology 1 percentage
Lithology2.%       .  : null {F}Lithology 2 percentage
Lithology3.%       .  : null {F}Lithology 3 percentage
Grain_size_Top.-   .  : null {S}Grain size at the top 
Grain_size_Base.-  .  : null {S}Grain size at the bottom
Sub_Environment.-  .  : null {S}Sub Environment
Gross_Environment.-.  : null {S}Gross Environment

~Ascii
# ...
2603.4 "6407_6-3" 100.1500 "Sandstone" -999.25   -999.25   100.0000      0.0      0.0 "c/vc"     "c/vc"     -999.25                                                           "Prograderende_delta_front"  
2603.5 "6407_6-3"  98.3700 -999.25   -999.25   -999.25   100.0000      0.0      0.0 -999.25    -999.25    -999.25                                                           "Prograderende_delta_front"  
2603.6 "6407_6-3"  95.3900 -999.25   -999.25   -999.25   100.0000      0.0      0.0 -999.25    -999.25    -999.25                                                           "Prograderende_delta_front"  
2603.7 "6407_6-3"  91.7900 "Sandstone" -999.25   -999.25   100.0000      0.0      0.0 "vc/granule" "vc/granule" -999.25                                                           "Prograderende_delta_front"  
2603.8 "6407_6-3"  88.2300 "Sandstone" -999.25   -999.25   100.0000      0.0      0.0 "vc/granule" "vc/granule" -999.25                                                           "Prograderende_delta_front"  
2603.9 "6407_6-3"  84.9300 "Sandstone" -999.25   -999.25   100.0000      0.0      0.0 "vc/granule" "vc/granule" -999.25                                                           "Prograderende_delta_front"  
2604.0 "6407_6-3"  81.4600 "Sandstone" -999.25   -999.25   100.0000      0.0      0.0 "vc/granule" "vc/granule" -999.25                                                           "Prograderende_delta_front"  
2604.1 "6407_6-3"  79.0600 "Sandstone" "Limestone" -999.25    90.0000 10.00000      0.0 "vc"       "vc"       -999.25                                                           "Prograderende_delta_front"  
2604.2 "6407_6-3"  77.5400 "Sandstone" "Limestone" -999.25    90.0000 10.00000      0.0 "vc"       "vc"       -999.25                                                           "Prograderende_delta_front"  
2604.3 "6407_6-3"  76.8000 "Sandstone" "Limestone" -999.25    90.0000 10.00000      0.0 "vc"       "vc"       -999.25                                                           "Prograderende_delta_front"  
2604.4 "6407_6-3"  76.4100 "Sandstone" "Limestone" -999.25    90.0000 10.00000      0.0 "vc"       "vc"       -999.25                                                           "Prograderende_delta_front"  
2604.5 "6407_6-3"  77.2300 "Sandstone" "Limestone" -999.25    90.0000 10.00000      0.0 "vc"       "vc"       -999.25                                                           "Prograderende_delta_front"  
2604.6 "6407_6-3"  78.7700 "Sandstone" "Limestone" -999.25    90.0000 10.00000      0.0 "vc"       "vc"       -999.25                                                           "Prograderende_delta_front"  
2604.7 "6407_6-3"  79.1600 "Sandstone" "Limestone" -999.25    90.0000 10.00000      0.0 "vc"       "vc"       -999.25                                                           "Prograderende_delta_front"  
2604.8 "6407_6-3"  78.8300 "Sandstone" "Limestone" -999.25    90.0000 10.00000      0.0 "vc"       "vc"       -999.25                                                           "Prograderende_delta_front"  
2604.9 "6407_6-3"  77.9700 "Sandstone" "Limestone" -999.25    90.0000 10.00000      0.0 "vc"       "vc"       -999.25                                                           "Prograderende_delta_front"  
2605.0 "6407_6-3"  77.1800 -999.25   -999.25   -999.25   100.0000      0.0      0.0 -999.25    -999.25    -999.25                                                           "Prograderende_delta_front"  
2605.1 "6407_6-3"  76.8600 -999.25   -999.25   -999.25   100.0000      0.0      0.0 -999.25    -999.25    -999.25                                                           "Prograderende_delta_front"  
2605.2 "6407_6-3"  77.2500 -999.25   -999.25   -999.25   100.0000      0.0      0.0 -999.25    -999.25    -999.25                                                           "Prograderende_delta_front"  
2605.3 "6407_6-3"  78.3600 -999.25   -999.25   -999.25   100.0000      0.0      0.0 -999.25    -999.25    -999.25                                                           "Prograderende_delta_front"  
2605.4 "6407_6-3"  81.1000 "Sandstone" "Shale"   -999.25    60.0000 40.00000      0.0 "c"        "c"        -999.25                                                           "Prograderende_delta_front"  
2605.5 "6407_6-3"  83.8400 "Sandstone" "Shale"   -999.25    60.0000 40.00000      0.0 "c"        "c"        -999.25                                                           "Prograderende_delta_front"  
2605.6 "6407_6-3"  86.5700 "Sandstone" "Shale"   -999.25    60.0000 40.00000      0.0 "c"        "c"        -999.25                                                           "Prograderende_delta_front"  
2605.7 "6407_6-3"  89.3100 "Sandstone" "Shale"   -999.25    60.0000 40.00000      0.0 "c"        "c"        -999.25                                                           "Prograderende_delta_front"  
2605.8 "6407_6-3"  92.3900 "Sandstone" "Shale"   -999.25    60.0000 40.00000      0.0 "c"        "c"        -999.25                                                           "Prograderende_delta_front"  
2605.9 "6407_6-3"  95.6900 "Sandstone" "Shale"   -999.25    60.0000 40.00000      0.0 "c"        "c"        -999.25                                                           "Prograderende_delta_front"  
2606.0 "6407_6-3"  99.4800 "Sandstone" "Shale"   -999.25    60.0000 40.00000      0.0 "c"        "c"        -999.25                                                           "Prograderende_delta_front"  
2606.1 "6407_6-3" 102.7800 "Sandstone" "Shale"   -999.25    60.0000 40.00000      0.0 "c"        "c"        -999.25                                                           "Prograderende_delta_front"  
2606.2 "6407_6-3" 104.5600 "Sandstone" "Shale"   -999.25    60.0000 40.00000      0.0 "c"        "c"        -999.25                                                           "Prograderende_delta_front"  
2606.3 "6407_6-3" 107.1500 "Sandstone" "Shale"   -999.25    60.0000 40.00000      0.0 "c"        "c"        -999.25                                                           "Prograderende_delta_front"  
2606.4 "6407_6-3" 109.5900 "Sandstone" "Shale"   -999.25    60.0000 40.00000      0.0 "c"        "c"        -999.25                                                           "Prograderende_delta_front"  
2606.5 "6407_6-3" 111.7000 "Sandstone" "Shale"   -999.25    60.0000 40.00000      0.0 "c"        "c"        -999.25                                                           "Prograderende_delta_front"  
2606.6 "6407_6-3" 113.8500 "Sandstone" "Shale"   -999.25    60.0000 40.00000      0.0 "c"        "c"        -999.25                                                           "Prograderende_delta_front"  
2606.7 "6407_6-3" 116.0600 "Sandstone" -999.25   -999.25   100.0000      0.0      0.0 "c"        "c"        -999.25                                                           "Prograderende_delta_front"  
2606.8 "6407_6-3" 117.5100 "Sandstone" -999.25   -999.25   100.0000      0.0      0.0 "c"        "c"        -999.25                                                           "Prograderende_delta_front"  
2606.9 "6407_6-3" 118.5600 "Sandstone" -999.25   -999.25   100.0000      0.0      0.0 "c"        "c"        -999.25                                                           "Prograderende_delta_front"  
2607.0 "6407_6-3" 119.6200 "Sandstone" -999.25   -999.25   100.0000      0.0      0.0 "c"        "c"        -999.25                                                           "Prograderende_delta_front"  
2607.1 "6407_6-3" 120.3000 "Sandstone" -999.25   -999.25   100.0000      0.0      0.0 "c"        "c"        -999.25                                                           "Prograderende_delta_front"  
2607.2 "6407_6-3" 120.7700 "Sandstone" "Shale"   "Limestone"  68.0000 12.00000 20.00000 "m/c"      "m/c"      -999.25                                                           "Prograderende_delta_front"  
2607.3 "6407_6-3" 120.9600 "Sandstone" "Shale"   "Limestone"  68.0000 12.00000 20.00000 "m/c"      "m/c"      -999.25                                                           "Prograderende_delta_front"  
