~Version
VERS  .                                 3.0 : CWLS LAS ASCII Standard - Version 3.0
WRAP  . NO                                  : One line per depth step
DLM   . SPACE                               : Column data section delimiter
SOURCE. Converted to LAS by Log Studio 4.76 : GeoProvider

~Well
STRT.         2472.0 : Start depth
STOP.         2615.0 : Stop depth
STEP.              1 : Step
NULL.        -999.25 : No-value
COMP.                : Company
WELL. 6407/6-3       : Well
FLD .                : Field
LOC .                : Location
LATI.                : Latitude
LONG.                : Longitude
GDAT.                : Geodetic datum
CNTY.                : County
STAT.                : State
CTRY.                : Country
SRVC. GeoProvider AS : Service company
DATE.                : Date
API .                : API number
RUN .                : Run number

~Parameters
WellboreName.  : Wellbore name
RigName     .  : Rig name
StartDate   .  : Start date

~Curves
DEPTH.m            .  : null {F}Depth mMD
Hole_ID.-          .  : null {S}Hole ID
GR.API             .  : null {F}Gamma Ray
Lithology1.-       .  : null {S}Lithology 1
Lithology2.-       .  : null {S}Lithology 2
Lithology3.-       .  : null {S}Lithology 3
Lithology1.%       .  : null {F}Lithology 1 percentage
Lithology2.%       .  : null {F}Lithology 2 percentage
Lithology3.%       .  : null {F}Lithology 3 percentage
Grain_size_Top.-   .  : null {S}Grain size at the top 
Grain_size_Base.-  .  : null {S}Grain size at the bottom
Sub_Environment.-  .  : null {S}Sub Environment
Gross_Environment.-.  : null {S}Gross Environment

~Ascii
# ...
2555.6 "6407_6-3"  76.1900 "Sandstone" -999.25   -999.25   100.0000      0.0      0.0 "c"        "c"        "Fluvial_kanal"                                                   "Kanal"                      
2555.7 "6407_6-3"  76.6600 "Sandstone" -999.25   -999.25   100.0000      0.0      0.0 "c"        "c"        "Fluvial_kanal"                                                   "Kanal"                      
2555.8 "6407_6-3"  76.9300 "Sandstone" -999.25   -999.25   100.0000      0.0      0.0 "c"        "c"        "Fluvial_kanal"                                                   "Kanal"                      
2555.9 "6407_6-3"  77.1900 "Sandstone" -999.25   -999.25   100.0000      0.0      0.0 "c"        "c"        "Fluvial_kanal"                                                   "Kanal"                      
2556.0 "6407_6-3"  77.1700 "Sandstone" -999.25   -999.25   100.0000      0.0      0.0 "c"        "c"        "Fluvial_kanal"                                                   "Kanal"                      
2556.1 "6407_6-3"  77.1300 "Sandstone" -999.25   -999.25   100.0000      0.0      0.0 "c"        "c"        "Fluvial_kanal"                                                   "Kanal"                      
2556.2 "6407_6-3"  76.4000 "Sandstone" -999.25   -999.25   100.0000      0.0      0.0 "c"        "c"        "Fluvial_kanal"                                                   "Kanal"                      
2556.3 "6407_6-3"  74.6300 "Sandstone" -999.25   -999.25   100.0000      0.0      0.0 "c"        "c"        "Fluvial_kanal"                                                   "Kanal"                      
2556.4 "6407_6-3"  72.1400 "Sandstone" -999.25   -999.25   100.0000      0.0      0.0 "c"        "c"        "Fluvial_kanal"                                                   "Kanal"                      
2556.5 "6407_6-3"  71.4800 "Sandstone" -999.25   -999.25   100.0000      0.0      0.0 -999.25    -999.25    "Fluvial_kanal"                                                   "Kanal"                      
2556.6 "6407_6-3"  71.0700 "Sandstone" -999.25   -999.25   100.0000      0.0      0.0 -999.25    -999.25    "Fluvial_kanal"                                                   "Kanal"                      
2556.7 "6407_6-3"  71.4100 "Sandstone" -999.25   -999.25   100.0000      0.0      0.0 -999.25    -999.25    "Fluvial_kanal"                                                   "Kanal"                      
2556.8 "6407_6-3"  71.8800 "Sandstone" -999.25   -999.25   100.0000      0.0      0.0 "c"        "c"        "Fluvial_kanal"                                                   "Kanal"                      
2556.9 "6407_6-3"  72.6000 "Sandstone" -999.25   -999.25   100.0000      0.0      0.0 "c"        "c"        "Fluvial_kanal"                                                   "Kanal"                      
2557.0 "6407_6-3"  77.0400 "Sandstone" -999.25   -999.25   100.0000      0.0      0.0 "c"        "c"        "Fluvial_kanal"                                                   "Kanal"                      
2557.1 "6407_6-3"  79.6400 "Sandstone" -999.25   -999.25   100.0000      0.0      0.0 "c"        "c"        "Fluvial_kanal"                                                   "Kanal"                      
2557.2 "6407_6-3"  82.2400 "Sandstone" -999.25   -999.25   100.0000      0.0      0.0 "c"        "c"        "Fluvial_kanal"                                                   "Kanal"                      
2557.3 "6407_6-3"  84.0800 "Sandstone" "Shale"   -999.25    90.0000 10.00000      0.0 "m"        "f"        "Fluvial_kanal"                                                   "Kanal"                      
2557.4 "6407_6-3"  84.8600 "Sandstone" "Shale"   -999.25    90.0000 10.00000      0.0 "m"        "f"        "Fluvial_kanal"                                                   "Kanal"                      
2557.5 "6407_6-3"  85.2300 "Sandstone" "Shale"   -999.25    90.0000 10.00000      0.0 "m"        "f"        -999.25                                                           "Tidevannsdominert_delta_front"
2557.6 "6407_6-3"  85.6000 "Sandstone" "Shale"   -999.25    90.0000 10.00000      0.0 "m"        "f"        -999.25                                                           "Tidevannsdominert_delta_front"
2557.7 "6407_6-3"  85.7900 "Sandstone" "Shale"   -999.25    90.0000 10.00000      0.0 "m"        "f"        -999.25                                                           "Tidevannsdominert_delta_front"
2557.8 "6407_6-3"  85.9800 "Sandstone" "Shale"   -999.25    90.0000 10.00000      0.0 "m"        "f"        -999.25                                                           "Tidevannsdominert_delta_front"
2557.9 "6407_6-3"  86.1700 "Sandstone" "Shale"   -999.25    90.0000 10.00000      0.0 "m"        "f"        -999.25                                                           "Tidevannsdominert_delta_front"
2558.0 "6407_6-3"  86.1900 "Sandstone" "Shale"   -999.25    90.0000 10.00000      0.0 "m"        "f"        -999.25                                                           "Tidevannsdominert_delta_front"
2558.1 "6407_6-3"  86.1100 "Sandstone" "Shale"   -999.25    90.0000 10.00000      0.0 "m"        "f"        -999.25                                                           "Tidevannsdominert_delta_front"
2558.2 "6407_6-3"  85.4700 "Sandstone" "Shale"   -999.25    90.0000 10.00000      0.0 "m"        "f"        -999.25                                                           "Tidevannsdominert_delta_front"
2558.3 "6407_6-3"  84.8300 "Sandstone" "Shale"   -999.25    90.0000 10.00000      0.0 "m"        "f"        -999.25                                                           "Tidevannsdominert_delta_front"
2558.4 "6407_6-3"  84.2000 "Sandstone" "Shale"   -999.25    90.0000 10.00000      0.0 "m"        "f"        -999.25                                                           "Tidevannsdominert_delta_front"
2558.5 "6407_6-3"  83.5600 "Sandstone" "Shale"   -999.25    90.0000 10.00000      0.0 "m"        "f"        -999.25                                                           "Tidevannsdominert_delta_front"
2558.6 "6407_6-3"  82.9300 "Sandstone" "Shale"   -999.25    90.0000 10.00000      0.0 "m"        "f"        -999.25                                                           "Tidevannsdominert_delta_front"
2558.7 "6407_6-3"  82.2900 "Sandstone" "Shale"   -999.25    90.0000 10.00000      0.0 "m"        "f"        -999.25                                                           "Tidevannsdominert_delta_front"
2558.8 "6407_6-3"  81.6800 "Sandstone" "Shale"   -999.25    90.0000 10.00000      0.0 "m"        "f"        -999.25                                                           "Tidevannsdominert_delta_front"
2558.9 "6407_6-3"  81.3600 "Sandstone" "Shale"   -999.25    90.0000 10.00000      0.0 "m"        "f"        -999.25                                                           "Tidevannsdominert_delta_front"
2559.0 "6407_6-3"  81.4600 "Sandstone" "Shale"   -999.25    90.0000 10.00000      0.0 "m"        "f"        -999.25                                                           "Tidevannsdominert_delta_front"
2559.1 "6407_6-3"  81.6600 "Sandstone" "Shale"   -999.25    90.0000 10.00000      0.0 "m"        "f"        -999.25                                                           "Tidevannsdominert_delta_front"
2559.2 "6407_6-3"  82.5100 "Sandstone" "Shale"   -999.25    90.0000 10.00000      0.0 "m"        "f"        -999.25                                                           "Tidevannsdominert_delta_front"
2559.3 "6407_6-3"  85.6300 "Sandstone" "Shale"   -999.25    90.0000 10.00000      0.0 "m"        "f"        -999.25                                                           "Tidevannsdominert_delta_front"
2559.4 "6407_6-3"  88.9700 "Sandstone" "Shale"   -999.25    90.0000 10.00000      0.0 "m"        "f"        -999.25                                                           "Tidevannsdominert_delta_front"
2559.5 "6407_6-3"  92.8900 "Sandstone" "Shale"   -999.25    90.0000 10.00000      0.0 "m"        "f"        -999.25                                                           "Tidevannsdominert_delta_front"
