~Version
VERS  .                                 3.0 : CWLS LAS ASCII Standard - Version 3.0
WRAP  . NO                                  : One line per depth step
DLM   . SPACE                               : Column data section delimiter
SOURCE. Converted to LAS by Log Studio 4.76 : GeoProvider

~Well
STRT.         2472.0 : Start depth
STOP.         2615.0 : Stop depth
STEP.              1 : Step
NULL.        -999.25 : No-value
COMP.                : Company
WELL. 6407/6-3       : Well
FLD .                : Field
LOC .                : Location
LATI.                : Latitude
LONG.                : Longitude
GDAT.                : Geodetic datum
CNTY.                : County
STAT.                : State
CTRY.                : Country
SRVC. GeoProvider AS : Service company
DATE.                : Date
API .                : API number
RUN .                : Run number

~Parameters
WellboreName.  : Wellbore name
RigName     .  : Rig name
StartDate   .  : Start date

~Curves
DEPTH.m            .  : null {F}Depth mMD
Hole_ID.-          .  : null {S}Hole ID
GR.API             .  : null {F}Gamma Ray
Lithology1.-       .  : null {S}Lithology 1
Lithology2.-       .  : null {S}Lithology 2
Lithology3.-       .  : null {S}Lithology 3
Lithology1.%       .  : null {F}Lithology 1 percentage
Lithology2.%       .  : null {F}Lithology 2 percentage
Lithology3.%       .  : null {F}Lithology 3 percentage
Grain_size_Top.-   .  : null {S}Grain size at the top 
Grain_size_Base.-  .  : null {S}Grain size at the bottom
Sub_Environment.-  .  : null {S}Sub Environment
Gross_Environment.-.  : null {S}Gross Environment

~Ascii
# ...
2528.0 "6407_6-3" 130.7700 "Sandstone" "Shale"   -999.25    75.0000 25.00000      0.0 "vf"       "vf/f"     -999.25                                                           "Bølgedominert_delta_front"  
2528.1 "6407_6-3" 130.7700 "Sandstone" "Shale"   -999.25    75.0000 25.00000      0.0 "vf"       "vf/f"     -999.25                                                           "Bølgedominert_delta_front"  
2528.2 "6407_6-3" 130.7700 "Sandstone" "Shale"   -999.25    75.0000 25.00000      0.0 "vf"       "vf/f"     -999.25                                                           "Bølgedominert_delta_front"  
2528.3 "6407_6-3" 130.7600 "Sandstone" "Shale"   -999.25    75.0000 25.00000      0.0 "vf"       "vf/f"     -999.25                                                           "Bølgedominert_delta_front"  
2528.4 "6407_6-3" 130.7600 "Sandstone" "Shale"   -999.25    75.0000 25.00000      0.0 "vf"       "vf/f"     -999.25                                                           "Bølgedominert_delta_front"  
2528.5 "6407_6-3" 130.7600 "Sandstone" "Shale"   -999.25    75.0000 25.00000      0.0 "vf"       "vf/f"     -999.25                                                           "Bølgedominert_delta_front"  
2528.6 "6407_6-3" 130.7600 "Sandstone" -999.25   -999.25   100.0000      0.0      0.0 -999.25    -999.25    -999.25                                                           "Bølgedominert_delta_front"  
2528.7 "6407_6-3" 130.7500 "Sandstone" -999.25   -999.25   100.0000      0.0      0.0 -999.25    -999.25    "Åpen_marin_distale_facies,_lav_energiforhold,_reduserende_forhold" "Prodelta"                   
2528.8 "6407_6-3" 130.7500 "Sandstone" -999.25   -999.25   100.0000      0.0      0.0 -999.25    -999.25    "Åpen_marin_distale_facies,_lav_energiforhold,_reduserende_forhold" "Prodelta"                   
2528.9 "6407_6-3" 130.7500 "Sandstone" "Shale"   -999.25    15.0000 85.00000      0.0 "silt"     "silt"     "Åpen_marin_distale_facies,_lav_energiforhold,_reduserende_forhold" "Prodelta"                   
2529.0 "6407_6-3" 130.7500 "Sandstone" "Shale"   -999.25    15.0000 85.00000      0.0 "silt"     "silt"     "Åpen_marin_distale_facies,_lav_energiforhold,_reduserende_forhold" "Prodelta"                   
2529.1 "6407_6-3" 130.7400 "Sandstone" "Shale"   -999.25    15.0000 85.00000      0.0 "silt"     "silt"     "Åpen_marin_distale_facies,_lav_energiforhold,_reduserende_forhold" "Prodelta"                   
2529.2 "6407_6-3" 130.7400 "Sandstone" "Shale"   -999.25    15.0000 85.00000      0.0 "silt"     "silt"     "Åpen_marin_distale_facies,_lav_energiforhold,_reduserende_forhold" "Prodelta"                   
2529.3 "6407_6-3" 130.7400 "Sandstone" "Shale"   -999.25    15.0000 85.00000      0.0 "silt"     "silt"     "Åpen_marin_distale_facies,_lav_energiforhold,_reduserende_forhold" "Prodelta"                   
2529.4 "6407_6-3" 130.7400 "Sandstone" "Shale"   -999.25    15.0000 85.00000      0.0 "silt"     "silt"     "Åpen_marin_distale_facies,_lav_energiforhold,_reduserende_forhold" "Prodelta"                   
2529.5 "6407_6-3" 130.7300 "Sandstone" "Shale"   -999.25    15.0000 85.00000      0.0 "silt"     "silt"     "Åpen_marin_distale_facies,_lav_energiforhold,_reduserende_forhold" "Prodelta"                   
2529.6 "6407_6-3" 130.7300 "Sandstone" "Shale"   -999.25    15.0000 85.00000      0.0 "silt"     "silt"     "Åpen_marin_distale_facies,_lav_energiforhold,_reduserende_forhold" "Prodelta"                   
2529.7 "6407_6-3" 130.7300 "Sandstone" "Shale"   -999.25    15.0000 85.00000      0.0 "silt"     "silt"     "Åpen_marin_distale_facies,_lav_energiforhold,_reduserende_forhold" "Prodelta"                   
2529.8 "6407_6-3" 130.7200 "Sandstone" "Shale"   -999.25    15.0000 85.00000      0.0 "silt"     "silt"     "Åpen_marin_distale_facies,_lav_energiforhold,_reduserende_forhold" "Prodelta"                   
2529.9 "6407_6-3" 130.7200 "Sandstone" "Shale"   -999.25    15.0000 85.00000      0.0 "silt"     "silt"     "Åpen_marin_distale_facies,_lav_energiforhold,_reduserende_forhold" "Prodelta"                   
2530.0 "6407_6-3" 130.7200 "Sandstone" "Shale"   -999.25    15.0000 85.00000      0.0 "silt"     "silt"     "Åpen_marin_distale_facies,_lav_energiforhold,_reduserende_forhold" "Prodelta"                   
2530.1 "6407_6-3" 130.7200 "Sandstone" "Shale"   -999.25    15.0000 85.00000      0.0 "silt"     "silt"     "Åpen_marin_distale_facies,_lav_energiforhold,_reduserende_forhold" "Prodelta"                   
2530.2 "6407_6-3" 130.7100 "Sandstone" "Shale"   -999.25    15.0000 85.00000      0.0 "silt"     "silt"     "Åpen_marin_distale_facies,_lav_energiforhold,_reduserende_forhold" "Prodelta"                   
2530.3 "6407_6-3" 130.7100 "Sandstone" "Shale"   -999.25    15.0000 85.00000      0.0 "silt"     "silt"     "Åpen_marin_distale_facies,_lav_energiforhold,_reduserende_forhold" "Prodelta"                   
2530.4 "6407_6-3" 130.7100 "Sandstone" "Shale"   -999.25    15.0000 85.00000      0.0 "silt"     "silt"     "Åpen_marin_distale_facies,_lav_energiforhold,_reduserende_forhold" "Prodelta"                   
2530.5 "6407_6-3" 130.7100 "Sandstone" "Shale"   -999.25    15.0000 85.00000      0.0 "silt"     "silt"     "Åpen_marin_distale_facies,_lav_energiforhold,_reduserende_forhold" "Prodelta"                   
2530.6 "6407_6-3" 130.7000 "Sandstone" "Shale"   -999.25    15.0000 85.00000      0.0 "silt"     "silt"     "Åpen_marin_distale_facies,_lav_energiforhold,_reduserende_forhold" "Prodelta"                   
2530.7 "6407_6-3" 130.7000 "Sandstone" "Shale"   -999.25    15.0000 85.00000      0.0 "silt"     "silt"     "Åpen_marin_distale_facies,_lav_energiforhold,_reduserende_forhold" "Prodelta"                   
2530.8 "6407_6-3" 130.7000 "Sandstone" "Shale"   -999.25    15.0000 85.00000      0.0 "silt"     "silt"     "Åpen_marin_distale_facies,_lav_energiforhold,_reduserende_forhold" "Prodelta"                   
2530.9 "6407_6-3" 130.7000 "Sandstone" "Shale"   -999.25    15.0000 85.00000      0.0 "silt"     "silt"     "Åpen_marin_distale_facies,_lav_energiforhold,_reduserende_forhold" "Prodelta"                   
2531.0 "6407_6-3" 130.6900 "Sandstone" "Shale"   -999.25    15.0000 85.00000      0.0 "silt"     "silt"     "Åpen_marin_distale_facies,_lav_energiforhold,_reduserende_forhold" "Prodelta"                   
2531.1 "6407_6-3" 130.6900 "Sandstone" "Shale"   -999.25    15.0000 85.00000      0.0 "silt"     "silt"     "Åpen_marin_distale_facies,_lav_energiforhold,_reduserende_forhold" "Prodelta"                   
2531.2 "6407_6-3" 130.6900 "Sandstone" "Shale"   -999.25    15.0000 85.00000      0.0 "silt"     "silt"     "Åpen_marin_distale_facies,_lav_energiforhold,_reduserende_forhold" "Prodelta"                   
2531.3 "6407_6-3" 130.6900 "Sandstone" "Shale"   -999.25    15.0000 85.00000      0.0 "silt"     "silt"     "Åpen_marin_distale_facies,_lav_energiforhold,_reduserende_forhold" "Prodelta"                   
2531.4 "6407_6-3" 130.6800 "Sandstone" "Shale"   -999.25    15.0000 85.00000      0.0 "silt"     "silt"     "Åpen_marin_distale_facies,_lav_energiforhold,_reduserende_forhold" "Prodelta"                   
2531.5 "6407_6-3" 130.6800 "Sandstone" "Shale"   -999.25    15.0000 85.00000      0.0 "silt"     "silt"     "Åpen_marin_distale_facies,_lav_energiforhold,_reduserende_forhold" "Prodelta"                   
2531.6 "6407_6-3" 130.6800 "Sandstone" "Shale"   -999.25    15.0000 85.00000      0.0 "silt"     "silt"     "Åpen_marin_distale_facies,_lav_energiforhold,_reduserende_forhold" "Prodelta"                   
2531.7 "6407_6-3" 130.6700 "Sandstone" "Shale"   -999.25    15.0000 85.00000      0.0 "silt"     "silt"     "Åpen_marin_distale_facies,_lav_energiforhold,_reduserende_forhold" "Prodelta"                   
2531.8 "6407_6-3" 130.6700 "Sandstone" "Shale"   -999.25    15.0000 85.00000      0.0 "silt"     "silt"     "Åpen_marin_distale_facies,_lav_energiforhold,_reduserende_forhold" "Prodelta"                   
