~Version
VERS  .                                 3.0 : CWLS LAS ASCII Standard - Version 3.0
WRAP  . NO                                  : One line per depth step
DLM   . SPACE                               : Column data section delimiter
SOURCE. Converted to LAS by Log Studio 4.76 : GeoProvider

~Well
STRT.         2472.0 : Start depth
STOP.         2615.0 : Stop depth
STEP.              1 : Step
NULL.        -999.25 : No-value
COMP.                : Company
WELL. 6407/6-3       : Well
FLD .                : Field
LOC .                : Location
LATI.                : Latitude
LONG.                : Longitude
GDAT.                : Geodetic datum
CNTY.                : County
STAT.                : State
CTRY.                : Country
SRVC. GeoProvider AS : Service company
DATE.                : Date
API .                : API number
RUN .                : Run number

~Parameters
WellboreName.  : Wellbore name
RigName     .  : Rig name
StartDate   .  : Start date

~Curves
DEPTH.m            .  : null {F}Depth mMD
Hole_ID.-          .  : null {S}Hole ID
GR.API             .  : null {F}Gamma Ray
Lithology1.-       .  : null {S}Lithology 1
Lithology2.-       .  : null {S}Lithology 2
Lithology3.-       .  : null {S}Lithology 3
Lithology1.%       .  : null {F}Lithology 1 percentage
Lithology2.%       .  : null {F}Lithology 2 percentage
Lithology3.%       .  : null {F}Lithology 3 percentage
Grain_size_Top.-   .  : null {S}Grain size at the top 
Grain_size_Base.-  .  : null {S}Grain size at the bottom
Sub_Environment.-  .  : null {S}Sub Environment
Gross_Environment.-.  : null {S}Gross Environment

~Ascii
# ...
2587.4 "6407_6-3" 129.5500 -999.25   -999.25   -999.25   100.0000      0.0      0.0 -999.25    -999.25    -999.25                                                           -999.25                      
2587.5 "6407_6-3" 127.8500 -999.25   -999.25   -999.25   100.0000      0.0      0.0 -999.25    -999.25    -999.25                                                           -999.25                      
2587.6 "6407_6-3" 125.9900 -999.25   -999.25   -999.25   100.0000      0.0      0.0 -999.25    -999.25    -999.25                                                           -999.25                      
2587.7 "6407_6-3" 123.8200 -999.25   -999.25   -999.25   100.0000      0.0      0.0 -999.25    -999.25    -999.25                                                           -999.25                      
2587.8 "6407_6-3" 121.2200 -999.25   -999.25   -999.25   100.0000      0.0      0.0 -999.25    -999.25    -999.25                                                           -999.25                      
2587.9 "6407_6-3" 114.4600 -999.25   -999.25   -999.25   100.0000      0.0      0.0 -999.25    -999.25    -999.25                                                           -999.25                      
2588.0 "6407_6-3" 106.9500 -999.25   -999.25   -999.25   100.0000      0.0      0.0 -999.25    -999.25    "Ravinement/abondonment"                                          -999.25                      
2588.1 "6407_6-3" 103.6700 "Sandstone" "Limestone" -999.25    50.0000 50.00000      0.0 "vc"       "vc"       "Ravinement/abondonment"                                          -999.25                      
2588.2 "6407_6-3" 101.6600 "Sandstone" "Limestone" -999.25    50.0000 50.00000      0.0 "vc"       "vc"       "Ravinement/abondonment"                                          "Prodelta/distal_delta_front"
2588.3 "6407_6-3" 100.4700 "Sandstone" "Limestone" -999.25    50.0000 50.00000      0.0 "vc"       "vc"       "Ravinement/abondonment"                                          "Prodelta/distal_delta_front"
2588.4 "6407_6-3"  99.6300 "Sandstone" "Limestone" -999.25    50.0000 50.00000      0.0 "vc"       "vc"       "Ravinement/abondonment"                                          "Prodelta/distal_delta_front"
2588.5 "6407_6-3"  99.5000 "Sandstone" "Limestone" -999.25    50.0000 50.00000      0.0 "vc"       "vc"       "Ravinement/abondonment"                                          "Prodelta/distal_delta_front"
2588.6 "6407_6-3" 100.1800 "Sandstone" "Limestone" -999.25    50.0000 50.00000      0.0 "vc"       "vc"       "Ravinement/abondonment"                                          "Prodelta/distal_delta_front"
2588.7 "6407_6-3" 102.6700 "Sandstone" "Limestone" -999.25    50.0000 50.00000      0.0 "vc"       "vc"       "Ravinement/abondonment"                                          "Prodelta/distal_delta_front"
2588.8 "6407_6-3" 105.2700 "Sandstone" "Limestone" -999.25    50.0000 50.00000      0.0 "vc"       "vc"       "Ravinement/abondonment"                                          "Prodelta/distal_delta_front"
2588.9 "6407_6-3" 108.1100 "Sandstone" "Limestone" -999.25    50.0000 50.00000      0.0 "vc"       "vc"       "Ravinement/abondonment"                                          "Prodelta/distal_delta_front"
2589.0 "6407_6-3" 111.2500 "Sandstone" "Limestone" -999.25    50.0000 50.00000      0.0 "vc"       "vc"       "Ravinement/abondonment"                                          "Prodelta/distal_delta_front"
2589.1 "6407_6-3" 114.4700 "Sandstone" "Limestone" -999.25    50.0000 50.00000      0.0 "vc"       "vc"       "Ravinement/abondonment"                                          "Prodelta/distal_delta_front"
2589.2 "6407_6-3" 118.5400 "Sandstone" "Limestone" -999.25    50.0000 50.00000      0.0 "vc"       "vc"       "Ravinement/abondonment"                                          "Prodelta/distal_delta_front"
2589.3 "6407_6-3" 124.1700 -999.25   -999.25   -999.25   100.0000      0.0      0.0 -999.25    -999.25    "Ravinement/abondonment"                                          "Prodelta/distal_delta_front"
2589.4 "6407_6-3" 129.2100 "Sandstone" -999.25   -999.25   100.0000      0.0      0.0 "m/c"      "m/c"      "Ravinement/abondonment"                                          "Prodelta/distal_delta_front"
2589.5 "6407_6-3" 129.0900 "Sandstone" -999.25   -999.25   100.0000      0.0      0.0 "m/c"      "m/c"      "Ravinement/abondonment"                                          "Prodelta/distal_delta_front"
2589.6 "6407_6-3" 128.4900 "Sandstone" "Limestone" "Shale"    45.0000 40.00000 15.00000 "silt/vf"  "silt/vf"  "Ravinement/abondonment"                                          "Prodelta/distal_delta_front"
2589.7 "6407_6-3" 127.8900 "Sandstone" "Limestone" "Shale"    45.0000 40.00000 15.00000 "silt/vf"  "silt/vf"  "Ravinement/abondonment"                                          "Prodelta/distal_delta_front"
2589.8 "6407_6-3" 126.5700 "Sandstone" "Limestone" "Shale"    45.0000 40.00000 15.00000 "silt/vf"  "silt/vf"  "Ravinement/abondonment"                                          "Prodelta/distal_delta_front"
2589.9 "6407_6-3" 124.8900 "Sandstone" "Limestone" "Shale"    45.0000 40.00000 15.00000 "silt/vf"  "silt/vf"  "Åpen_marin_distale_facies,_lav_energiforhold_(prodelta)"         "Prodelta/distal_delta_front"
2590.0 "6407_6-3" 122.8500 "Sandstone" "Limestone" "Shale"    45.0000 40.00000 15.00000 "silt/vf"  "silt/vf"  "Åpen_marin_distale_facies,_lav_energiforhold_(prodelta)"         "Prodelta/distal_delta_front"
2590.1 "6407_6-3" 121.7300 "Sandstone" "Shale"   -999.25    35.0000 65.00000      0.0 "silt/vf"  "silt/vf"  "Åpen_marin_distale_facies,_lav_energiforhold_(prodelta)"         "Prodelta/distal_delta_front"
2590.2 "6407_6-3" 121.4100 "Sandstone" "Shale"   -999.25    35.0000 65.00000      0.0 "silt/vf"  "silt/vf"  "Åpen_marin_distale_facies,_lav_energiforhold_(prodelta)"         "Prodelta/distal_delta_front"
2590.3 "6407_6-3" 121.7000 "Sandstone" "Shale"   -999.25    35.0000 65.00000      0.0 "silt/vf"  "silt/vf"  "Åpen_marin_distale_facies,_lav_energiforhold_(prodelta)"         "Prodelta/distal_delta_front"
2590.4 "6407_6-3" 122.1900 "Sandstone" "Shale"   -999.25    35.0000 65.00000      0.0 "silt/vf"  "silt/vf"  "Åpen_marin_distale_facies,_lav_energiforhold_(prodelta)"         "Prodelta/distal_delta_front"
2590.5 "6407_6-3" 123.0800 "Sandstone" "Shale"   -999.25    35.0000 65.00000      0.0 "silt/vf"  "silt/vf"  "Åpen_marin_distale_facies,_lav_energiforhold_(prodelta)"         "Prodelta/distal_delta_front"
2590.6 "6407_6-3" 123.9700 "Sandstone" "Shale"   -999.25    35.0000 65.00000      0.0 "silt/vf"  "silt/vf"  "Åpen_marin_distale_facies,_lav_energiforhold_(prodelta)"         "Prodelta/distal_delta_front"
2590.7 "6407_6-3" 124.7800 "Sandstone" "Shale"   -999.25    35.0000 65.00000      0.0 "silt/vf"  "silt/vf"  "Åpen_marin_distale_facies,_lav_energiforhold_(prodelta)"         "Prodelta/distal_delta_front"
2590.8 "6407_6-3" 125.3900 "Sandstone" "Shale"   -999.25    35.0000 65.00000      0.0 "silt/vf"  "silt/vf"  "Åpen_marin_distale_facies,_lav_energiforhold_(prodelta)"         "Prodelta/distal_delta_front"
2590.9 "6407_6-3" 126.0000 "Sandstone" "Shale"   -999.25    35.0000 65.00000      0.0 "silt/vf"  "silt/vf"  "Åpen_marin_distale_facies,_lav_energiforhold_(prodelta)"         "Prodelta/distal_delta_front"
2591.0 "6407_6-3" 126.6000 "Sandstone" "Shale"   -999.25    35.0000 65.00000      0.0 "silt/vf"  "silt/vf"  "Åpen_marin_distale_facies,_lav_energiforhold_(prodelta)"         "Prodelta/distal_delta_front"
2591.1 "6407_6-3" 126.7500 "Sandstone" "Shale"   -999.25    35.0000 65.00000      0.0 "silt/vf"  "silt/vf"  "Åpen_marin_distale_facies,_lav_energiforhold_(prodelta)"         "Prodelta/distal_delta_front"
2591.2 "6407_6-3" 126.8300 "Sandstone" "Shale"   -999.25    35.0000 65.00000      0.0 "silt/vf"  "silt/vf"  "Åpen_marin_distale_facies,_lav_energiforhold_(prodelta)"         "Prodelta/distal_delta_front"
2591.3 "6407_6-3" 126.3900 "Sandstone" "Shale"   -999.25    35.0000 65.00000      0.0 "silt/vf"  "silt/vf"  "Åpen_marin_distale_facies,_lav_energiforhold_(prodelta)"         "Prodelta/distal_delta_front"
