~Version
VERS  .                                 3.0 : CWLS LAS ASCII Standard - Version 3.0
WRAP  . NO                                  : One line per depth step
DLM   . SPACE                               : Column data section delimiter
SOURCE. Converted to LAS by Log Studio 4.76 : GeoProvider

~Well
STRT.         2472.0 : Start depth
STOP.         2615.0 : Stop depth
STEP.              1 : Step
NULL.        -999.25 : No-value
COMP.                : Company
WELL. 6407/6-3       : Well
FLD .                : Field
LOC .                : Location
LATI.                : Latitude
LONG.                : Longitude
GDAT.                : Geodetic datum
CNTY.                : County
STAT.                : State
CTRY.                : Country
SRVC. GeoProvider AS : Service company
DATE.                : Date
API .                : API number
RUN .                : Run number

~Parameters
WellboreName.  : Wellbore name
RigName     .  : Rig name
StartDate   .  : Start date

~Curves
DEPTH.m            .  : null {F}Depth mMD
Hole_ID.-          .  : null {S}Hole ID
GR.API             .  : null {F}Gamma Ray
Lithology1.-       .  : null {S}Lithology 1
Lithology2.-       .  : null {S}Lithology 2
Lithology3.-       .  : null {S}Lithology 3
Lithology1.%       .  : null {F}Lithology 1 percentage
Lithology2.%       .  : null {F}Lithology 2 percentage
Lithology3.%       .  : null {F}Lithology 3 percentage
Grain_size_Top.-   .  : null {S}Grain size at the top 
Grain_size_Base.-  .  : null {S}Grain size at the bottom
Sub_Environment.-  .  : null {S}Sub Environment
Gross_Environment.-.  : null {S}Gross Environment

~Ascii
2472.0 "6407_6-3"  64.1700 "Sandstone" -999.25   -999.25   100.0000      0.0      0.0 "c"        "c"        "Proksimal_braid_delta_front_or_braided_channel_syste"            "Braidplane-braid_delta_front"
2472.1 "6407_6-3"  64.9100 "Sandstone" -999.25   -999.25   100.0000      0.0      0.0 "c"        "c"        "Proksimal_braid_delta_front_or_braided_channel_syste"            "Braidplane-braid_delta_front"
2472.2 "6407_6-3"  65.4100 "Sandstone" -999.25   -999.25   100.0000      0.0      0.0 "c"        "c"        "Proksimal_braid_delta_front_or_braided_channel_syste"            "Braidplane-braid_delta_front"
2472.3 "6407_6-3"  65.9100 "Sandstone" -999.25   -999.25   100.0000      0.0      0.0 "c"        "c"        "Proksimal_braid_delta_front_or_braided_channel_syste"            "Braidplane-braid_delta_front"
2472.4 "6407_6-3"  66.4100 "Sandstone" -999.25   -999.25   100.0000      0.0      0.0 "c"        "c"        "Proksimal_braid_delta_front_or_braided_channel_syste"            "Braidplane-braid_delta_front"
2472.5 "6407_6-3"  66.5300 "Sandstone" -999.25   -999.25   100.0000      0.0      0.0 "c"        "c"        "Proksimal_braid_delta_front_or_braided_channel_syste"            "Braidplane-braid_delta_front"
2472.6 "6407_6-3"  66.6600 "Sandstone" -999.25   -999.25   100.0000      0.0      0.0 "c"        "c"        "Proksimal_braid_delta_front_or_braided_channel_syste"            "Braidplane-braid_delta_front"
2472.7 "6407_6-3"  66.7900 "Sandstone" -999.25   -999.25   100.0000      0.0      0.0 "c"        "c"        "Proksimal_braid_delta_front_or_braided_channel_syste"            "Braidplane-braid_delta_front"
2472.8 "6407_6-3"  66.6800 "Sandstone" -999.25   -999.25   100.0000      0.0      0.0 "c"        "c"        "Proksimal_braid_delta_front_or_braided_channel_syste"            "Braidplane-braid_delta_front"
2472.9 "6407_6-3"  66.4900 "Sandstone" -999.25   -999.25   100.0000      0.0      0.0 "c"        "c"        "Proksimal_braid_delta_front_or_braided_channel_syste"            "Braidplane-braid_delta_front"
2473.0 "6407_6-3"  66.3000 "Sandstone" -999.25   -999.25   100.0000      0.0      0.0 "c/vc"     "c/vc"     "Proksimal_braid_delta_front_or_braided_channel_syste"            "Braidplane-braid_delta_front"
2473.1 "6407_6-3"  66.3200 "Sandstone" -999.25   -999.25   100.0000      0.0      0.0 "c/vc"     "c/vc"     "Proksimal_braid_delta_front_or_braided_channel_syste"            "Braidplane-braid_delta_front"
2473.2 "6407_6-3"  66.4600 "Sandstone" -999.25   -999.25   100.0000      0.0      0.0 "c/vc"     "c/vc"     "Proksimal_braid_delta_front_or_braided_channel_syste"            "Braidplane-braid_delta_front"
2473.3 "6407_6-3"  66.6600 "Sandstone" -999.25   -999.25   100.0000      0.0      0.0 "c/vc"     "c/vc"     "Proksimal_braid_delta_front_or_braided_channel_syste"            "Braidplane-braid_delta_front"
2473.4 "6407_6-3"  67.4100 "Sandstone" -999.25   -999.25   100.0000      0.0      0.0 "c/vc"     "c/vc"     "Proksimal_braid_delta_front_or_braided_channel_syste"            "Braidplane-braid_delta_front"
2473.5 "6407_6-3"  68.2700 "Sandstone" -999.25   -999.25   100.0000      0.0      0.0 "c"        "c"        "Proksimal_braid_delta_front_or_braided_channel_syste"            "Braidplane-braid_delta_front"
2473.6 "6407_6-3"  70.0100 "Sandstone" -999.25   -999.25   100.0000      0.0      0.0 "c"        "c"        "Proksimal_braid_delta_front_or_braided_channel_syste"            "Braidplane-braid_delta_front"
2473.7 "6407_6-3"  71.7400 "Sandstone" -999.25   -999.25   100.0000      0.0      0.0 "c"        "c"        "Proksimal_braid_delta_front_or_braided_channel_syste"            "Braidplane-braid_delta_front"
2473.8 "6407_6-3"  73.9100 "Sandstone" -999.25   -999.25   100.0000      0.0      0.0 "c"        "c"        "Proksimal_braid_delta_front_or_braided_channel_syste"            "Braidplane-braid_delta_front"
2473.9 "6407_6-3"  75.4700 "Sandstone" -999.25   -999.25   100.0000      0.0      0.0 "c"        "c"        "Proksimal_braid_delta_front_or_braided_channel_syste"            "Braidplane-braid_delta_front"
2474.0 "6407_6-3"  76.1100 "Sandstone" -999.25   -999.25   100.0000      0.0      0.0 "c"        "c"        "Proksimal_braid_delta_front_or_braided_channel_syste"            "Braidplane-braid_delta_front"
2474.1 "6407_6-3"  75.0200 "Sandstone" -999.25   -999.25   100.0000      0.0      0.0 "c"        "c"        "Proksimal_braid_delta_front_or_braided_channel_syste"            "Braidplane-braid_delta_front"
2474.2 "6407_6-3"  73.1000 "Sandstone" -999.25   -999.25   100.0000      0.0      0.0 "c"        "c"        "Proksimal_braid_delta_front_or_braided_channel_syste"            "Braidplane-braid_delta_front"
2474.3 "6407_6-3"  70.3600 "Sandstone" -999.25   -999.25   100.0000      0.0      0.0 "c"        "c"        "Proksimal_braid_delta_front_or_braided_channel_syste"            "Braidplane-braid_delta_front"
2474.4 "6407_6-3"  69.4600 "Sandstone" -999.25   -999.25   100.0000      0.0      0.0 "c"        "c"        "Proksimal_braid_delta_front_or_braided_channel_syste"            "Braidplane-braid_delta_front"
2474.5 "6407_6-3"  68.8700 "Sandstone" -999.25   -999.25   100.0000      0.0      0.0 "c"        "c"        "Proksimal_braid_delta_front_or_braided_channel_syste"            "Braidplane-braid_delta_front"
2474.6 "6407_6-3"  68.5400 "Sandstone" -999.25   -999.25   100.0000      0.0      0.0 "c"        "c"        "Proksimal_braid_delta_front_or_braided_channel_syste"            "Braidplane-braid_delta_front"
2474.7 "6407_6-3"  68.2200 "Sandstone" -999.25   -999.25   100.0000      0.0      0.0 "c"        "c"        "Proksimal_braid_delta_front_or_braided_channel_syste"            "Braidplane-braid_delta_front"
2474.8 "6407_6-3"  68.2000 "Sandstone" -999.25   -999.25   100.0000      0.0      0.0 "c"        "c"        "Proksimal_braid_delta_front_or_braided_channel_syste"            "Braidplane-braid_delta_front"
2474.9 "6407_6-3"  68.2300 "Sandstone" -999.25   -999.25   100.0000      0.0      0.0 "c"        "c"        "Proksimal_braid_delta_front_or_braided_channel_syste"            "Braidplane-braid_delta_front"
2475.0 "6407_6-3"  68.4800 "Sandstone" -999.25   -999.25   100.0000      0.0      0.0 "c"        "c"        "Proksimal_braid_delta_front_or_braided_channel_syste"            "Braidplane-braid_delta_front"
2475.1 "6407_6-3"  68.8600 "Sandstone" -999.25   -999.25   100.0000      0.0      0.0 "c"        "c"        "Proksimal_braid_delta_front_or_braided_channel_syste"            "Braidplane-braid_delta_front"
2475.2 "6407_6-3"  69.2400 "Sandstone" -999.25   -999.25   100.0000      0.0      0.0 "c"        "c"        "Proksimal_braid_delta_front_or_braided_channel_syste"            "Braidplane-braid_delta_front"
2475.3 "6407_6-3"  69.7100 "Sandstone" -999.25   -999.25   100.0000      0.0      0.0 "c"        "c"        "Proksimal_braid_delta_front_or_braided_channel_syste"            "Braidplane-braid_delta_front"
2475.4 "6407_6-3"  70.1900 "Sandstone" -999.25   -999.25   100.0000      0.0      0.0 "c"        "c"        "Proksimal_braid_delta_front_or_braided_channel_syste"            "Braidplane-braid_delta_front"
2475.5 "6407_6-3"  70.6700 "Sandstone" -999.25   -999.25   100.0000      0.0      0.0 "c"        "c"        "Proksimal_braid_delta_front_or_braided_channel_syste"            "Braidplane-braid_delta_front"
2475.6 "6407_6-3"  70.8000 "Sandstone" -999.25   -999.25   100.0000      0.0      0.0 "c"        "c"        "Proksimal_braid_delta_front_or_braided_channel_syste"            "Braidplane-braid_delta_front"
2475.7 "6407_6-3"  70.5100 "Sandstone" -999.25   -999.25   100.0000      0.0      0.0 "c"        "c"        "Proksimal_braid_delta_front_or_braided_channel_syste"            "Braidplane-braid_delta_front"
2475.8 "6407_6-3"  70.2600 "Sandstone" -999.25   -999.25   100.0000      0.0      0.0 "c"        "c"        "Proksimal_braid_delta_front_or_braided_channel_syste"            "Braidplane-braid_delta_front"
2475.9 "6407_6-3"  70.2600 "Sandstone" -999.25   -999.25   100.0000      0.0      0.0 "c"        "c"        "Proksimal_braid_delta_front_or_braided_channel_syste"            "Braidplane-braid_delta_front"
