~Version
VERS  .                                 3.0 : CWLS LAS ASCII Standard - Version 3.0
WRAP  . NO                                  : One line per depth step
DLM   . SPACE                               : Column data section delimiter
SOURCE. Converted to LAS by Log Studio 4.76 : GeoProvider

~Well
STRT.         2472.0 : Start depth
STOP.         2615.0 : Stop depth
STEP.              1 : Step
NULL.        -999.25 : No-value
COMP.                : Company
WELL. 6407/6-3       : Well
FLD .                : Field
LOC .                : Location
LATI.                : Latitude
LONG.                : Longitude
GDAT.                : Geodetic datum
CNTY.                : County
STAT.                : State
CTRY.                : Country
SRVC. GeoProvider AS : Service company
DATE.                : Date
API .                : API number
RUN .                : Run number

~Parameters
WellboreName.  : Wellbore name
RigName     .  : Rig name
StartDate   .  : Start date

~Curves
DEPTH.m            .  : null {F}Depth mMD
Hole_ID.-          .  : null {S}Hole ID
GR.API             .  : null {F}Gamma Ray
Lithology1.-       .  : null {S}Lithology 1
Lithology2.-       .  : null {S}Lithology 2
Lithology3.-       .  : null {S}Lithology 3
Lithology1.%       .  : null {F}Lithology 1 percentage
Lithology2.%       .  : null {F}Lithology 2 percentage
Lithology3.%       .  : null {F}Lithology 3 percentage
Grain_size_Top.-   .  : null {S}Grain size at the top 
Grain_size_Base.-  .  : null {S}Grain size at the bottom
Sub_Environment.-  .  : null {S}Sub Environment
Gross_Environment.-.  : null {S}Gross Environment

~Ascii
# ...
2512.0 "6407_6-3" 102.5100 "Sandstone" "Shale"   -999.25    95.0000  5.00000      0.0 "f"        "f/m"      "Strand/_øvre_strandskråning"                                     "Bølgedominert_delta_front"  
2512.1 "6407_6-3" 104.3000 "Sandstone" "Shale"   -999.25    95.0000  5.00000      0.0 "f"        "f/m"      "Strand/_øvre_strandskråning"                                     "Bølgedominert_delta_front"  
2512.2 "6407_6-3" 105.4200 "Sandstone" "Shale"   -999.25    95.0000  5.00000      0.0 "f"        "f/m"      "Strand/_øvre_strandskråning"                                     "Bølgedominert_delta_front"  
2512.3 "6407_6-3" 105.7200 "Sandstone" "Shale"   -999.25    95.0000  5.00000      0.0 "f"        "f/m"      "Strand/_øvre_strandskråning"                                     "Bølgedominert_delta_front"  
2512.4 "6407_6-3" 104.9200 "Sandstone" "Shale"   -999.25    95.0000  5.00000      0.0 "f"        "f/m"      "Strand/_øvre_strandskråning"                                     "Bølgedominert_delta_front"  
2512.5 "6407_6-3" 102.7400 "Sandstone" "Shale"   -999.25    95.0000  5.00000      0.0 "f"        "f/m"      "Strand/_øvre_strandskråning"                                     "Bølgedominert_delta_front"  
2512.6 "6407_6-3" 100.2900 "Sandstone" "Shale"   -999.25    95.0000  5.00000      0.0 "f"        "f/m"      "Strand/_øvre_strandskråning"                                     "Bølgedominert_delta_front"  
2512.7 "6407_6-3"  97.8900 "Sandstone" "Shale"   -999.25    95.0000  5.00000      0.0 "f"        "f/m"      "Strand/_øvre_strandskråning"                                     "Bølgedominert_delta_front"  
2512.8 "6407_6-3"  95.5600 "Sandstone" "Shale"   -999.25    95.0000  5.00000      0.0 "f"        "f/m"      "Strand/_øvre_strandskråning"                                     "Bølgedominert_delta_front"  
2512.9 "6407_6-3"  93.9200 "Sandstone" -999.25   -999.25   100.0000      0.0      0.0 "f"        "f"        "Strand/_øvre_strandskråning"                                     "Bølgedominert_delta_front"  
2513.0 "6407_6-3"  92.7100 "Sandstone" -999.25   -999.25   100.0000      0.0      0.0 "f"        "f"        "Strand/_øvre_strandskråning"                                     "Bølgedominert_delta_front"  
2513.1 "6407_6-3"  92.9900 "Sandstone" -999.25   -999.25   100.0000      0.0      0.0 "f"        "f"        "Strand/_øvre_strandskråning"                                     "Bølgedominert_delta_front"  
2513.2 "6407_6-3"  95.4500 "Sandstone" -999.25   -999.25   100.0000      0.0      0.0 "f"        "f"        "Strand/_øvre_strandskråning"                                     "Bølgedominert_delta_front"  
2513.3 "6407_6-3"  98.8000 "Sandstone" -999.25   -999.25   100.0000      0.0      0.0 "f"        "f"        "Strand/_øvre_strandskråning"                                     "Bølgedominert_delta_front"  
2513.4 "6407_6-3"  99.5600 "Sandstone" -999.25   -999.25   100.0000      0.0      0.0 "f"        "f"        "Strand/_øvre_strandskråning"                                     "Bølgedominert_delta_front"  
2513.5 "6407_6-3" 100.2500 "Sandstone" -999.25   -999.25   100.0000      0.0      0.0 "f"        "f"        "Strand/_øvre_strandskråning"                                     "Bølgedominert_delta_front"  
2513.6 "6407_6-3"  99.7500 "Sandstone" -999.25   -999.25   100.0000      0.0      0.0 "f"        "f"        "Strand/_øvre_strandskråning"                                     "Bølgedominert_delta_front"  
2513.7 "6407_6-3"  99.2500 "Sandstone" -999.25   -999.25   100.0000      0.0      0.0 "f"        "f"        "Strand/_øvre_strandskråning"                                     "Bølgedominert_delta_front"  
2513.8 "6407_6-3"  98.7500 "Sandstone" -999.25   -999.25   100.0000      0.0      0.0 "f"        "f"        "Strand/_øvre_strandskråning"                                     "Bølgedominert_delta_front"  
2513.9 "6407_6-3"  98.6800 "Sandstone" -999.25   -999.25   100.0000      0.0      0.0 "f"        "f"        "Strand/_øvre_strandskråning"                                     "Bølgedominert_delta_front"  
2514.0 "6407_6-3"  98.6800 "Sandstone" -999.25   -999.25   100.0000      0.0      0.0 "f"        "f"        "Strand/_øvre_strandskråning"                                     "Bølgedominert_delta_front"  
2514.1 "6407_6-3"  98.6800 "Sandstone" -999.25   -999.25   100.0000      0.0      0.0 "f"        "f"        "Strand/_øvre_strandskråning"                                     "Bølgedominert_delta_front"  
2514.2 "6407_6-3"  98.6800 "Sandstone" -999.25   -999.25   100.0000      0.0      0.0 "f"        "f"        "Strand/_øvre_strandskråning"                                     "Bølgedominert_delta_front"  
2514.3 "6407_6-3"  99.2800 "Sandstone" -999.25   -999.25   100.0000      0.0      0.0 "f"        "f"        "Strand/_øvre_strandskråning"                                     "Bølgedominert_delta_front"  
2514.4 "6407_6-3"  99.6800 "Sandstone" -999.25   -999.25   100.0000      0.0      0.0 "f"        "f"        "Strand/_øvre_strandskråning"                                     "Bølgedominert_delta_front"  
2514.5 "6407_6-3" 100.0400 "Sandstone" -999.25   -999.25   100.0000      0.0      0.0 "f"        "f"        "Strand/_øvre_strandskråning"                                     "Bølgedominert_delta_front"  
2514.6 "6407_6-3" 100.2700 "Sandstone" -999.25   -999.25   100.0000      0.0      0.0 "f"        "f"        "Strand/_øvre_strandskråning"                                     "Bølgedominert_delta_front"  
2514.7 "6407_6-3"  99.9000 "Sandstone" -999.25   -999.25   100.0000      0.0      0.0 "f"        "f"        "Strand/_øvre_strandskråning"                                     "Bølgedominert_delta_front"  
2514.8 "6407_6-3"  99.7300 "Sandstone" -999.25   -999.25   100.0000      0.0      0.0 "f"        "f"        "Strand/_øvre_strandskråning"                                     "Bølgedominert_delta_front"  
2514.9 "6407_6-3" 100.0900 "Sandstone" -999.25   -999.25   100.0000      0.0      0.0 "f"        "f"        "Strand/_øvre_strandskråning"                                     "Bølgedominert_delta_front"  
2515.0 "6407_6-3" 100.4600 "Sandstone" -999.25   -999.25   100.0000      0.0      0.0 "f"        "f"        "Strand/_øvre_strandskråning"                                     "Bølgedominert_delta_front"  
2515.1 "6407_6-3" 102.1800 "Sandstone" -999.25   -999.25   100.0000      0.0      0.0 "f"        "f"        "Strand/_øvre_strandskråning"                                     "Bølgedominert_delta_front"  
2515.2 "6407_6-3" 103.9000 "Sandstone" -999.25   -999.25   100.0000      0.0      0.0 "f"        "f"        "Strand/_øvre_strandskråning"                                     "Bølgedominert_delta_front"  
2515.3 "6407_6-3" 105.6100 "Sandstone" -999.25   -999.25   100.0000      0.0      0.0 "f"        "f"        "Strand/_øvre_strandskråning"                                     "Bølgedominert_delta_front"  
2515.4 "6407_6-3" 107.0500 "Sandstone" -999.25   -999.25   100.0000      0.0      0.0 "f"        "f"        "Strand/_øvre_strandskråning"                                     "Bølgedominert_delta_front"  
2515.5 "6407_6-3" 107.8500 "Sandstone" -999.25   -999.25   100.0000      0.0      0.0 "f"        "f"        "Strand/_øvre_strandskråning"                                     "Bølgedominert_delta_front"  
2515.6 "6407_6-3" 108.5600 "Sandstone" -999.25   -999.25   100.0000      0.0      0.0 "f"        "f"        "Strand/_øvre_strandskråning"                                     "Bølgedominert_delta_front"  
2515.7 "6407_6-3" 109.0900 "Sandstone" -999.25   -999.25   100.0000      0.0      0.0 "f"        "f"        "Strand/_øvre_strandskråning"                                     "Bølgedominert_delta_front"  
2515.8 "6407_6-3" 109.6200 "Sandstone" -999.25   -999.25   100.0000      0.0      0.0 "f"        "f"        "Strand/_øvre_strandskråning"                                     "Bølgedominert_delta_front"  
2515.9 "6407_6-3" 109.8100 "Sandstone" -999.25   -999.25   100.0000      0.0      0.0 "f"        "f"        "Strand/_øvre_strandskråning"                                     "Bølgedominert_delta_front"  
