~Version
VERS  .                                 3.0 : CWLS LAS ASCII Standard - Version 3.0
WRAP  . NO                                  : One line per depth step
DLM   . SPACE                               : Column data section delimiter
SOURCE. Converted to LAS by Log Studio 4.76 : GeoProvider

~Well
STRT.         2472.0 : Start depth
STOP.         2615.0 : Stop depth
STEP.              1 : Step
NULL.        -999.25 : No-value
COMP.                : Company
WELL. 6407/6-3       : Well
FLD .                : Field
LOC .                : Location
LATI.                : Latitude
LONG.                : Longitude
GDAT.                : Geodetic datum
CNTY.                : County
STAT.                : State
CTRY.                : Country
SRVC. GeoProvider AS : Service company
DATE.                : Date
API .                : API number
RUN .                : Run number

~Parameters
WellboreName.  : Wellbore name
RigName     .  : Rig name
StartDate   .  : Start date

~Curves
DEPTH.m            .  : null {F}Depth mMD
Hole_ID.-          .  : null {S}Hole ID
GR.API             .  : null {F}Gamma Ray
Lithology1.-       .  : null {S}Lithology 1
Lithology2.-       .  : null {S}Lithology 2
Lithology3.-       .  : null {S}Lithology 3
Lithology1.%       .  : null {F}Lithology 1 percentage
Lithology2.%       .  : null {F}Lithology 2 percentage
Lithology3.%       .  : null {F}Lithology 3 percentage
Grain_size_Top.-   .  : null {S}Grain size at the top 
Grain_size_Base.-  .  : null {S}Grain size at the bottom
Sub_Environment.-  .  : null {S}Sub Environment
Gross_Environment.-.  : null {S}Gross Environment

~Ascii
# ...
2543.6 "6407_6-3" 130.5600 "Sandstone" "Shale"   -999.25     5.0000 95.00000      0.0 "silt"     "silt/vf"  "Åpen_marin_distale_facies,_lav_energiforhold,_reduserende_forhold" "Prodelta"                   
2543.7 "6407_6-3" 130.5600 "Sandstone" "Shale"   -999.25     5.0000 95.00000      0.0 "silt"     "silt/vf"  "Åpen_marin_distale_facies,_lav_energiforhold,_reduserende_forhold" "Prodelta"                   
2543.8 "6407_6-3" 130.5600 "Sandstone" "Shale"   -999.25     5.0000 95.00000      0.0 "silt"     "silt/vf"  "Åpen_marin_distale_facies,_lav_energiforhold,_reduserende_forhold" "Prodelta"                   
2543.9 "6407_6-3" 130.5600 "Sandstone" "Shale"   -999.25     5.0000 95.00000      0.0 "silt"     "silt/vf"  "Åpen_marin_distale_facies,_lav_energiforhold,_reduserende_forhold" "Prodelta"                   
2544.0 "6407_6-3" 130.5600 "Sandstone" "Shale"   -999.25     5.0000 95.00000      0.0 "silt"     "silt/vf"  "Åpen_marin_distale_facies,_lav_energiforhold,_reduserende_forhold" "Prodelta"                   
2544.1 "6407_6-3" 130.5600 "Sandstone" "Shale"   -999.25     5.0000 95.00000      0.0 "silt"     "silt/vf"  "Åpen_marin_distale_facies,_lav_energiforhold,_reduserende_forhold" "Prodelta"                   
2544.2 "6407_6-3" 130.5600 "Sandstone" "Shale"   -999.25     5.0000 95.00000      0.0 "silt"     "silt/vf"  "Åpen_marin_distale_facies,_lav_energiforhold,_reduserende_forhold" "Prodelta"                   
2544.3 "6407_6-3" 130.5600 "Sandstone" "Shale"   -999.25     5.0000 95.00000      0.0 "silt"     "silt/vf"  "Åpen_marin_distale_facies,_lav_energiforhold,_reduserende_forhold" "Prodelta"                   
2544.4 "6407_6-3" 130.5600 "Sandstone" "Shale"   -999.25     5.0000 95.00000      0.0 "silt"     "silt/vf"  "Åpen_marin_distale_facies,_lav_energiforhold,_reduserende_forhold" "Prodelta"                   
2544.5 "6407_6-3" 130.5600 "Sandstone" "Shale"   -999.25     5.0000 95.00000      0.0 "silt"     "silt/vf"  "Åpen_marin_distale_facies,_lav_energiforhold,_reduserende_forhold" "Prodelta"                   
2544.6 "6407_6-3" 130.5600 "Sandstone" "Shale"   -999.25     5.0000 95.00000      0.0 "silt"     "silt/vf"  "Åpen_marin_distale_facies,_lav_energiforhold,_reduserende_forhold" "Prodelta"                   
2544.7 "6407_6-3" 130.5600 "Sandstone" "Shale"   -999.25     5.0000 95.00000      0.0 "silt"     "silt/vf"  "Åpen_marin_distale_facies,_lav_energiforhold,_reduserende_forhold" "Prodelta"                   
2544.8 "6407_6-3" 130.5600 "Sandstone" "Shale"   -999.25     5.0000 95.00000      0.0 "silt"     "silt/vf"  "Åpen_marin_distale_facies,_lav_energiforhold,_reduserende_forhold" "Prodelta"                   
2544.9 "6407_6-3" 130.5600 "Sandstone" "Shale"   -999.25     5.0000 95.00000      0.0 "silt"     "silt/vf"  "Åpen_marin_distale_facies,_lav_energiforhold,_reduserende_forhold" "Prodelta"                   
2545.0 "6407_6-3" 130.5600 "Sandstone" "Shale"   -999.25     5.0000 95.00000      0.0 "silt"     "silt/vf"  "Åpen_marin_distale_facies,_lav_energiforhold,_reduserende_forhold" "Prodelta"                   
2545.1 "6407_6-3" 130.5600 -999.25   -999.25   -999.25   100.0000      0.0      0.0 -999.25    -999.25    -999.25                                                           -999.25                      
2545.2 "6407_6-3" 130.5600 -999.25   -999.25   -999.25   100.0000      0.0      0.0 -999.25    -999.25    -999.25                                                           -999.25                      
2545.3 "6407_6-3" 130.5600 -999.25   -999.25   -999.25   100.0000      0.0      0.0 -999.25    -999.25    -999.25                                                           -999.25                      
2545.4 "6407_6-3" 130.5600 -999.25   -999.25   -999.25   100.0000      0.0      0.0 -999.25    -999.25    -999.25                                                           -999.25                      
2545.5 "6407_6-3" 130.5600 -999.25   -999.25   -999.25   100.0000      0.0      0.0 -999.25    -999.25    -999.25                                                           -999.25                      
2545.6 "6407_6-3" 130.5600 -999.25   -999.25   -999.25   100.0000      0.0      0.0 -999.25    -999.25    -999.25                                                           -999.25                      
2545.7 "6407_6-3" 130.5600 -999.25   -999.25   -999.25   100.0000      0.0      0.0 -999.25    -999.25    -999.25                                                           -999.25                      
2545.8 "6407_6-3" 130.5600 -999.25   -999.25   -999.25   100.0000      0.0      0.0 -999.25    -999.25    -999.25                                                           -999.25                      
2545.9 "6407_6-3" 130.5600 -999.25   -999.25   -999.25   100.0000      0.0      0.0 -999.25    -999.25    -999.25                                                           -999.25                      
2546.0 "6407_6-3" 130.5600 -999.25   -999.25   -999.25   100.0000      0.0      0.0 -999.25    -999.25    -999.25                                                           -999.25                      
2546.1 "6407_6-3" 130.5600 -999.25   -999.25   -999.25   100.0000      0.0      0.0 -999.25    -999.25    -999.25                                                           -999.25                      
2546.2 "6407_6-3" 130.5600 -999.25   -999.25   -999.25   100.0000      0.0      0.0 -999.25    -999.25    -999.25                                                           -999.25                      
2546.3 "6407_6-3" 130.5600 -999.25   -999.25   -999.25   100.0000      0.0      0.0 -999.25    -999.25    -999.25                                                           -999.25                      
2546.4 "6407_6-3" 130.5600 -999.25   -999.25   -999.25   100.0000      0.0      0.0 -999.25    -999.25    -999.25                                                           -999.25                      
2546.5 "6407_6-3" 130.5600 -999.25   -999.25   -999.25   100.0000      0.0      0.0 -999.25    -999.25    -999.25                                                           -999.25                      
2546.6 "6407_6-3" 130.5600 -999.25   -999.25   -999.25   100.0000      0.0      0.0 -999.25    -999.25    -999.25                                                           -999.25                      
2546.7 "6407_6-3" 130.5600 -999.25   -999.25   -999.25   100.0000      0.0      0.0 -999.25    -999.25    -999.25                                                           -999.25                      
2546.8 "6407_6-3" 130.5600 -999.25   -999.25   -999.25   100.0000      0.0      0.0 -999.25    -999.25    -999.25                                                           -999.25                      
2546.9 "6407_6-3" 130.5600 -999.25   -999.25   -999.25   100.0000      0.0      0.0 -999.25    -999.25    -999.25                                                           -999.25                      
2547.0 "6407_6-3" 130.5600 -999.25   -999.25   -999.25   100.0000      0.0      0.0 -999.25    -999.25    -999.25                                                           -999.25                      
2547.1 "6407_6-3" 130.5600 -999.25   -999.25   -999.25   100.0000      0.0      0.0 -999.25    -999.25    -999.25                                                           -999.25                      
2547.2 "6407_6-3" 130.5600 -999.25   -999.25   -999.25   100.0000      0.0      0.0 -999.25    -999.25    -999.25                                                           -999.25                      
2547.3 "6407_6-3" 130.5600 -999.25   -999.25   -999.25   100.0000      0.0      0.0 -999.25    -999.25    -999.25                                                           -999.25                      
2547.4 "6407_6-3" 130.5600 -999.25   -999.25   -999.25   100.0000      0.0      0.0 -999.25    -999.25    -999.25                                                           -999.25                      
2547.5 "6407_6-3" 130.5600 -999.25   -999.25   -999.25   100.0000      0.0      0.0 -999.25    -999.25    -999.25                                                           -999.25                      
