~Version
VERS  .                                 3.0 : CWLS LAS ASCII Standard - Version 3.0
WRAP  . NO                                  : One line per depth step
DLM   . SPACE                               : Column data section delimiter
SOURCE. Converted to LAS by Log Studio 4.76 : GeoProvider

~Well
STRT.         2472.0 : Start depth
STOP.         2615.0 : Stop depth
STEP.              1 : Step
NULL.        -999.25 : No-value
COMP.                : Company
WELL. 6407/6-3       : Well
FLD .                : Field
LOC .                : Location
LATI.                : Latitude
LONG.                : Longitude
GDAT.                : Geodetic datum
CNTY.                : County
STAT.                : State
CTRY.                : Country
SRVC. GeoProvider AS : Service company
DATE.                : Date
API .                : API number
RUN .                : Run number

~Parameters
WellboreName.  : Wellbore name
RigName     .  : Rig name
StartDate   .  : Start date

~Curves
DEPTH.m            .  : null {F}Depth mMD
Hole_ID.-          .  : null {S}Hole ID
GR.API             .  : null {F}Gamma Ray
Lithology1.-       .  : null {S}Lithology 1
Lithology2.-       .  : null {S}Lithology 2
Lithology3.-       .  : null {S}Lithology 3
Lithology1.%       .  : null {F}Lithology 1 percentage
Lithology2.%       .  : null {F}Lithology 2 percentage
Lithology3.%       .  : null {F}Lithology 3 percentage
Grain_size_Top.-   .  : null {S}Grain size at the top 
Grain_size_Base.-  .  : null {S}Grain size at the bottom
Sub_Environment.-  .  : null {S}Sub Environment
Gross_Environment.-.  : null {S}Gross Environment

~Ascii
# ...
2595.4 "6407_6-3" 128.9400 "Sandstone" "Shale"   -999.25    35.0000 65.00000      0.0 "silt/vf"  "silt/vf"  "Åpen_marin_distale_facies,_lav_energiforhold_(prodelta)"         "Prodelta/distal_delta_front"
2595.5 "6407_6-3" 129.5700 "Sandstone" "Shale"   -999.25    35.0000 65.00000      0.0 "silt/vf"  "silt/vf"  "Åpen_marin_distale_facies,_lav_energiforhold_(prodelta)"         "Prodelta/distal_delta_front"
2595.6 "6407_6-3" 130.1800 "Sandstone" "Shale"   -999.25    35.0000 65.00000      0.0 "silt/vf"  "silt/vf"  "Åpen_marin_distale_facies,_lav_energiforhold_(prodelta)"         "Prodelta/distal_delta_front"
2595.7 "6407_6-3" 130.1800 "Sandstone" "Shale"   -999.25    35.0000 65.00000      0.0 "silt/vf"  "silt/vf"  "Åpen_marin_distale_facies,_lav_energiforhold_(prodelta)"         "Prodelta/distal_delta_front"
2595.8 "6407_6-3" 130.1700 "Sandstone" "Shale"   -999.25    35.0000 65.00000      0.0 "silt/vf"  "silt/vf"  "Åpen_marin_distale_facies,_lav_energiforhold_(prodelta)"         "Prodelta/distal_delta_front"
2595.9 "6407_6-3" 130.1700 "Sandstone" "Shale"   -999.25    35.0000 65.00000      0.0 "silt/vf"  "silt/vf"  "Åpen_marin_distale_facies,_lav_energiforhold_(prodelta)"         "Prodelta/distal_delta_front"
2596.0 "6407_6-3" 130.1600 "Sandstone" "Shale"   -999.25    35.0000 65.00000      0.0 "silt/vf"  "silt/vf"  "Åpen_marin_distale_facies,_lav_energiforhold_(prodelta)"         "Prodelta/distal_delta_front"
2596.1 "6407_6-3" 130.1600 "Sandstone" "Shale"   -999.25    35.0000 65.00000      0.0 "silt/vf"  "silt/vf"  "Åpen_marin_distale_facies,_lav_energiforhold_(prodelta)"         "Prodelta/distal_delta_front"
2596.2 "6407_6-3" 130.1600 "Sandstone" "Shale"   -999.25    35.0000 65.00000      0.0 "silt/vf"  "silt/vf"  "Åpen_marin_distale_facies,_lav_energiforhold_(prodelta)"         "Prodelta/distal_delta_front"
2596.3 "6407_6-3" 130.1500 "Sandstone" "Shale"   -999.25    35.0000 65.00000      0.0 "silt/vf"  "silt/vf"  "Åpen_marin_distale_facies,_lav_energiforhold_(prodelta)"         "Prodelta/distal_delta_front"
2596.4 "6407_6-3" 130.1500 "Sandstone" "Shale"   -999.25    35.0000 65.00000      0.0 "silt/vf"  "silt/vf"  "Åpen_marin_distale_facies,_lav_energiforhold_(prodelta)"         "Prodelta/distal_delta_front"
2596.5 "6407_6-3" 130.1400 "Sandstone" "Shale"   -999.25    35.0000 65.00000      0.0 "silt/vf"  "silt/vf"  "Åpen_marin_distale_facies,_lav_energiforhold_(prodelta)"         "Prodelta/distal_delta_front"
2596.6 "6407_6-3" 130.1400 "Sandstone" "Shale"   -999.25    35.0000 65.00000      0.0 "silt/vf"  "silt/vf"  "Åpen_marin_distale_facies,_lav_energiforhold_(prodelta)"         "Prodelta/distal_delta_front"
2596.7 "6407_6-3" 130.1300 "Sandstone" "Shale"   -999.25    35.0000 65.00000      0.0 "silt/vf"  "silt/vf"  "Åpen_marin_distale_facies,_lav_energiforhold_(prodelta)"         "Prodelta/distal_delta_front"
2596.8 "6407_6-3" 130.1300 "Sandstone" "Shale"   -999.25    35.0000 65.00000      0.0 "silt/vf"  "silt/vf"  "Åpen_marin_distale_facies,_lav_energiforhold_(prodelta)"         "Prodelta/distal_delta_front"
2596.9 "6407_6-3" 130.1200 "Sandstone" "Shale"   -999.25    35.0000 65.00000      0.0 "silt/vf"  "silt/vf"  "Åpen_marin_distale_facies,_lav_energiforhold_(prodelta)"         "Prodelta/distal_delta_front"
2597.0 "6407_6-3" 130.1200 "Sandstone" "Shale"   -999.25    35.0000 65.00000      0.0 "silt/vf"  "silt/vf"  "Åpen_marin_distale_facies,_lav_energiforhold_(prodelta)"         "Prodelta/distal_delta_front"
2597.1 "6407_6-3" 130.1100 "Sandstone" "Shale"   -999.25    35.0000 65.00000      0.0 "silt/vf"  "silt/vf"  "Åpen_marin_distale_facies,_lav_energiforhold_(prodelta)"         "Prodelta/distal_delta_front"
2597.2 "6407_6-3" 130.1100 "Sandstone" "Shale"   -999.25    35.0000 65.00000      0.0 "silt/vf"  "silt/vf"  "Åpen_marin_distale_facies,_lav_energiforhold_(prodelta)"         "Prodelta/distal_delta_front"
2597.3 "6407_6-3" 130.1000 "Sandstone" "Shale"   -999.25    35.0000 65.00000      0.0 "silt/vf"  "silt/vf"  "Åpen_marin_distale_facies,_lav_energiforhold_(prodelta)"         "Prodelta/distal_delta_front"
2597.4 "6407_6-3" 130.1000 "Sandstone" "Shale"   -999.25    35.0000 65.00000      0.0 "silt/vf"  "silt/vf"  "Åpen_marin_distale_facies,_lav_energiforhold_(prodelta)"         "Prodelta/distal_delta_front"
2597.5 "6407_6-3" 130.1000 "Sandstone" "Shale"   -999.25    35.0000 65.00000      0.0 "silt/vf"  "silt/vf"  "Åpen_marin_distale_facies,_lav_energiforhold_(prodelta)"         "Prodelta/distal_delta_front"
2597.6 "6407_6-3" 130.0900 "Sandstone" "Shale"   -999.25    35.0000 65.00000      0.0 "silt/vf"  "silt/vf"  "Åpen_marin_distale_facies,_lav_energiforhold_(prodelta)"         "Prodelta/distal_delta_front"
2597.7 "6407_6-3" 130.0900 "Sandstone" "Shale"   -999.25    35.0000 65.00000      0.0 "silt/vf"  "silt/vf"  "Åpen_marin_distale_facies,_lav_energiforhold_(prodelta)"         "Prodelta/distal_delta_front"
2597.8 "6407_6-3" 130.0800 "Sandstone" "Shale"   -999.25    35.0000 65.00000      0.0 "silt/vf"  "silt/vf"  "Åpen_marin_distale_facies,_lav_energiforhold_(prodelta)"         "Prodelta/distal_delta_front"
2597.9 "6407_6-3" 130.0800 "Sandstone" "Shale"   -999.25    35.0000 65.00000      0.0 "silt/vf"  "silt/vf"  "Åpen_marin_distale_facies,_lav_energiforhold_(prodelta)"         "Prodelta/distal_delta_front"
2598.0 "6407_6-3" 130.0700 "Sandstone" "Shale"   -999.25    35.0000 65.00000      0.0 "silt/vf"  "silt/vf"  "Åpen_marin_distale_facies,_lav_energiforhold_(prodelta)"         "Prodelta/distal_delta_front"
2598.1 "6407_6-3" 130.0700 "Sandstone" "Shale"   -999.25    35.0000 65.00000      0.0 "silt/vf"  "silt/vf"  "Åpen_marin_distale_facies,_lav_energiforhold_(prodelta)"         "Prodelta/distal_delta_front"
2598.2 "6407_6-3" 130.0600 "Sandstone" "Shale"   -999.25    35.0000 65.00000      0.0 "silt/vf"  "silt/vf"  "Åpen_marin_distale_facies,_lav_energiforhold_(prodelta)"         "Prodelta/distal_delta_front"
2598.3 "6407_6-3" 130.0600 "Sandstone" "Shale"   -999.25    35.0000 65.00000      0.0 "silt/vf"  "silt/vf"  "Åpen_marin_distale_facies,_lav_energiforhold_(prodelta)"         "Prodelta/distal_delta_front"
2598.4 "6407_6-3" 130.0500 "Sandstone" "Shale"   -999.25    35.0000 65.00000      0.0 "silt/vf"  "silt/vf"  "Åpen_marin_distale_facies,_lav_energiforhold_(prodelta)"         "Prodelta/distal_delta_front"
2598.5 "6407_6-3" 130.0500 "Sandstone" "Shale"   -999.25    35.0000 65.00000      0.0 "silt/vf"  "silt/vf"  "Åpen_marin_distale_facies,_lav_energiforhold_(prodelta)"         "Prodelta/distal_delta_front"
2598.6 "6407_6-3" 130.0500 "Sandstone" "Shale"   -999.25    35.0000 65.00000      0.0 "silt/vf"  "silt/vf"  "Åpen_marin_distale_facies,_lav_energiforhold_(prodelta)"         "Prodelta/distal_delta_front"
2598.7 "6407_6-3" 130.0400 "Sandstone" "Shale"   -999.25    35.0000 65.00000      0.0 "silt/vf"  "silt/vf"  "Åpen_marin_distale_facies,_lav_energiforhold_(prodelta)"         "Prodelta/distal_delta_front"
2598.8 "6407_6-3" 130.0400 "Sandstone" "Shale"   -999.25    35.0000 65.00000      0.0 "silt/vf"  "silt/vf"  "Åpen_marin_distale_facies,_lav_energiforhold_(prodelta)"         "Prodelta/distal_delta_front"
2598.9 "6407_6-3" 130.0300 "Sandstone" "Shale"   -999.25    35.0000 65.00000      0.0 "silt/vf"  "silt/vf"  "Åpen_marin_distale_facies,_lav_energiforhold_(prodelta)"         "Prodelta/distal_delta_front"
2599.0 "6407_6-3" 130.0300 "Sandstone" "Shale"   -999.25    35.0000 65.00000      0.0 "silt/vf"  "silt/vf"  "Åpen_marin_distale_facies,_lav_energiforhold_(prodelta)"         "Prodelta/distal_delta_front"
2599.1 "6407_6-3" 130.0200 "Sandstone" "Shale"   -999.25    35.0000 65.00000      0.0 "silt/vf"  "silt/vf"  "Åpen_marin_distale_facies,_lav_energiforhold_(prodelta)"         "Prodelta/distal_delta_front"
2599.2 "6407_6-3" 130.0200 "Sandstone" "Shale"   -999.25    35.0000 65.00000      0.0 "silt/vf"  "silt/vf"  "Åpen_marin_distale_facies,_lav_energiforhold_(prodelta)"         "Prodelta/distal_delta_front"
2599.3 "6407_6-3" 130.0100 "Sandstone" "Shale"   -999.25    35.0000 65.00000      0.0 "silt/vf"  "silt/vf"  "Åpen_marin_distale_facies,_lav_energiforhold_(prodelta)"         "Prodelta/distal_delta_front"
