~Version
VERS  .                                 3.0 : CWLS LAS ASCII Standard - Version 3.0
WRAP  . NO                                  : One line per depth step
DLM   . SPACE                               : Column data section delimiter
SOURCE. Converted to LAS by Log Studio 4.76 : GeoProvider

~Well
STRT.         2472.0 : Start depth
STOP.         2615.0 : Stop depth
STEP.              1 : Step
NULL.        -999.25 : No-value
COMP.                : Company
WELL. 6407/6-3       : Well
FLD .                : Field
LOC .                : Location
LATI.                : Latitude
LONG.                : Longitude
GDAT.                : Geodetic datum
CNTY.                : County
STAT.                : State
CTRY.                : Country
SRVC. GeoProvider AS : Service company
DATE.                : Date
API .                : API number
RUN .                : Run number

~Parameters
WellboreName.  : Wellbore name
RigName     .  : Rig name
StartDate   .  : Start date

~Curves
DEPTH.m            .  : null {F}Depth mMD
Hole_ID.-          .  : null {S}Hole ID
GR.API             .  : null {F}Gamma Ray
Lithology1.-       .  : null {S}Lithology 1
Lithology2.-       .  : null {S}Lithology 2
Lithology3.-       .  : null {S}Lithology 3
Lithology1.%       .  : null {F}Lithology 1 percentage
Lithology2.%       .  : null {F}Lithology 2 percentage
Lithology3.%       .  : null {F}Lithology 3 percentage
Grain_size_Top.-   .  : null {S}Grain size at the top 
Grain_size_Base.-  .  : null {S}Grain size at the bottom
Sub_Environment.-  .  : null {S}Sub Environment
Gross_Environment.-.  : null {S}Gross Environment

~Ascii
# ...
2496.0 "6407_6-3"  92.0400 "Sandstone" -999.25   -999.25   100.0000      0.0      0.0 "vf"       "vf/f"     "Øvre_strandskråning,_overgang_til_nedre_strandskråning"          "Distal_deltafront"          
2496.1 "6407_6-3"  90.1800 "Sandstone" -999.25   -999.25   100.0000      0.0      0.0 "vf"       "vf/f"     "Øvre_strandskråning,_overgang_til_nedre_strandskråning"          "Distal_deltafront"          
2496.2 "6407_6-3"  88.8500 "Sandstone" -999.25   -999.25   100.0000      0.0      0.0 "vf"       "vf/f"     "Øvre_strandskråning,_overgang_til_nedre_strandskråning"          "Distal_deltafront"          
2496.3 "6407_6-3"  88.5700 "Sandstone" -999.25   -999.25   100.0000      0.0      0.0 "vf"       "vf/f"     "Øvre_strandskråning,_overgang_til_nedre_strandskråning"          "Distal_deltafront"          
2496.4 "6407_6-3"  88.3000 "Sandstone" -999.25   -999.25   100.0000      0.0      0.0 "vf"       "vf/f"     "Øvre_strandskråning,_overgang_til_nedre_strandskråning"          "Distal_deltafront"          
2496.5 "6407_6-3"  88.9000 "Sandstone" -999.25   -999.25   100.0000      0.0      0.0 "vf"       "vf/f"     "Øvre_strandskråning,_overgang_til_nedre_strandskråning"          "Distal_deltafront"          
2496.6 "6407_6-3"  89.5400 "Sandstone" -999.25   -999.25   100.0000      0.0      0.0 "vf"       "vf/f"     "Øvre_strandskråning,_overgang_til_nedre_strandskråning"          "Distal_deltafront"          
2496.7 "6407_6-3"  90.1900 "Sandstone" -999.25   -999.25   100.0000      0.0      0.0 "vf"       "vf/f"     "Øvre_strandskråning,_overgang_til_nedre_strandskråning"          "Distal_deltafront"          
2496.8 "6407_6-3"  90.8400 "Sandstone" -999.25   -999.25   100.0000      0.0      0.0 "vf"       "vf/f"     "Øvre_strandskråning,_overgang_til_nedre_strandskråning"          "Distal_deltafront"          
2496.9 "6407_6-3"  90.6600 "Sandstone" -999.25   -999.25   100.0000      0.0      0.0 "vf"       "vf/f"     "Øvre_strandskråning,_overgang_til_nedre_strandskråning"          "Distal_deltafront"          
2497.0 "6407_6-3"  90.1100 "Sandstone" -999.25   -999.25   100.0000      0.0      0.0 "vf"       "vf/f"     "Øvre_strandskråning,_overgang_til_nedre_strandskråning"          "Distal_deltafront"          
2497.1 "6407_6-3"  89.3200 "Sandstone" -999.25   -999.25   100.0000      0.0      0.0 "vf"       "vf/f"     "Øvre_strandskråning,_overgang_til_nedre_strandskråning"          "Distal_deltafront"          
2497.2 "6407_6-3"  87.9300 "Sandstone" -999.25   -999.25   100.0000      0.0      0.0 "vf"       "vf/f"     "Øvre_strandskråning,_overgang_til_nedre_strandskråning"          "Distal_deltafront"          
2497.3 "6407_6-3"  86.3400 "Sandstone" -999.25   -999.25   100.0000      0.0      0.0 "vf"       "vf/f"     "Øvre_strandskråning,_overgang_til_nedre_strandskråning"          "Distal_deltafront"          
2497.4 "6407_6-3"  85.1200 "Sandstone" -999.25   -999.25   100.0000      0.0      0.0 "vf"       "vf/f"     "Øvre_strandskråning,_overgang_til_nedre_strandskråning"          "Distal_deltafront"          
2497.5 "6407_6-3"  84.1700 "Sandstone" -999.25   -999.25   100.0000      0.0      0.0 "vf"       "vf/f"     "Øvre_strandskråning,_overgang_til_nedre_strandskråning"          "Distal_deltafront"          
2497.6 "6407_6-3"  84.0400 "Sandstone" -999.25   -999.25   100.0000      0.0      0.0 "vf"       "vf/f"     "Øvre_strandskråning,_overgang_til_nedre_strandskråning"          "Distal_deltafront"          
2497.7 "6407_6-3"  84.0900 "Sandstone" -999.25   -999.25   100.0000      0.0      0.0 "vf"       "vf/f"     "Øvre_strandskråning,_overgang_til_nedre_strandskråning"          "Distal_deltafront"          
2497.8 "6407_6-3"  85.8200 "Sandstone" -999.25   -999.25   100.0000      0.0      0.0 "vf"       "vf/f"     "Øvre_strandskråning,_overgang_til_nedre_strandskråning"          "Distal_deltafront"          
2497.9 "6407_6-3"  89.9500 "Sandstone" -999.25   -999.25   100.0000      0.0      0.0 "vf"       "vf/f"     "Øvre_strandskråning,_overgang_til_nedre_strandskråning"          "Distal_deltafront"          
2498.0 "6407_6-3"  94.5000 "Sandstone" -999.25   -999.25   100.0000      0.0      0.0 "vf"       "vf/f"     "Øvre_strandskråning,_overgang_til_nedre_strandskråning"          "Distal_deltafront"          
2498.1 "6407_6-3" 103.2500 "Sandstone" -999.25   -999.25   100.0000      0.0      0.0 "vf"       "vf/f"     "Øvre_strandskråning,_overgang_til_nedre_strandskråning"          "Distal_deltafront"          
2498.2 "6407_6-3" 118.2300 "Sandstone" -999.25   -999.25   100.0000      0.0      0.0 "vf"       "vf/f"     "Øvre_strandskråning,_overgang_til_nedre_strandskråning"          "Distal_deltafront"          
2498.3 "6407_6-3" 127.9300 "Sandstone" -999.25   -999.25   100.0000      0.0      0.0 "vf"       "vf/f"     "Øvre_strandskråning,_overgang_til_nedre_strandskråning"          "Distal_deltafront"          
2498.4 "6407_6-3" 129.7400 "Sandstone" -999.25   -999.25   100.0000      0.0      0.0 "vf"       "vf/f"     "Øvre_strandskråning,_overgang_til_nedre_strandskråning"          "Distal_deltafront"          
2498.5 "6407_6-3" 130.4100 "Sandstone" -999.25   -999.25   100.0000      0.0      0.0 "vf"       "vf/f"     "Øvre_strandskråning,_overgang_til_nedre_strandskråning"          "Distal_deltafront"          
2498.6 "6407_6-3" 130.6000 "Sandstone" -999.25   -999.25   100.0000      0.0      0.0 "vf"       "vf/f"     "Øvre_strandskråning,_overgang_til_nedre_strandskråning"          "Distal_deltafront"          
2498.7 "6407_6-3" 130.5600 "Sandstone" -999.25   -999.25   100.0000      0.0      0.0 "vf"       "vf/f"     "Øvre_strandskråning,_overgang_til_nedre_strandskråning"          "Distal_deltafront"          
2498.8 "6407_6-3" 129.8100 "Sandstone" -999.25   -999.25   100.0000      0.0      0.0 "vf"       "vf/f"     "Øvre_strandskråning,_overgang_til_nedre_strandskråning"          "Distal_deltafront"          
2498.9 "6407_6-3" 126.0300 "Sandstone" -999.25   -999.25   100.0000      0.0      0.0 "vf"       "vf/f"     "Øvre_strandskråning,_overgang_til_nedre_strandskråning"          "Distal_deltafront"          
2499.0 "6407_6-3" 120.6700 "Sandstone" -999.25   -999.25   100.0000      0.0      0.0 "vf"       "vf/f"     "Øvre_strandskråning,_overgang_til_nedre_strandskråning"          "Distal_deltafront"          
2499.1 "6407_6-3" 115.9200 "Sandstone" -999.25   -999.25   100.0000      0.0      0.0 "vf"       "vf/f"     "Øvre_strandskråning,_overgang_til_nedre_strandskråning"          "Distal_deltafront"          
2499.2 "6407_6-3" 110.5000 "Sandstone" -999.25   -999.25   100.0000      0.0      0.0 "vf"       "vf/f"     "Øvre_strandskråning,_overgang_til_nedre_strandskråning"          "Distal_deltafront"          
2499.3 "6407_6-3" 106.5700 "Sandstone" -999.25   -999.25   100.0000      0.0      0.0 "vf"       "vf/f"     "Øvre_strandskråning,_overgang_til_nedre_strandskråning"          "Distal_deltafront"          
2499.4 "6407_6-3" 102.2300 "Sandstone" -999.25   -999.25   100.0000      0.0      0.0 "vf"       "vf/f"     "Øvre_strandskråning,_overgang_til_nedre_strandskråning"          "Distal_deltafront"          
2499.5 "6407_6-3" 100.7200 "Sandstone" -999.25   -999.25   100.0000      0.0      0.0 "vf"       "vf/f"     "Øvre_strandskråning,_overgang_til_nedre_strandskråning"          "Distal_deltafront"          
2499.6 "6407_6-3" 101.4100 "Sandstone" -999.25   -999.25   100.0000      0.0      0.0 "vf"       "vf/f"     "Øvre_strandskråning,_overgang_til_nedre_strandskråning"          "Distal_deltafront"          
2499.7 "6407_6-3" 103.8500 "Sandstone" -999.25   -999.25   100.0000      0.0      0.0 "vf"       "vf/f"     "Øvre_strandskråning,_overgang_til_nedre_strandskråning"          "Distal_deltafront"          
2499.8 "6407_6-3" 109.5600 "Sandstone" -999.25   -999.25   100.0000      0.0      0.0 "vf"       "vf/f"     "Øvre_strandskråning,_overgang_til_nedre_strandskråning"          "Distal_deltafront"          
2499.9 "6407_6-3" 118.0500 "Sandstone" -999.25   -999.25   100.0000      0.0      0.0 "vf"       "vf/f"     "Øvre_strandskråning,_overgang_til_nedre_strandskråning"          "Distal_deltafront"          
