~Version
VERS  .                                 3.0 : CWLS LAS ASCII Standard - Version 3.0
WRAP  . NO                                  : One line per depth step
DLM   . SPACE                               : Column data section delimiter
SOURCE. Converted to LAS by Log Studio 4.76 : GeoProvider

~Well
STRT.         3661.0 : Start depth
STOP.         3719.3 : Stop depth
STEP.              1 : Step
NULL.        -999.25 : No-value
COMP.                : Company
WELL. 6407/1-2       : Well
FLD .                : Field
LOC .                : Location
LATI.                : Latitude
LONG.                : Longitude
GDAT.                : Geodetic datum
CNTY.                : County
STAT.                : State
CTRY.                : Country
SRVC. GeoProvider AS : Service company
DATE.                : Date
API .                : API number
RUN .                : Run number

~Parameters
WellboreName.  : Wellbore name
RigName     .  : Rig name
StartDate   .  : Start date

~Curves
DEPTH.m            .  : null {F}Depth mMD
Hole_ID.-          .  : null {S}Hole ID
GR.API             .  : null {F}Gamma Ray
Lithology1.-       .  : null {S}Lithology 1
Lithology2.-       .  : null {S}Lithology 2
Lithology3.-       .  : null {S}Lithology 3
Lithology1.%       .  : null {F}Lithology 1 percentage
Lithology2.%       .  : null {F}Lithology 2 percentage
Lithology3.%       .  : null {F}Lithology 3 percentage
Grain_size_Top.-   .  : null {S}Grain size at the top 
Grain_size_Base.-  .  : null {S}Grain size at the bottom
Sub_Environment.-  .  : null {S}Sub Environment
Gross_Environment.-.  : null {S}Gross Environment

~Ascii
# ...
3688.3 "6407_1-2" 63.79000 "Sandstone" -999.25 -999.25 100.0000 -999.25 -999.25 "m"     "c/vc"  "PULSE_ Vertically_ aggrading,_ complex_ beach/upper_ shoreface_ suite._ Internal_ scours_ may_ be_ due_ to_ storm/rip_ current_ crosion._ Upper_ shoreface_ Middle_ shoreface_ Vertically_ aggraded_ foreshore_ MINOR" "HIGH-ENERGY_ NEARSHORE_ MARINE_ SETTING,_ CHARACTERIZED_ BY_ HIGH_ SAND_ INFLUX_ AND_ STRONG_ WAVE_ RE-DISTRIBUTION_ 4_ MAJOR_ SEDIMENTARY_ CYCLES_ PRESENT,_ EACH_ APPARENTLY_ BEING_ SLIGHTLY_ MORE_ DISTAL_ THAN_ THE_ PREVIOUS_ ONES._ CYCLICITY_ RELATABLE_ TO_ RAAD_ FLUCTUATIONS_ IN_ RELATIVE_ SEALEVEL"
3688.4 "6407_1-2" 63.95000 "Sandstone" -999.25 -999.25 100.0000 -999.25 -999.25 "m"     "c/vc"  "PULSE_ Vertically_ aggrading,_ complex_ beach/upper_ shoreface_ suite._ Internal_ scours_ may_ be_ due_ to_ storm/rip_ current_ crosion._ Upper_ shoreface_ Middle_ shoreface_ Vertically_ aggraded_ foreshore_ MINOR" "HIGH-ENERGY_ NEARSHORE_ MARINE_ SETTING,_ CHARACTERIZED_ BY_ HIGH_ SAND_ INFLUX_ AND_ STRONG_ WAVE_ RE-DISTRIBUTION_ 4_ MAJOR_ SEDIMENTARY_ CYCLES_ PRESENT,_ EACH_ APPARENTLY_ BEING_ SLIGHTLY_ MORE_ DISTAL_ THAN_ THE_ PREVIOUS_ ONES._ CYCLICITY_ RELATABLE_ TO_ RAAD_ FLUCTUATIONS_ IN_ RELATIVE_ SEALEVEL"
3688.5 "6407_1-2" 64.10000 "Sandstone" -999.25 -999.25 100.0000 -999.25 -999.25 "m"     "c/vc"  "PULSE_ Vertically_ aggrading,_ complex_ beach/upper_ shoreface_ suite._ Internal_ scours_ may_ be_ due_ to_ storm/rip_ current_ crosion._ Upper_ shoreface_ Middle_ shoreface_ Vertically_ aggraded_ foreshore_ MINOR" "HIGH-ENERGY_ NEARSHORE_ MARINE_ SETTING,_ CHARACTERIZED_ BY_ HIGH_ SAND_ INFLUX_ AND_ STRONG_ WAVE_ RE-DISTRIBUTION_ 4_ MAJOR_ SEDIMENTARY_ CYCLES_ PRESENT,_ EACH_ APPARENTLY_ BEING_ SLIGHTLY_ MORE_ DISTAL_ THAN_ THE_ PREVIOUS_ ONES._ CYCLICITY_ RELATABLE_ TO_ RAAD_ FLUCTUATIONS_ IN_ RELATIVE_ SEALEVEL"
3688.6 "6407_1-2" 65.12000 "Sandstone" -999.25 -999.25 100.0000 -999.25 -999.25 "m"     "c/vc"  "PULSE_ Vertically_ aggrading,_ complex_ beach/upper_ shoreface_ suite._ Internal_ scours_ may_ be_ due_ to_ storm/rip_ current_ crosion._ Upper_ shoreface_ Middle_ shoreface_ Vertically_ aggraded_ foreshore_ MINOR" "HIGH-ENERGY_ NEARSHORE_ MARINE_ SETTING,_ CHARACTERIZED_ BY_ HIGH_ SAND_ INFLUX_ AND_ STRONG_ WAVE_ RE-DISTRIBUTION_ 4_ MAJOR_ SEDIMENTARY_ CYCLES_ PRESENT,_ EACH_ APPARENTLY_ BEING_ SLIGHTLY_ MORE_ DISTAL_ THAN_ THE_ PREVIOUS_ ONES._ CYCLICITY_ RELATABLE_ TO_ RAAD_ FLUCTUATIONS_ IN_ RELATIVE_ SEALEVEL"
3688.7 "6407_1-2" 66.18000 "Sandstone" -999.25 -999.25 100.0000 -999.25 -999.25 "m"     "c/vc"  "PULSE_ Vertically_ aggrading,_ complex_ beach/upper_ shoreface_ suite._ Internal_ scours_ may_ be_ due_ to_ storm/rip_ current_ crosion._ Upper_ shoreface_ Middle_ shoreface_ Vertically_ aggraded_ foreshore_ MINOR" "HIGH-ENERGY_ NEARSHORE_ MARINE_ SETTING,_ CHARACTERIZED_ BY_ HIGH_ SAND_ INFLUX_ AND_ STRONG_ WAVE_ RE-DISTRIBUTION_ 4_ MAJOR_ SEDIMENTARY_ CYCLES_ PRESENT,_ EACH_ APPARENTLY_ BEING_ SLIGHTLY_ MORE_ DISTAL_ THAN_ THE_ PREVIOUS_ ONES._ CYCLICITY_ RELATABLE_ TO_ RAAD_ FLUCTUATIONS_ IN_ RELATIVE_ SEALEVEL"
3688.8 "6407_1-2" 67.30000 "Sandstone" -999.25 -999.25 100.0000 -999.25 -999.25 "m"     "c/vc"  "PULSE_ Vertically_ aggrading,_ complex_ beach/upper_ shoreface_ suite._ Internal_ scours_ may_ be_ due_ to_ storm/rip_ current_ crosion._ Upper_ shoreface_ Middle_ shoreface_ Vertically_ aggraded_ foreshore_ MINOR" "HIGH-ENERGY_ NEARSHORE_ MARINE_ SETTING,_ CHARACTERIZED_ BY_ HIGH_ SAND_ INFLUX_ AND_ STRONG_ WAVE_ RE-DISTRIBUTION_ 4_ MAJOR_ SEDIMENTARY_ CYCLES_ PRESENT,_ EACH_ APPARENTLY_ BEING_ SLIGHTLY_ MORE_ DISTAL_ THAN_ THE_ PREVIOUS_ ONES._ CYCLICITY_ RELATABLE_ TO_ RAAD_ FLUCTUATIONS_ IN_ RELATIVE_ SEALEVEL"
3688.9 "6407_1-2" 68.42000 "Sandstone" -999.25 -999.25 100.0000 -999.25 -999.25 "m"     "c/vc"  "PULSE_ Vertically_ aggrading,_ complex_ beach/upper_ shoreface_ suite._ Internal_ scours_ may_ be_ due_ to_ storm/rip_ current_ crosion._ Upper_ shoreface_ Middle_ shoreface_ Vertically_ aggraded_ foreshore_ MINOR" "HIGH-ENERGY_ NEARSHORE_ MARINE_ SETTING,_ CHARACTERIZED_ BY_ HIGH_ SAND_ INFLUX_ AND_ STRONG_ WAVE_ RE-DISTRIBUTION_ 4_ MAJOR_ SEDIMENTARY_ CYCLES_ PRESENT,_ EACH_ APPARENTLY_ BEING_ SLIGHTLY_ MORE_ DISTAL_ THAN_ THE_ PREVIOUS_ ONES._ CYCLICITY_ RELATABLE_ TO_ RAAD_ FLUCTUATIONS_ IN_ RELATIVE_ SEALEVEL"
3689.0 "6407_1-2" 68.58000 "Sandstone" -999.25 -999.25 100.0000 -999.25 -999.25 "m"     "c/vc"  "PULSE_ Vertically_ aggrading,_ complex_ beach/upper_ shoreface_ suite._ Internal_ scours_ may_ be_ due_ to_ storm/rip_ current_ crosion._ Upper_ shoreface_ Middle_ shoreface_ Vertically_ aggraded_ foreshore_ MINOR" "HIGH-ENERGY_ NEARSHORE_ MARINE_ SETTING,_ CHARACTERIZED_ BY_ HIGH_ SAND_ INFLUX_ AND_ STRONG_ WAVE_ RE-DISTRIBUTION_ 4_ MAJOR_ SEDIMENTARY_ CYCLES_ PRESENT,_ EACH_ APPARENTLY_ BEING_ SLIGHTLY_ MORE_ DISTAL_ THAN_ THE_ PREVIOUS_ ONES._ CYCLICITY_ RELATABLE_ TO_ RAAD_ FLUCTUATIONS_ IN_ RELATIVE_ SEALEVEL"
3689.1 "6407_1-2" 68.44000 "Sandstone" -999.25 -999.25 100.0000 -999.25 -999.25 "m"     "c/vc"  "PULSE_ Vertically_ aggrading,_ complex_ beach/upper_ shoreface_ suite._ Internal_ scours_ may_ be_ due_ to_ storm/rip_ current_ crosion._ Upper_ shoreface_ Middle_ shoreface_ Vertically_ aggraded_ foreshore_ MINOR" "HIGH-ENERGY_ NEARSHORE_ MARINE_ SETTING,_ CHARACTERIZED_ BY_ HIGH_ SAND_ INFLUX_ AND_ STRONG_ WAVE_ RE-DISTRIBUTION_ 4_ MAJOR_ SEDIMENTARY_ CYCLES_ PRESENT,_ EACH_ APPARENTLY_ BEING_ SLIGHTLY_ MORE_ DISTAL_ THAN_ THE_ PREVIOUS_ ONES._ CYCLICITY_ RELATABLE_ TO_ RAAD_ FLUCTUATIONS_ IN_ RELATIVE_ SEALEVEL"
3689.2 "6407_1-2" 68.15000 "Sandstone" -999.25 -999.25 100.0000 -999.25 -999.25 "m"     "c/vc"  "PULSE_ Vertically_ aggrading,_ complex_ beach/upper_ shoreface_ suite._ Internal_ scours_ may_ be_ due_ to_ storm/rip_ current_ crosion._ Upper_ shoreface_ Middle_ shoreface_ Vertically_ aggraded_ foreshore_ MINOR" "HIGH-ENERGY_ NEARSHORE_ MARINE_ SETTING,_ CHARACTERIZED_ BY_ HIGH_ SAND_ INFLUX_ AND_ STRONG_ WAVE_ RE-DISTRIBUTION_ 4_ MAJOR_ SEDIMENTARY_ CYCLES_ PRESENT,_ EACH_ APPARENTLY_ BEING_ SLIGHTLY_ MORE_ DISTAL_ THAN_ THE_ PREVIOUS_ ONES._ CYCLICITY_ RELATABLE_ TO_ RAAD_ FLUCTUATIONS_ IN_ RELATIVE_ SEALEVEL"
3689.3 "6407_1-2" 67.04000 "Sandstone" -999.25 -999.25 100.0000 -999.25 -999.25 "m"     "c/vc"  "PULSE_ Vertically_ aggrading,_ complex_ beach/upper_ shoreface_ suite._ Internal_ scours_ may_ be_ due_ to_ storm/rip_ current_ crosion._ Upper_ shoreface_ Middle_ shoreface_ Vertically_ aggraded_ foreshore_ MINOR" "HIGH-ENERGY_ NEARSHORE_ MARINE_ SETTING,_ CHARACTERIZED_ BY_ HIGH_ SAND_ INFLUX_ AND_ STRONG_ WAVE_ RE-DISTRIBUTION_ 4_ MAJOR_ SEDIMENTARY_ CYCLES_ PRESENT,_ EACH_ APPARENTLY_ BEING_ SLIGHTLY_ MORE_ DISTAL_ THAN_ THE_ PREVIOUS_ ONES._ CYCLICITY_ RELATABLE_ TO_ RAAD_ FLUCTUATIONS_ IN_ RELATIVE_ SEALEVEL"
3689.4 "6407_1-2" 65.93000 "Sandstone" -999.25 -999.25 100.0000 -999.25 -999.25 "m"     "c/vc"  "PULSE_ Vertically_ aggrading,_ complex_ beach/upper_ shoreface_ suite._ Internal_ scours_ may_ be_ due_ to_ storm/rip_ current_ crosion._ Upper_ shoreface_ Middle_ shoreface_ Vertically_ aggraded_ foreshore_ MINOR" "HIGH-ENERGY_ NEARSHORE_ MARINE_ SETTING,_ CHARACTERIZED_ BY_ HIGH_ SAND_ INFLUX_ AND_ STRONG_ WAVE_ RE-DISTRIBUTION_ 4_ MAJOR_ SEDIMENTARY_ CYCLES_ PRESENT,_ EACH_ APPARENTLY_ BEING_ SLIGHTLY_ MORE_ DISTAL_ THAN_ THE_ PREVIOUS_ ONES._ CYCLICITY_ RELATABLE_ TO_ RAAD_ FLUCTUATIONS_ IN_ RELATIVE_ SEALEVEL"
3689.5 "6407_1-2" 64.94000 "Sandstone" -999.25 -999.25 100.0000 -999.25 -999.25 "m"     "c/vc"  "PULSE_ Vertically_ aggrading,_ complex_ beach/upper_ shoreface_ suite._ Internal_ scours_ may_ be_ due_ to_ storm/rip_ current_ crosion._ Upper_ shoreface_ Middle_ shoreface_ Vertically_ aggraded_ foreshore_ MINOR" "HIGH-ENERGY_ NEARSHORE_ MARINE_ SETTING,_ CHARACTERIZED_ BY_ HIGH_ SAND_ INFLUX_ AND_ STRONG_ WAVE_ RE-DISTRIBUTION_ 4_ MAJOR_ SEDIMENTARY_ CYCLES_ PRESENT,_ EACH_ APPARENTLY_ BEING_ SLIGHTLY_ MORE_ DISTAL_ THAN_ THE_ PREVIOUS_ ONES._ CYCLICITY_ RELATABLE_ TO_ RAAD_ FLUCTUATIONS_ IN_ RELATIVE_ SEALEVEL"
