~Version
VERS  .                                 3.0 : CWLS LAS ASCII Standard - Version 3.0
WRAP  . NO                                  : One line per depth step
DLM   . SPACE                               : Column data section delimiter
SOURCE. Converted to LAS by Log Studio 4.76 : GeoProvider

~Well
STRT.         3975.0 : Start depth
STOP.         4598.0 : Stop depth
STEP.              1 : Step
NULL.        -999.25 : No-value
COMP.                : Company
WELL. 6506/12-1      : Well
FLD .                : Field
LOC .                : Location
LATI.                : Latitude
LONG.                : Longitude
GDAT.                : Geodetic datum
CNTY.                : County
STAT.                : State
CTRY.                : Country
SRVC. GeoProvider AS : Service company
DATE.                : Date
API .                : API number
RUN .                : Run number

~Parameters
WellboreName.  : Wellbore name
RigName     .  : Rig name
StartDate   .  : Start date

~Curves
DEPTH.m            .  : null {F}Depth mMD
Hole_ID.-          .  : null {S}Hole ID
GR.API             .  : null {F}Gamma Ray
Lithology1.-       .  : null {S}Lithology 1
Lithology2.-       .  : null {S}Lithology 2
Lithology3.-       .  : null {S}Lithology 3
Lithology1.%       .  : null {F}Lithology 1 percentage
Lithology2.%       .  : null {F}Lithology 2 percentage
Lithology3.%       .  : null {F}Lithology 3 percentage
Grain_size_Top.-   .  : null {S}Grain size at the top 
Grain_size_Base.-  .  : null {S}Grain size at the bottom
Sub_Environment.-  .  : null {S}Sub Environment
Gross_Environment.-.  : null {S}Gross Environment

~Ascii
# ...
4195.6 "6506_12-1" 11.11000 "Sandstone" -999.25 -999.25 100.0000      0.0     0.0 "granule"      "granule"      "Debris_flow"                       "Fan_delta_complex"     
4195.7 "6506_12-1" 10.27000 "Sandstone" -999.25 -999.25 100.0000      0.0     0.0 "granule"      "granule"      "Debris_flow"                       "Fan_delta_complex"     
4195.8 "6506_12-1"  9.42000 "Sandstone" -999.25 -999.25 100.0000      0.0     0.0 "granule"      "granule"      "Debris_flow"                       "Fan_delta_complex"     
4195.9 "6506_12-1"  8.95000 "Sandstone" -999.25 -999.25 100.0000      0.0     0.0 "granule"      "granule"      "Debris_flow"                       "Fan_delta_complex"     
4196.0 "6506_12-1"  9.15000 "Sandstone" -999.25 -999.25 100.0000      0.0     0.0 "granule/pebble" "granule"      "Debris_flow"                       "Fan_delta_complex"     
4196.1 "6506_12-1"  9.34000 "Sandstone" -999.25 -999.25 100.0000      0.0     0.0 "granule/pebble" "granule"      "Debris_flow"                       "Fan_delta_complex"     
4196.2 "6506_12-1" 10.08000 "Sandstone" -999.25 -999.25 100.0000      0.0     0.0 "granule/pebble" "granule"      "Debris_flow"                       "Fan_delta_complex"     
4196.3 "6506_12-1" 10.87000 "Sandstone" -999.25 -999.25 100.0000      0.0     0.0 "granule/pebble" "granule"      "Debris_flow"                       "Fan_delta_complex"     
4196.4 "6506_12-1" 11.66000 "Sandstone" -999.25 -999.25 100.0000      0.0     0.0 "granule/pebble" "granule"      "Debris_flow"                       "Fan_delta_complex"     
4196.5 "6506_12-1" 12.45000 "Sandstone" -999.25 -999.25 100.0000      0.0     0.0 "granule/pebble" "granule"      "Debris_flow"                       "Fan_delta_complex"     
4196.6 "6506_12-1" 12.82000 "Sandstone" -999.25 -999.25 100.0000      0.0     0.0 "granule/pebble" "granule"      "Debris_flow"                       "Fan_delta_complex"     
4196.7 "6506_12-1" 12.43000 "Sandstone" -999.25 -999.25 100.0000      0.0     0.0 "granule/pebble" "granule"      "Debris_flow"                       "Fan_delta_complex"     
4196.8 "6506_12-1" 12.05000 "Sandstone" -999.25 -999.25 100.0000      0.0     0.0 "granule/pebble" "granule"      "Debris_flow"                       "Fan_delta_complex"     
4196.9 "6506_12-1" 11.66000 "Sandstone" -999.25 -999.25 100.0000      0.0     0.0 "granule/pebble" "granule"      "Debris_flow"                       "Fan_delta_complex"     
4197.0 "6506_12-1" 11.27000 "Sandstone" -999.25 -999.25 100.0000      0.0     0.0 "granule/pebble" "granule"      "Debris_flow"                       "Fan_delta_complex"     
4197.1 "6506_12-1" 11.82000 "Sandstone" -999.25 -999.25 100.0000      0.0     0.0 "granule/pebble" "granule"      "Debris_flow"                       "Fan_delta_complex"     
4197.2 "6506_12-1" 12.39000 "Sandstone" -999.25 -999.25 100.0000      0.0     0.0 "granule/pebble" "granule"      "Debris_flow"                       "Fan_delta_complex"     
4197.3 "6506_12-1" 12.95000 "Sandstone" -999.25 -999.25 100.0000      0.0     0.0 "granule/pebble" "granule"      "Debris_flow"                       "Fan_delta_complex"     
4197.4 "6506_12-1" 13.52000 "Sandstone" -999.25 -999.25 100.0000      0.0     0.0 "granule/pebble" "granule"      "Debris_flow"                       "Fan_delta_complex"     
4197.5 "6506_12-1" 13.87000 "Sandstone" -999.25 -999.25 100.0000      0.0     0.0 "granule/pebble" "granule"      "Debris_flow"                       "Fan_delta_complex"     
4197.6 "6506_12-1" 13.92000 "Sandstone" -999.25 -999.25 100.0000      0.0     0.0 "granule/pebble" "granule"      "Debris_flow"                       "Fan_delta_complex"     
4197.7 "6506_12-1" 13.97000 "Sandstone" -999.25 -999.25 100.0000      0.0     0.0 "granule/pebble" "granule"      "Debris_flow"                       "Fan_delta_complex"     
4197.8 "6506_12-1" 13.38000 "Sandstone" -999.25 -999.25 100.0000      0.0     0.0 "granule/pebble" "granule"      "Debris_flow"                       "Fan_delta_complex"     
4197.9 "6506_12-1" 12.64000 "Sandstone" -999.25 -999.25 100.0000      0.0     0.0 "granule/pebble" "granule"      "Debris_flow"                       "Fan_delta_complex"     
4198.0 "6506_12-1" 11.90000 "Sandstone" -999.25 -999.25 100.0000      0.0     0.0 "granule/pebble" "granule"      "Debris_flow"                       "Fan_delta_complex"     
4198.1 "6506_12-1" 11.27000 "Sandstone" -999.25 -999.25 100.0000      0.0     0.0 "granule/pebble" "granule"      "Debris_flow"                       "Fan_delta_complex"     
4198.2 "6506_12-1" 11.32000 "Sandstone" -999.25 -999.25 100.0000      0.0     0.0 "granule/pebble" "granule"      "Debris_flow"                       "Fan_delta_complex"     
4198.3 "6506_12-1" 11.37000 "Sandstone" -999.25 -999.25 100.0000      0.0     0.0 "granule/pebble" "granule"      "Debris_flow"                       "Fan_delta_complex"     
4198.4 "6506_12-1" 11.20000 "Sandstone" -999.25 -999.25 100.0000      0.0     0.0 "granule/pebble" "granule"      "Debris_flow"                       "Fan_delta_complex"     
4198.5 "6506_12-1" 10.61000 "Sandstone" -999.25 -999.25 100.0000      0.0     0.0 "granule/pebble" "granule"      "Debris_flow"                       "Fan_delta_complex"     
4198.6 "6506_12-1" 10.02000 "Sandstone" -999.25 -999.25 100.0000      0.0     0.0 "granule/pebble" "granule"      "Debris_flow"                       "Fan_delta_complex"     
4198.7 "6506_12-1"  9.43000 "Sandstone" -999.25 -999.25 100.0000      0.0     0.0 "granule/pebble" "granule"      "Debris_flow"                       "Fan_delta_complex"     
4198.8 "6506_12-1"  8.84000 "Sandstone" -999.25 -999.25 100.0000      0.0     0.0 "granule/pebble" "granule"      "Debris_flow"                       "Fan_delta_complex"     
4198.9 "6506_12-1"  8.59000 "Sandstone" -999.25 -999.25 100.0000      0.0     0.0 "granule/pebble" "granule"      "Debris_flow"                       "Fan_delta_complex"     
4199.0 "6506_12-1"  8.55000 "Sandstone" -999.25 -999.25 100.0000      0.0     0.0 "granule/pebble" "granule"      "Debris_flow"                       "Fan_delta_complex"     
4199.1 "6506_12-1"  9.02000 "Sandstone" -999.25 -999.25 100.0000      0.0     0.0 "granule/pebble" "granule"      "Debris_flow"                       "Fan_delta_complex"     
4199.2 "6506_12-1"  9.72000 "Sandstone" -999.25 -999.25 100.0000      0.0     0.0 "granule/pebble" "granule"      "Debris_flow"                       "Fan_delta_complex"     
4199.3 "6506_12-1" 10.42000 "Sandstone" -999.25 -999.25 100.0000      0.0     0.0 "granule/pebble" "granule"      "Debris_flow"                       "Fan_delta_complex"     
4199.4 "6506_12-1" 11.13000 "Sandstone" -999.25 -999.25 100.0000      0.0     0.0 "granule/pebble" "granule"      "Debris_flow"                       "Fan_delta_complex"     
4199.5 "6506_12-1" 11.83000 "Sandstone" -999.25 -999.25 100.0000      0.0     0.0 "granule/pebble" "granule"      "Debris_flow"                       "Fan_delta_complex"     
4199.6 "6506_12-1" 12.21000 "Sandstone" -999.25 -999.25 100.0000      0.0     0.0 "granule/pebble" "granule"      "Debris_flow"                       "Fan_delta_complex"     
4199.7 "6506_12-1" 11.64000 "Sandstone" -999.25 -999.25 100.0000      0.0     0.0 "granule/pebble" "granule"      "Debris_flow"                       "Fan_delta_complex"     
4199.8 "6506_12-1" 11.08000 "Sandstone" -999.25 -999.25 100.0000      0.0     0.0 "granule/pebble" "granule"      "Debris_flow"                       "Fan_delta_complex"     
4199.9 "6506_12-1" 10.52000 "Sandstone" -999.25 -999.25 100.0000      0.0     0.0 "granule/pebble" "granule"      "Debris_flow"                       "Fan_delta_complex"     
4200.0 "6506_12-1" 10.32000 "Sandstone" -999.25 -999.25 100.0000      0.0     0.0 "granule/pebble" "granule"      "Debris_flow"                       "Fan_delta_complex"     
4200.1 "6506_12-1" 10.23000 "Sandstone" -999.25 -999.25 100.0000      0.0     0.0 "granule/pebble" "granule"      "Debris_flow"                       "Fan_delta_complex"     
