~Version
VERS  .                                 3.0 : CWLS LAS ASCII Standard - Version 3.0
WRAP  . NO                                  : One line per depth step
DLM   . SPACE                               : Column data section delimiter
SOURCE. Converted to LAS by Log Studio 4.76 : GeoProvider

~Well
STRT.         3975.0 : Start depth
STOP.         4598.0 : Stop depth
STEP.              1 : Step
NULL.        -999.25 : No-value
COMP.                : Company
WELL. 6506/12-1      : Well
FLD .                : Field
LOC .                : Location
LATI.                : Latitude
LONG.                : Longitude
GDAT.                : Geodetic datum
CNTY.                : County
STAT.                : State
CTRY.                : Country
SRVC. GeoProvider AS : Service company
DATE.                : Date
API .                : API number
RUN .                : Run number

~Parameters
WellboreName.  : Wellbore name
RigName     .  : Rig name
StartDate   .  : Start date

~Curves
DEPTH.m            .  : null {F}Depth mMD
Hole_ID.-          .  : null {S}Hole ID
GR.API             .  : null {F}Gamma Ray
Lithology1.-       .  : null {S}Lithology 1
Lithology2.-       .  : null {S}Lithology 2
Lithology3.-       .  : null {S}Lithology 3
Lithology1.%       .  : null {F}Lithology 1 percentage
Lithology2.%       .  : null {F}Lithology 2 percentage
Lithology3.%       .  : null {F}Lithology 3 percentage
Grain_size_Top.-   .  : null {S}Grain size at the top 
Grain_size_Base.-  .  : null {S}Grain size at the bottom
Sub_Environment.-  .  : null {S}Sub Environment
Gross_Environment.-.  : null {S}Gross Environment

~Ascii
# ...
4073.7 "6506_12-1" 13.66000 "Sandstone" -999.25 -999.25 100.0000      0.0     0.0 "c/vc"         "c/vc"         "Shallow_marine"                    "Prograding_delta_front"
4073.8 "6506_12-1" 13.63000 "Sandstone" -999.25 -999.25 100.0000      0.0     0.0 "c/vc"         "c/vc"         "Shallow_marine"                    "Prograding_delta_front"
4073.9 "6506_12-1" 14.26000 "Sandstone" -999.25 -999.25 100.0000      0.0     0.0 "c/vc"         "c/vc"         "Shallow_marine"                    "Prograding_delta_front"
4074.0 "6506_12-1" 15.24000 "Sandstone" -999.25 -999.25 100.0000      0.0     0.0 "c/vc"         "c/vc"         "Shallow_marine"                    "Prograding_delta_front"
4074.1 "6506_12-1" 16.67000 "Sandstone" -999.25 -999.25 100.0000      0.0     0.0 "c/vc"         "c/vc"         "Shallow_marine"                    "Prograding_delta_front"
4074.2 "6506_12-1" 18.09000 "Sandstone" -999.25 -999.25 100.0000      0.0     0.0 "c/vc"         "c/vc"         "Shallow_marine"                    "Prograding_delta_front"
4074.3 "6506_12-1" 19.45000 "Sandstone" -999.25 -999.25 100.0000      0.0     0.0 "c/vc"         "c/vc"         "Shallow_marine"                    "Prograding_delta_front"
4074.4 "6506_12-1" 20.67000 "Sandstone" -999.25 -999.25 100.0000      0.0     0.0 "c/vc"         "c/vc"         "Shallow_marine"                    "Prograding_delta_front"
4074.5 "6506_12-1" 19.30000 "Sandstone" -999.25 -999.25 100.0000      0.0     0.0 "c/vc"         "c/vc"         "Shallow_marine"                    "Prograding_delta_front"
4074.6 "6506_12-1" 17.67000 "Sandstone" -999.25 -999.25 100.0000      0.0     0.0 "c/vc"         "c/vc"         "Shallow_marine"                    "Prograding_delta_front"
4074.7 "6506_12-1" 16.15000 "Sandstone" -999.25 -999.25 100.0000      0.0     0.0 "c/vc"         "c/vc"         "Shallow_marine"                    "Prograding_delta_front"
4074.8 "6506_12-1" 14.90000 "Sandstone" -999.25 -999.25 100.0000      0.0     0.0 "c/vc"         "c/vc"         "Shallow_marine"                    "Prograding_delta_front"
4074.9 "6506_12-1" 15.72000 "Sandstone" -999.25 -999.25 100.0000      0.0     0.0 "c/vc"         "c/vc"         "Shallow_marine"                    "Prograding_delta_front"
4075.0 "6506_12-1" 18.36000 "Sandstone" -999.25 -999.25 100.0000      0.0     0.0 "c/vc"         "c/vc"         "Shallow_marine"                    "Prograding_delta_front"
4075.1 "6506_12-1" 20.84000 "Sandstone" "Shale" -999.25  85.0000 15.00000     0.0 -999.25        -999.25        "Shallow_marine"                    "Prograding_delta_front"
4075.2 "6506_12-1" 21.54000 "Sandstone" "Shale" -999.25  85.0000 15.00000     0.0 -999.25        -999.25        "Shallow_marine"                    "Prograding_delta_front"
4075.3 "6506_12-1" 22.23000 "Sandstone" "Shale" -999.25  80.0000 20.00000     0.0 "c/vc"         "m"            "Shallow_marine"                    "Prograding_delta_front"
4075.4 "6506_12-1" 22.93000 "Sandstone" "Shale" -999.25  80.0000 20.00000     0.0 "c/vc"         "m"            "Shallow_marine"                    "Prograding_delta_front"
4075.5 "6506_12-1" 23.63000 "Sandstone" "Shale" -999.25  80.0000 20.00000     0.0 "c/vc"         "m"            "Shallow_marine"                    "Prograding_delta_front"
4075.6 "6506_12-1" 24.33000 "Sandstone" "Shale" -999.25  80.0000 20.00000     0.0 "c/vc"         "m"            "Shallow_marine"                    "Prograding_delta_front"
4075.7 "6506_12-1" 25.03000 "Sandstone" "Shale" -999.25  80.0000 20.00000     0.0 "c/vc"         "m"            "Shallow_marine"                    "Prograding_delta_front"
4075.8 "6506_12-1" 25.41000 "Sandstone" "Shale" -999.25  80.0000 20.00000     0.0 "c/vc"         "m"            "Shallow_marine"                    "Prograding_delta_front"
4075.9 "6506_12-1" 25.77000 "Sandstone" "Shale" -999.25  80.0000 20.00000     0.0 "c/vc"         "m"            "Shallow_marine"                    "Prograding_delta_front"
4076.0 "6506_12-1" 25.96000 "Sandstone" "Shale" -999.25  80.0000 20.00000     0.0 "c/vc"         "m"            "Shallow_marine"                    "Prograding_delta_front"
4076.1 "6506_12-1" 26.00000 "Sandstone" "Shale" -999.25  80.0000 20.00000     0.0 "c/vc"         "m"            "Shallow_marine"                    "Prograding_delta_front"
4076.2 "6506_12-1" 24.93000 "Sandstone" "Shale" -999.25  80.0000 20.00000     0.0 "c/vc"         "m"            "Shallow_marine"                    "Prograding_delta_front"
4076.3 "6506_12-1" 23.08000 "Sandstone" "Shale" -999.25  80.0000 20.00000     0.0 "c/vc"         "m"            "Shallow_marine"                    "Prograding_delta_front"
4076.4 "6506_12-1" 21.22000 "Sandstone" "Shale" -999.25  80.0000 20.00000     0.0 "c/vc"         "m"            "Shallow_marine"                    "Prograding_delta_front"
4076.5 "6506_12-1" 19.36000 "Sandstone" "Shale" -999.25  80.0000 20.00000     0.0 "c/vc"         "m"            "Shallow_marine"                    "Prograding_delta_front"
4076.6 "6506_12-1" 16.07000 "Sandstone" "Shale" -999.25  80.0000 20.00000     0.0 "c/vc"         "m"            "Shallow_marine"                    "Prograding_delta_front"
4076.7 "6506_12-1" 13.89000 "Sandstone" "Shale" -999.25  80.0000 20.00000     0.0 "c/vc"         "m"            "Shallow_marine"                    "Prograding_delta_front"
4076.8 "6506_12-1" 12.76000 "Sandstone" "Shale" -999.25  80.0000 20.00000     0.0 "c/vc"         "m"            "Shallow_marine"                    "Prograding_delta_front"
4076.9 "6506_12-1" 12.46000 "Sandstone" "Shale" -999.25  80.0000 20.00000     0.0 "c/vc"         "m"            "Shallow_marine"                    "Prograding_delta_front"
4077.0 "6506_12-1" 12.42000 "Sandstone" -999.25 -999.25 100.0000      0.0     0.0 "c/vc"         "c/vc"         "Shallow_marine"                    "Prograding_delta_front"
4077.1 "6506_12-1" 13.09000 "Sandstone" -999.25 -999.25 100.0000      0.0     0.0 "c/vc"         "c/vc"         "Shallow_marine"                    "Prograding_delta_front"
4077.2 "6506_12-1" 13.90000 "Sandstone" -999.25 -999.25 100.0000      0.0     0.0 "c/vc"         "c/vc"         "Shallow_marine"                    "Prograding_delta_front"
4077.3 "6506_12-1" 14.71000 "Shale"   -999.25 -999.25 100.0000      0.0     0.0 "vf"           "vf"           "Shallow_marine"                    "Prograding_delta_front"
4077.4 "6506_12-1" 15.53000 "Shale"   -999.25 -999.25 100.0000      0.0     0.0 "vf"           "vf"           "Shallow_marine"                    "Prograding_delta_front"
4077.5 "6506_12-1" 16.34000 "Sandstone" "Shale" -999.25  95.0000  5.00000     0.0 "c"            "c"            "Shallow_marine"                    "Prograding_delta_front"
4077.6 "6506_12-1" 17.15000 "Sandstone" "Shale" -999.25  95.0000  5.00000     0.0 "c"            "c"            "Shallow_marine"                    "Prograding_delta_front"
4077.7 "6506_12-1" 17.96000 "Sandstone" "Shale" -999.25  95.0000  5.00000     0.0 "c"            "c"            "Shallow_marine"                    "Prograding_delta_front"
4077.8 "6506_12-1" 18.77000 "Sandstone" "Shale" -999.25  95.0000  5.00000     0.0 "c"            "c"            "Shallow_marine"                    "Prograding_delta_front"
4077.9 "6506_12-1" 18.50000 "Sandstone" "Shale" -999.25  95.0000  5.00000     0.0 "c"            "c"            "Shallow_marine"                    "Prograding_delta_front"
4078.0 "6506_12-1" 18.15000 "Sandstone" "Shale" -999.25  95.0000  5.00000     0.0 "c"            "c"            "Shallow_marine"                    "Prograding_delta_front"
4078.1 "6506_12-1" 16.65000 "Sandstone" "Shale" -999.25  95.0000  5.00000     0.0 "c"            "c"            "Shallow_marine"                    "Prograding_delta_front"
4078.2 "6506_12-1" 16.64000 "Sandstone" "Shale" -999.25  95.0000  5.00000     0.0 "c"            "c"            "Shallow_marine"                    "Prograding_delta_front"
4078.3 "6506_12-1" 17.00000 "Sandstone" "Shale" -999.25  95.0000  5.00000     0.0 "c"            "c"            "Shallow_marine"                    "Prograding_delta_front"
