~Version
VERS  .                                 3.0 : CWLS LAS ASCII Standard - Version 3.0
WRAP  . NO                                  : One line per depth step
DLM   . SPACE                               : Column data section delimiter
SOURCE. Converted to LAS by Log Studio 4.76 : GeoProvider

~Well
STRT.         3975.0 : Start depth
STOP.         4598.0 : Stop depth
STEP.              1 : Step
NULL.        -999.25 : No-value
COMP.                : Company
WELL. 6506/12-1      : Well
FLD .                : Field
LOC .                : Location
LATI.                : Latitude
LONG.                : Longitude
GDAT.                : Geodetic datum
CNTY.                : County
STAT.                : State
CTRY.                : Country
SRVC. GeoProvider AS : Service company
DATE.                : Date
API .                : API number
RUN .                : Run number

~Parameters
WellboreName.  : Wellbore name
RigName     .  : Rig name
StartDate   .  : Start date

~Curves
DEPTH.m            .  : null {F}Depth mMD
Hole_ID.-          .  : null {S}Hole ID
GR.API             .  : null {F}Gamma Ray
Lithology1.-       .  : null {S}Lithology 1
Lithology2.-       .  : null {S}Lithology 2
Lithology3.-       .  : null {S}Lithology 3
Lithology1.%       .  : null {F}Lithology 1 percentage
Lithology2.%       .  : null {F}Lithology 2 percentage
Lithology3.%       .  : null {F}Lithology 3 percentage
Grain_size_Top.-   .  : null {S}Grain size at the top 
Grain_size_Base.-  .  : null {S}Grain size at the bottom
Sub_Environment.-  .  : null {S}Sub Environment
Gross_Environment.-.  : null {S}Gross Environment

~Ascii
# ...
4289.4 "6506_12-1" 15.28000 "Sandstone" -999.25 -999.25 100.0000      0.0     0.0 "f/m"          "f/m"          "Marginal_marine"                   "Delta_front_/_Bay"     
4289.5 "6506_12-1" 12.54000 "Shale"   -999.25 -999.25 100.0000      0.0     0.0 "vf"           "vf/f"         "Marginal_marine"                   "Delta_front_/_Bay"     
4289.6 "6506_12-1" 11.38000 "Shale"   -999.25 -999.25 100.0000      0.0     0.0 "vf"           "vf/f"         "Marginal_marine"                   "Delta_front_/_Bay"     
4289.7 "6506_12-1" 10.21000 "Shale"   -999.25 -999.25 100.0000      0.0     0.0 "vf"           "vf/f"         "Marginal_marine"                   "Delta_front_/_Bay"     
4289.8 "6506_12-1"  9.10000 "Shale"   -999.25 -999.25 100.0000      0.0     0.0 "vf"           "vf/f"         "Marginal_marine"                   "Delta_front_/_Bay"     
4289.9 "6506_12-1"  8.49000 "Shale"   -999.25 -999.25 100.0000      0.0     0.0 "vf"           "vf/f"         "Marginal_marine"                   "Delta_front_/_Bay"     
4290.0 "6506_12-1"  7.88000 "Shale"   -999.25 -999.25 100.0000      0.0     0.0 "vf"           "vf/f"         "Marginal_marine"                   "Delta_front_/_Bay"     
4290.1 "6506_12-1"  7.27000 "Sandstone" -999.25 -999.25 100.0000      0.0     0.0 "vc"           "vc"           "Marginal_marine"                   "Delta_front_/_Bay"     
4290.2 "6506_12-1"  6.99000 "Sandstone" -999.25 -999.25 100.0000      0.0     0.0 "vc"           "vc"           "Marginal_marine"                   "Delta_front_/_Bay"     
4290.3 "6506_12-1"  7.17000 "Sandstone" -999.25 -999.25 100.0000      0.0     0.0 "vc"           "vc"           "Marginal_marine"                   "Delta_front_/_Bay"     
4290.4 "6506_12-1"  7.35000 "Sandstone" -999.25 -999.25 100.0000      0.0     0.0 "vc"           "vc"           "Marginal_marine"                   "Delta_front_/_Bay"     
4290.5 "6506_12-1"  8.01000 "Sandstone" -999.25 -999.25 100.0000      0.0     0.0 "vc"           "vc"           "Marginal_marine"                   "Delta_front_/_Bay"     
4290.6 "6506_12-1"  8.08000 "Sandstone" -999.25 -999.25 100.0000      0.0     0.0 "vc"           "vc"           "Marginal_marine"                   "Delta_front_/_Bay"     
4290.7 "6506_12-1"  8.15000 "Sandstone" -999.25 -999.25 100.0000      0.0     0.0 "vc"           "vc"           "Marginal_marine"                   "Delta_front_/_Bay"     
4290.8 "6506_12-1"  8.27000 "Sandstone" -999.25 -999.25 100.0000      0.0     0.0 "vc"           "vc"           "Marginal_marine"                   "Delta_front_/_Bay"     
4290.9 "6506_12-1"  8.49000 "Sandstone" -999.25 -999.25 100.0000      0.0     0.0 "vc"           "vc"           "Marginal_marine"                   "Delta_front_/_Bay"     
4291.0 "6506_12-1"  8.71000 "Sandstone" -999.25 -999.25 100.0000      0.0     0.0 "vc"           "vc"           "Marginal_marine"                   "Delta_front_/_Bay"     
4291.1 "6506_12-1"  9.22000 "Sandstone" -999.25 -999.25 100.0000      0.0     0.0 "vc"           "vc"           "Marginal_marine"                   "Delta_front_/_Bay"     
4291.2 "6506_12-1"  9.78000 "Sandstone" -999.25 -999.25 100.0000      0.0     0.0 "vc"           "vc"           "Marginal_marine"                   "Delta_front_/_Bay"     
4291.3 "6506_12-1" 10.35000 "Sandstone" -999.25 -999.25 100.0000      0.0     0.0 "vc"           "vc"           "Marginal_marine"                   "Delta_front_/_Bay"     
4291.4 "6506_12-1" 10.65000 "Sandstone" -999.25 -999.25 100.0000      0.0     0.0 "vc"           "vc"           "Marginal_marine"                   "Delta_front_/_Bay"     
4291.5 "6506_12-1" 10.43000 "Sandstone" -999.25 -999.25 100.0000      0.0     0.0 "vc"           "vc"           "Marginal_marine"                   "Delta_front_/_Bay"     
4291.6 "6506_12-1" 10.22000 "Sandstone" -999.25 -999.25 100.0000      0.0     0.0 "vc"           "vc"           "Marginal_marine"                   "Delta_front_/_Bay"     
4291.7 "6506_12-1" 10.01000 "Sandstone" -999.25 -999.25 100.0000      0.0     0.0 "vc"           "vc"           "Marginal_marine"                   "Delta_front_/_Bay"     
4291.8 "6506_12-1"  9.80000 "Sandstone" -999.25 -999.25 100.0000      0.0     0.0 "vc"           "vc"           "Marginal_marine"                   "Delta_front_/_Bay"     
4291.9 "6506_12-1"  9.59000 "Sandstone" -999.25 -999.25 100.0000      0.0     0.0 "vc"           "vc"           "Marginal_marine"                   "Delta_front_/_Bay"     
4292.0 "6506_12-1"  9.57000 "Sandstone" -999.25 -999.25 100.0000      0.0     0.0 "vc"           "vc"           "Marginal_marine"                   "Delta_front_/_Bay"     
4292.1 "6506_12-1"  9.70000 -999.25   -999.25 -999.25  -999.25  -999.25 -999.25 -999.25        -999.25        -999.25                             -999.25                 
4292.2 "6506_12-1"  9.83000 -999.25   -999.25 -999.25  -999.25  -999.25 -999.25 -999.25        -999.25        -999.25                             -999.25                 
4292.3 "6506_12-1" 10.56000 -999.25   -999.25 -999.25  -999.25  -999.25 -999.25 -999.25        -999.25        -999.25                             -999.25                 
4292.4 "6506_12-1" 11.32000 -999.25   -999.25 -999.25  -999.25  -999.25 -999.25 -999.25        -999.25        -999.25                             -999.25                 
4292.5 "6506_12-1" 12.09000 -999.25   -999.25 -999.25  -999.25  -999.25 -999.25 -999.25        -999.25        -999.25                             -999.25                 
4292.6 "6506_12-1" 12.86000 -999.25   -999.25 -999.25  -999.25  -999.25 -999.25 -999.25        -999.25        -999.25                             -999.25                 
4292.7 "6506_12-1" 13.62000 -999.25   -999.25 -999.25  -999.25  -999.25 -999.25 -999.25        -999.25        -999.25                             -999.25                 
4292.8 "6506_12-1" 14.39000 -999.25   -999.25 -999.25  -999.25  -999.25 -999.25 -999.25        -999.25        -999.25                             -999.25                 
4292.9 "6506_12-1" 15.14000 -999.25   -999.25 -999.25  -999.25  -999.25 -999.25 -999.25        -999.25        -999.25                             -999.25                 
4293.0 "6506_12-1" 15.79000 -999.25   -999.25 -999.25  -999.25  -999.25 -999.25 -999.25        -999.25        -999.25                             -999.25                 
4293.1 "6506_12-1" 15.40000 -999.25   -999.25 -999.25  -999.25  -999.25 -999.25 -999.25        -999.25        -999.25                             -999.25                 
4293.2 "6506_12-1" 15.01000 -999.25   -999.25 -999.25  -999.25  -999.25 -999.25 -999.25        -999.25        -999.25                             -999.25                 
4293.3 "6506_12-1" 15.16000 -999.25   -999.25 -999.25  -999.25  -999.25 -999.25 -999.25        -999.25        -999.25                             -999.25                 
4293.4 "6506_12-1" 15.65000 -999.25   -999.25 -999.25  -999.25  -999.25 -999.25 -999.25        -999.25        -999.25                             -999.25                 
4293.5 "6506_12-1" 16.14000 -999.25   -999.25 -999.25  -999.25  -999.25 -999.25 -999.25        -999.25        -999.25                             -999.25                 
4293.6 "6506_12-1" 16.58000 -999.25   -999.25 -999.25  -999.25  -999.25 -999.25 -999.25        -999.25        -999.25                             -999.25                 
4293.7 "6506_12-1" 16.67000 -999.25   -999.25 -999.25  -999.25  -999.25 -999.25 -999.25        -999.25        -999.25                             -999.25                 
4293.8 "6506_12-1" 16.00000 -999.25   -999.25 -999.25  -999.25  -999.25 -999.25 -999.25        -999.25        -999.25                             -999.25                 
4293.9 "6506_12-1" 15.01000 -999.25   -999.25 -999.25  -999.25  -999.25 -999.25 -999.25        -999.25        -999.25                             -999.25                 
4294.0 "6506_12-1" 14.05000 -999.25   -999.25 -999.25  -999.25  -999.25 -999.25 -999.25        -999.25        -999.25                             -999.25                 
