~Version
VERS  .                                 3.0 : CWLS LAS ASCII Standard - Version 3.0
WRAP  . NO                                  : One line per depth step
DLM   . SPACE                               : Column data section delimiter
SOURCE. Converted to LAS by Log Studio 4.76 : GeoProvider

~Well
STRT.         3975.0 : Start depth
STOP.         4598.0 : Stop depth
STEP.              1 : Step
NULL.        -999.25 : No-value
COMP.                : Company
WELL. 6506/12-1      : Well
FLD .                : Field
LOC .                : Location
LATI.                : Latitude
LONG.                : Longitude
GDAT.                : Geodetic datum
CNTY.                : County
STAT.                : State
CTRY.                : Country
SRVC. GeoProvider AS : Service company
DATE.                : Date
API .                : API number
RUN .                : Run number

~Parameters
WellboreName.  : Wellbore name
RigName     .  : Rig name
StartDate   .  : Start date

~Curves
DEPTH.m            .  : null {F}Depth mMD
Hole_ID.-          .  : null {S}Hole ID
GR.API             .  : null {F}Gamma Ray
Lithology1.-       .  : null {S}Lithology 1
Lithology2.-       .  : null {S}Lithology 2
Lithology3.-       .  : null {S}Lithology 3
Lithology1.%       .  : null {F}Lithology 1 percentage
Lithology2.%       .  : null {F}Lithology 2 percentage
Lithology3.%       .  : null {F}Lithology 3 percentage
Grain_size_Top.-   .  : null {S}Grain size at the top 
Grain_size_Base.-  .  : null {S}Grain size at the bottom
Sub_Environment.-  .  : null {S}Sub Environment
Gross_Environment.-.  : null {S}Gross Environment

~Ascii
# ...
4054.9 "6506_12-1" 20.89000 "Sandstone" "Shale" -999.25  97.0000  3.00000     0.0 "c"            "vc"           "Fluvial-dominated_estuary"         "Prograding_delta_front"
4055.0 "6506_12-1" 21.38000 "Sandstone" "Shale" -999.25  97.0000  3.00000     0.0 "c"            "vc"           "Fluvial-dominated_estuary"         "Prograding_delta_front"
4055.1 "6506_12-1" 21.67000 "Sandstone" "Shale" -999.25  97.0000  3.00000     0.0 "c"            "vc"           "Fluvial-dominated_estuary"         "Prograding_delta_front"
4055.2 "6506_12-1" 21.25000 "Sandstone" "Shale" -999.25  97.0000  3.00000     0.0 "c"            "vc"           "Fluvial-dominated_estuary"         "Prograding_delta_front"
4055.3 "6506_12-1" 20.08000 "Sandstone" "Shale" -999.25  97.0000  3.00000     0.0 "c"            "vc"           "Fluvial-dominated_estuary"         "Prograding_delta_front"
4055.4 "6506_12-1" 18.92000 "Sandstone" "Shale" -999.25  97.0000  3.00000     0.0 "c"            "vc"           "Fluvial-dominated_estuary"         "Prograding_delta_front"
4055.5 "6506_12-1" 15.71000 "Sandstone" "Shale" -999.25  97.0000  3.00000     0.0 "c"            "vc"           "Fluvial-dominated_estuary"         "Prograding_delta_front"
4055.6 "6506_12-1" 13.39000 "Sandstone" "Shale" -999.25  97.0000  3.00000     0.0 "c"            "vc"           "Fluvial-dominated_estuary"         "Prograding_delta_front"
4055.7 "6506_12-1" 12.58000 "Sandstone" "Shale" -999.25  97.0000  3.00000     0.0 "c"            "vc"           "Fluvial-dominated_estuary"         "Prograding_delta_front"
4055.8 "6506_12-1" 12.17000 "Sandstone" "Shale" -999.25  97.0000  3.00000     0.0 "c"            "vc"           "Fluvial-dominated_estuary"         "Prograding_delta_front"
4055.9 "6506_12-1" 11.99000 "Sandstone" "Shale" -999.25  97.0000  3.00000     0.0 "c"            "vc"           "Fluvial-dominated_estuary"         "Prograding_delta_front"
4056.0 "6506_12-1" 11.56000 "Sandstone" "Shale" -999.25  97.0000  3.00000     0.0 "c"            "vc"           "Fluvial-dominated_estuary"         "Prograding_delta_front"
4056.1 "6506_12-1" 11.07000 "Sandstone" "Shale" -999.25  97.0000  3.00000     0.0 "c"            "vc"           "Fluvial-dominated_estuary"         "Prograding_delta_front"
4056.2 "6506_12-1" 11.04000 "Sandstone" "Shale" -999.25  97.0000  3.00000     0.0 "c"            "vc"           "Fluvial-dominated_estuary"         "Prograding_delta_front"
4056.3 "6506_12-1" 11.24000 "Sandstone" "Shale" -999.25  97.0000  3.00000     0.0 "c"            "vc"           "Fluvial-dominated_estuary"         "Prograding_delta_front"
4056.4 "6506_12-1" 11.43000 "Sandstone" "Shale" -999.25  97.0000  3.00000     0.0 "c"            "vc"           "Fluvial-dominated_estuary"         "Prograding_delta_front"
4056.5 "6506_12-1" 11.62000 "Sandstone" "Shale" -999.25  97.0000  3.00000     0.0 "c"            "vc"           "Fluvial-dominated_estuary"         "Prograding_delta_front"
4056.6 "6506_12-1" 11.55000 "Sandstone" "Shale" -999.25  97.0000  3.00000     0.0 "c"            "vc"           "Fluvial-dominated_estuary"         "Prograding_delta_front"
4056.7 "6506_12-1" 11.10000 "Sandstone" "Shale" -999.25  97.0000  3.00000     0.0 "c"            "vc"           "Fluvial-dominated_estuary"         "Prograding_delta_front"
4056.8 "6506_12-1" 10.65000 "Sandstone" "Shale" -999.25  97.0000  3.00000     0.0 "c"            "vc"           "Fluvial-dominated_estuary"         "Prograding_delta_front"
4056.9 "6506_12-1" 10.20000 "Sandstone" "Shale" -999.25  97.0000  3.00000     0.0 "c"            "vc"           "Fluvial-dominated_estuary"         "Prograding_delta_front"
4057.0 "6506_12-1"  9.77000 "Sandstone" "Shale" -999.25  97.0000  3.00000     0.0 "c"            "vc"           "Fluvial-dominated_estuary"         "Prograding_delta_front"
4057.1 "6506_12-1"  9.74000 "Sandstone" "Shale" -999.25  97.0000  3.00000     0.0 "c"            "vc"           "Fluvial-dominated_estuary"         "Prograding_delta_front"
4057.2 "6506_12-1"  9.71000 "Sandstone" "Shale" -999.25  97.0000  3.00000     0.0 "c"            "vc"           "Fluvial-dominated_estuary"         "Prograding_delta_front"
4057.3 "6506_12-1"  9.72000 "Sandstone" "Shale" -999.25  97.0000  3.00000     0.0 "c"            "vc"           "Fluvial-dominated_estuary"         "Prograding_delta_front"
4057.4 "6506_12-1"  9.76000 "Sandstone" "Shale" -999.25  97.0000  3.00000     0.0 "c"            "vc"           "Fluvial-dominated_estuary"         "Prograding_delta_front"
4057.5 "6506_12-1"  9.80000 "Sandstone" "Shale" -999.25  97.0000  3.00000     0.0 "c"            "vc"           "Fluvial-dominated_estuary"         "Prograding_delta_front"
4057.6 "6506_12-1"  9.82000 "Sandstone" "Shale" -999.25  97.0000  3.00000     0.0 "c"            "vc"           "Fluvial-dominated_estuary"         "Prograding_delta_front"
4057.7 "6506_12-1"  9.70000 "Sandstone" "Shale" -999.25  97.0000  3.00000     0.0 "c"            "vc"           "Fluvial-dominated_estuary"         "Prograding_delta_front"
4057.8 "6506_12-1"  9.58000 "Sandstone" "Shale" -999.25  97.0000  3.00000     0.0 "c"            "vc"           "Fluvial-dominated_estuary"         "Prograding_delta_front"
4057.9 "6506_12-1"  9.66000 "Sandstone" "Shale" -999.25  97.0000  3.00000     0.0 "c"            "vc"           "Fluvial-dominated_estuary"         "Prograding_delta_front"
4058.0 "6506_12-1"  9.77000 "Sandstone" "Shale" -999.25  97.0000  3.00000     0.0 "c"            "vc"           "Fluvial-dominated_estuary"         "Prograding_delta_front"
4058.1 "6506_12-1"  9.88000 "Sandstone" "Shale" -999.25  97.0000  3.00000     0.0 "c"            "vc"           "Fluvial-dominated_estuary"         "Prograding_delta_front"
4058.2 "6506_12-1" 10.43000 "Sandstone" "Shale" -999.25  97.0000  3.00000     0.0 "c"            "vc"           "Fluvial-dominated_estuary"         "Prograding_delta_front"
4058.3 "6506_12-1" 11.05000 "Sandstone" "Shale" -999.25  97.0000  3.00000     0.0 "c"            "vc"           "Fluvial-dominated_estuary"         "Prograding_delta_front"
4058.4 "6506_12-1" 11.67000 "Sandstone" "Shale" -999.25  97.0000  3.00000     0.0 "c"            "vc"           "Fluvial-dominated_estuary"         "Prograding_delta_front"
4058.5 "6506_12-1" 12.30000 "Sandstone" "Shale" -999.25  97.0000  3.00000     0.0 "c"            "vc"           "Fluvial-dominated_estuary"         "Prograding_delta_front"
4058.6 "6506_12-1" 12.92000 "Sandstone" "Shale" -999.25  97.0000  3.00000     0.0 "c"            "vc"           "Fluvial-dominated_estuary"         "Prograding_delta_front"
4058.7 "6506_12-1" 12.93000 "Sandstone" "Shale" -999.25  97.0000  3.00000     0.0 "c"            "vc"           "Fluvial-dominated_estuary"         "Prograding_delta_front"
4058.8 "6506_12-1" 12.90000 "Sandstone" "Shale" -999.25  97.0000  3.00000     0.0 "c"            "vc"           "Fluvial-dominated_estuary"         "Prograding_delta_front"
4058.9 "6506_12-1" 12.36000 "Sandstone" "Shale" -999.25  96.0000  4.00000     0.0 "c"            "m/c"          "Fluvial-dominated_estuary"         "Prograding_delta_front"
4059.0 "6506_12-1" 11.72000 "Sandstone" "Shale" -999.25  96.0000  4.00000     0.0 "c"            "m/c"          "Fluvial-dominated_estuary"         "Prograding_delta_front"
4059.1 "6506_12-1" 11.69000 "Sandstone" "Shale" -999.25  96.0000  4.00000     0.0 "c"            "m/c"          "Fluvial-dominated_estuary"         "Prograding_delta_front"
4059.2 "6506_12-1" 11.71000 "Sandstone" "Shale" -999.25  96.0000  4.00000     0.0 "c"            "m/c"          "Fluvial-dominated_estuary"         "Prograding_delta_front"
4059.3 "6506_12-1" 11.74000 "Sandstone" "Shale" -999.25  96.0000  4.00000     0.0 "c"            "m/c"          "Fluvial-dominated_estuary"         "Prograding_delta_front"
4059.4 "6506_12-1" 11.76000 "Sandstone" "Shale" -999.25  96.0000  4.00000     0.0 "c"            "m/c"          "Fluvial-dominated_estuary"         "Prograding_delta_front"
4059.5 "6506_12-1" 11.78000 "Sandstone" "Shale" -999.25  96.0000  4.00000     0.0 "c"            "m/c"          "Fluvial-dominated_estuary"         "Prograding_delta_front"
