~Version
VERS  .                                 3.0 : CWLS LAS ASCII Standard - Version 3.0
WRAP  . NO                                  : One line per depth step
DLM   . SPACE                               : Column data section delimiter
SOURCE. Converted to LAS by Log Studio 4.76 : GeoProvider

~Well
STRT.         3975.0 : Start depth
STOP.         4598.0 : Stop depth
STEP.              1 : Step
NULL.        -999.25 : No-value
COMP.                : Company
WELL. 6506/12-1      : Well
FLD .                : Field
LOC .                : Location
LATI.                : Latitude
LONG.                : Longitude
GDAT.                : Geodetic datum
CNTY.                : County
STAT.                : State
CTRY.                : Country
SRVC. GeoProvider AS : Service company
DATE.                : Date
API .                : API number
RUN .                : Run number

~Parameters
WellboreName.  : Wellbore name
RigName     .  : Rig name
StartDate   .  : Start date

~Curves
DEPTH.m            .  : null {F}Depth mMD
Hole_ID.-          .  : null {S}Hole ID
GR.API             .  : null {F}Gamma Ray
Lithology1.-       .  : null {S}Lithology 1
Lithology2.-       .  : null {S}Lithology 2
Lithology3.-       .  : null {S}Lithology 3
Lithology1.%       .  : null {F}Lithology 1 percentage
Lithology2.%       .  : null {F}Lithology 2 percentage
Lithology3.%       .  : null {F}Lithology 3 percentage
Grain_size_Top.-   .  : null {S}Grain size at the top 
Grain_size_Base.-  .  : null {S}Grain size at the bottom
Sub_Environment.-  .  : null {S}Sub Environment
Gross_Environment.-.  : null {S}Gross Environment

~Ascii
3975.0 "6506_12-1" 16.69000 "Sandstone" -999.25 -999.25 100.0000      0.0     0.0 "c"            "c"            "Lower_beach_slope"                 "Proximal_delta_front"  
3975.1 "6506_12-1" 14.23000 "Sandstone" -999.25 -999.25 100.0000      0.0     0.0 "c"            "c"            "Lower_beach_slope"                 "Proximal_delta_front"  
3975.2 "6506_12-1" 11.70000 "Sandstone" -999.25 -999.25 100.0000      0.0     0.0 "c"            "c"            "Lower_beach_slope"                 "Proximal_delta_front"  
3975.3 "6506_12-1" 10.05000 "Sandstone" -999.25 -999.25 100.0000      0.0     0.0 "c"            "c"            "Lower_beach_slope"                 "Proximal_delta_front"  
3975.4 "6506_12-1"  9.76000 "Sandstone" -999.25 -999.25 100.0000      0.0     0.0 "c"            "c"            "Lower_beach_slope"                 "Proximal_delta_front"  
3975.5 "6506_12-1" 11.12000 "Sandstone" -999.25 -999.25 100.0000      0.0     0.0 "c"            "c"            "Lower_beach_slope"                 "Proximal_delta_front"  
3975.6 "6506_12-1" 12.00000 "Sandstone" -999.25 -999.25 100.0000      0.0     0.0 "c"            "c"            "Lower_beach_slope"                 "Proximal_delta_front"  
3975.7 "6506_12-1" 11.68000 "Sandstone" -999.25 -999.25 100.0000      0.0     0.0 "c"            "c"            "Lower_beach_slope"                 "Proximal_delta_front"  
3975.8 "6506_12-1" 11.08000 "Sandstone" -999.25 -999.25 100.0000      0.0     0.0 "c"            "c"            "Lower_beach_slope"                 "Proximal_delta_front"  
3975.9 "6506_12-1" 10.48000 "Sandstone" -999.25 -999.25 100.0000      0.0     0.0 "c"            "c"            "Lower_beach_slope"                 "Proximal_delta_front"  
3976.0 "6506_12-1"  9.58000 "Sandstone" -999.25 -999.25 100.0000      0.0     0.0 "c"            "c"            "Lower_beach_slope"                 "Proximal_delta_front"  
3976.1 "6506_12-1"  8.37000 "Sandstone" -999.25 -999.25 100.0000      0.0     0.0 "c"            "c"            "Lower_beach_slope"                 "Proximal_delta_front"  
3976.2 "6506_12-1"  7.17000 "Sandstone" -999.25 -999.25 100.0000      0.0     0.0 "c"            "c"            "Lower_beach_slope"                 "Proximal_delta_front"  
3976.3 "6506_12-1"  7.24000 "Sandstone" -999.25 -999.25 100.0000      0.0     0.0 "c"            "c"            "Lower_beach_slope"                 "Proximal_delta_front"  
3976.4 "6506_12-1"  7.32000 "Sandstone" -999.25 -999.25 100.0000      0.0     0.0 "c"            "c"            "Lower_beach_slope"                 "Proximal_delta_front"  
3976.5 "6506_12-1"  7.40000 "Sandstone" -999.25 -999.25 100.0000      0.0     0.0 "c"            "c"            "Lower_beach_slope"                 "Proximal_delta_front"  
3976.6 "6506_12-1"  7.48000 "Sandstone" -999.25 -999.25 100.0000      0.0     0.0 "c"            "c"            "Lower_beach_slope"                 "Proximal_delta_front"  
3976.7 "6506_12-1"  7.08000 "Sandstone" -999.25 -999.25 100.0000      0.0     0.0 "c"            "c"            "Lower_beach_slope"                 "Proximal_delta_front"  
3976.8 "6506_12-1"  6.61000 "Sandstone" -999.25 -999.25 100.0000      0.0     0.0 "c"            "c"            "Lower_beach_slope"                 "Proximal_delta_front"  
3976.9 "6506_12-1"  6.49000 "Sandstone" -999.25 -999.25 100.0000      0.0     0.0 "c"            "c"            "Lower_beach_slope"                 "Proximal_delta_front"  
3977.0 "6506_12-1"  6.98000 "Sandstone" -999.25 -999.25 100.0000      0.0     0.0 "c"            "c"            "Lower_beach_slope"                 "Proximal_delta_front"  
3977.1 "6506_12-1"  7.47000 "Sandstone" -999.25 -999.25 100.0000      0.0     0.0 "c"            "c"            "Lower_beach_slope"                 "Proximal_delta_front"  
3977.2 "6506_12-1"  7.96000 "Sandstone" -999.25 -999.25 100.0000      0.0     0.0 "c"            "c"            "Lower_beach_slope"                 "Proximal_delta_front"  
3977.3 "6506_12-1"  8.45000 "Sandstone" -999.25 -999.25 100.0000      0.0     0.0 "c"            "c"            "Lower_beach_slope"                 "Proximal_delta_front"  
3977.4 "6506_12-1"  9.00000 "Sandstone" -999.25 -999.25 100.0000      0.0     0.0 "c"            "c"            "Lower_beach_slope"                 "Proximal_delta_front"  
3977.5 "6506_12-1"  9.92000 "Sandstone" -999.25 -999.25 100.0000      0.0     0.0 "c"            "c"            "Lower_beach_slope"                 "Proximal_delta_front"  
3977.6 "6506_12-1" 10.84000 "Sandstone" -999.25 -999.25 100.0000      0.0     0.0 "c"            "c"            "Lower_beach_slope"                 "Proximal_delta_front"  
3977.7 "6506_12-1" 11.16000 "Sandstone" -999.25 -999.25 100.0000      0.0     0.0 "c"            "c"            "Lower_beach_slope"                 "Proximal_delta_front"  
3977.8 "6506_12-1" 11.42000 "Sandstone" -999.25 -999.25 100.0000      0.0     0.0 "c"            "c"            "Lower_beach_slope"                 "Proximal_delta_front"  
3977.9 "6506_12-1" 11.68000 "Sandstone" -999.25 -999.25 100.0000      0.0     0.0 "c"            "c"            "Lower_beach_slope"                 "Proximal_delta_front"  
3978.0 "6506_12-1" 11.97000 "Sandstone" -999.25 -999.25 100.0000      0.0     0.0 "c"            "c"            "Lower_beach_slope"                 "Proximal_delta_front"  
3978.1 "6506_12-1" 12.29000 "Sandstone" -999.25 -999.25 100.0000      0.0     0.0 "c"            "c"            "Lower_beach_slope"                 "Proximal_delta_front"  
3978.2 "6506_12-1" 12.61000 "Sandstone" -999.25 -999.25 100.0000      0.0     0.0 "c"            "c"            "Lower_beach_slope"                 "Proximal_delta_front"  
3978.3 "6506_12-1" 12.93000 "Sandstone" -999.25 -999.25 100.0000      0.0     0.0 "c"            "c"            "Lower_beach_slope"                 "Proximal_delta_front"  
3978.4 "6506_12-1" 13.25000 "Sandstone" -999.25 -999.25 100.0000      0.0     0.0 "c"            "c"            "Lower_beach_slope"                 "Proximal_delta_front"  
3978.5 "6506_12-1" 13.06000 "Sandstone" -999.25 -999.25 100.0000      0.0     0.0 "c"            "c"            "Lower_beach_slope"                 "Proximal_delta_front"  
3978.6 "6506_12-1" 12.82000 "Sandstone" -999.25 -999.25 100.0000      0.0     0.0 "c"            "c"            "Lower_beach_slope"                 "Proximal_delta_front"  
3978.7 "6506_12-1" 12.58000 "Sandstone" -999.25 -999.25 100.0000      0.0     0.0 "c"            "c"            "Lower_beach_slope"                 "Proximal_delta_front"  
3978.8 "6506_12-1" 12.34000 "Sandstone" -999.25 -999.25 100.0000      0.0     0.0 "c"            "c"            "Lower_beach_slope"                 "Proximal_delta_front"  
3978.9 "6506_12-1" 12.21000 "Sandstone" -999.25 -999.25 100.0000      0.0     0.0 "c"            "c"            "Lower_beach_slope"                 "Proximal_delta_front"  
3979.0 "6506_12-1" 12.33000 "Sandstone" -999.25 -999.25 100.0000      0.0     0.0 "c"            "c"            "Lower_beach_slope"                 "Proximal_delta_front"  
3979.1 "6506_12-1" 12.63000 "Sandstone" -999.25 -999.25 100.0000      0.0     0.0 "c"            "c"            "Lower_beach_slope"                 "Proximal_delta_front"  
3979.2 "6506_12-1" 12.94000 "Sandstone" -999.25 -999.25 100.0000      0.0     0.0 "c"            "c"            "Lower_beach_slope"                 "Proximal_delta_front"  
3979.3 "6506_12-1" 13.25000 "Sandstone" -999.25 -999.25 100.0000      0.0     0.0 "c"            "c"            "Lower_beach_slope"                 "Proximal_delta_front"  
3979.4 "6506_12-1" 13.55000 "Sandstone" -999.25 -999.25 100.0000      0.0     0.0 "c"            "c"            "Lower_beach_slope"                 "Proximal_delta_front"  
3979.5 "6506_12-1" 13.79000 "Sandstone" -999.25 -999.25 100.0000      0.0     0.0 "c"            "c"            "Lower_beach_slope"                 "Proximal_delta_front"  
3979.6 "6506_12-1" 13.57000 "Sandstone" -999.25 -999.25 100.0000      0.0     0.0 "c"            "c"            "Lower_beach_slope"                 "Proximal_delta_front"  
