~Version
VERS  .                                 3.0 : CWLS LAS ASCII Standard - Version 3.0
WRAP  . NO                                  : One line per depth step
DLM   . SPACE                               : Column data section delimiter
SOURCE. Converted to LAS by Log Studio 4.76 : GeoProvider

~Well
STRT.         3975.0 : Start depth
STOP.         4598.0 : Stop depth
STEP.              1 : Step
NULL.        -999.25 : No-value
COMP.                : Company
WELL. 6506/12-1      : Well
FLD .                : Field
LOC .                : Location
LATI.                : Latitude
LONG.                : Longitude
GDAT.                : Geodetic datum
CNTY.                : County
STAT.                : State
CTRY.                : Country
SRVC. GeoProvider AS : Service company
DATE.                : Date
API .                : API number
RUN .                : Run number

~Parameters
WellboreName.  : Wellbore name
RigName     .  : Rig name
StartDate   .  : Start date

~Curves
DEPTH.m            .  : null {F}Depth mMD
Hole_ID.-          .  : null {S}Hole ID
GR.API             .  : null {F}Gamma Ray
Lithology1.-       .  : null {S}Lithology 1
Lithology2.-       .  : null {S}Lithology 2
Lithology3.-       .  : null {S}Lithology 3
Lithology1.%       .  : null {F}Lithology 1 percentage
Lithology2.%       .  : null {F}Lithology 2 percentage
Lithology3.%       .  : null {F}Lithology 3 percentage
Grain_size_Top.-   .  : null {S}Grain size at the top 
Grain_size_Base.-  .  : null {S}Grain size at the bottom
Sub_Environment.-  .  : null {S}Sub Environment
Gross_Environment.-.  : null {S}Gross Environment

~Ascii
# ...
4134.8 "6506_12-1" 15.95000 "Sandstone" "Shale" -999.25  55.0000 45.00000     0.0 "vf"           "f/m"          "Lower_beach_slope"                 "Prograding_delta_front"
4134.9 "6506_12-1" 16.76000 "Sandstone" "Shale" -999.25  55.0000 45.00000     0.0 "vf"           "f/m"          "Lower_beach_slope"                 "Prograding_delta_front"
4135.0 "6506_12-1" 17.56000 "Sandstone" "Shale" -999.25  55.0000 45.00000     0.0 "vf"           "f/m"          "Lower_beach_slope"                 "Prograding_delta_front"
4135.1 "6506_12-1" 18.37000 "Sandstone" "Shale" -999.25  55.0000 45.00000     0.0 "vf"           "f/m"          "Open_marine"                       "Prograding_delta_front"
4135.2 "6506_12-1" 19.17000 "Sandstone" "Shale" -999.25  55.0000 45.00000     0.0 "vf"           "f/m"          "Open_marine"                       "Prograding_delta_front"
4135.3 "6506_12-1" 19.97000 "Sandstone" "Shale" -999.25  55.0000 45.00000     0.0 "vf"           "f/m"          "Open_marine"                       "Prograding_delta_front"
4135.4 "6506_12-1" 20.78000 "Sandstone" "Shale" -999.25  55.0000 45.00000     0.0 "vf"           "f/m"          "Open_marine"                       "Prograding_delta_front"
4135.5 "6506_12-1" 21.69000 "Sandstone" "Shale" -999.25  55.0000 45.00000     0.0 "vf"           "f/m"          "Open_marine"                       "Prograding_delta_front"
4135.6 "6506_12-1" 21.22000 "Sandstone" "Shale" -999.25  55.0000 45.00000     0.0 "vf"           "f/m"          "Open_marine"                       "Prograding_delta_front"
4135.7 "6506_12-1" 20.68000 "Sandstone" "Shale" -999.25  55.0000 45.00000     0.0 "vf"           "f/m"          "Open_marine"                       "Prograding_delta_front"
4135.8 "6506_12-1" 19.86000 "Sandstone" "Shale" -999.25  55.0000 45.00000     0.0 "vf"           "f/m"          "Open_marine"                       "Prograding_delta_front"
4135.9 "6506_12-1" 18.92000 "Sandstone" "Shale" -999.25  55.0000 45.00000     0.0 "vf"           "f/m"          "Open_marine"                       "Prograding_delta_front"
4136.0 "6506_12-1" 18.14000 "Sandstone" "Shale" -999.25  55.0000 45.00000     0.0 "vf"           "f/m"          "Open_marine"                       "Prograding_delta_front"
4136.1 "6506_12-1" 18.18000 "Sandstone" "Shale" -999.25  55.0000 45.00000     0.0 "vf"           "f/m"          "Open_marine"                       "Prograding_delta_front"
4136.2 "6506_12-1" 18.70000 "Sandstone" "Shale" -999.25  55.0000 45.00000     0.0 "vf"           "f/m"          "Open_marine"                       "Prograding_delta_front"
4136.3 "6506_12-1" 19.23000 "Sandstone" "Shale" -999.25  55.0000 45.00000     0.0 "vf"           "f/m"          "Open_marine"                       "Prograding_delta_front"
4136.4 "6506_12-1" 19.50000 "Sandstone" "Shale" -999.25  55.0000 45.00000     0.0 "vf"           "f/m"          "Open_marine"                       "Prograding_delta_front"
4136.5 "6506_12-1" 19.36000 "Sandstone" "Shale" -999.25  55.0000 45.00000     0.0 "vf"           "f/m"          "Open_marine"                       "Prograding_delta_front"
4136.6 "6506_12-1" 18.93000 "Sandstone" "Shale" -999.25  55.0000 45.00000     0.0 "vf"           "f/m"          "Open_marine"                       "Prograding_delta_front"
4136.7 "6506_12-1" 18.15000 "Sandstone" "Shale" -999.25  55.0000 45.00000     0.0 "vf"           "f/m"          "Open_marine"                       "Prograding_delta_front"
4136.8 "6506_12-1" 17.79000 "Sandstone" "Shale" -999.25  55.0000 45.00000     0.0 "vf"           "f/m"          "Open_marine"                       "Prograding_delta_front"
4136.9 "6506_12-1" 18.17000 "Sandstone" "Shale" -999.25  55.0000 45.00000     0.0 "vf"           "f/m"          "Open_marine"                       "Prograding_delta_front"
4137.0 "6506_12-1" 19.41000 "Sandstone" "Shale" -999.25  55.0000 45.00000     0.0 "vf"           "f/m"          "Open_marine"                       "Prograding_delta_front"
4137.1 "6506_12-1" 19.91000 "Sandstone" "Shale" -999.25  55.0000 45.00000     0.0 "vf"           "f/m"          "Open_marine"                       "Prograding_delta_front"
4137.2 "6506_12-1" 19.82000 "Sandstone" "Shale" -999.25  55.0000 45.00000     0.0 "vf"           "f/m"          "Open_marine"                       "Prograding_delta_front"
4137.3 "6506_12-1" 19.53000 "Sandstone" "Shale" -999.25  55.0000 45.00000     0.0 "vf"           "f/m"          "Open_marine"                       "Prograding_delta_front"
4137.4 "6506_12-1" 18.74000 "Sandstone" "Shale" -999.25  55.0000 45.00000     0.0 "vf"           "f/m"          "Open_marine"                       "Prograding_delta_front"
4137.5 "6506_12-1" 17.94000 "Sandstone" "Shale" -999.25  55.0000 45.00000     0.0 "vf"           "f/m"          "Open_marine"                       "Prograding_delta_front"
4137.6 "6506_12-1" 17.19000 "Sandstone" "Shale" -999.25  55.0000 45.00000     0.0 "vf"           "f/m"          "Open_marine"                       "Prograding_delta_front"
4137.7 "6506_12-1" 16.78000 "Sandstone" "Shale" -999.25  55.0000 45.00000     0.0 "vf"           "f/m"          "Open_marine"                       "Prograding_delta_front"
4137.8 "6506_12-1" 16.38000 "Sandstone" "Shale" -999.25  55.0000 45.00000     0.0 "vf"           "f/m"          "Open_marine"                       "Prograding_delta_front"
4137.9 "6506_12-1" 15.97000 "Sandstone" "Shale" -999.25  55.0000 45.00000     0.0 "vf"           "f/m"          "Open_marine"                       "Prograding_delta_front"
4138.0 "6506_12-1" 15.34000 "Sandstone" "Shale" -999.25  55.0000 45.00000     0.0 "vf"           "f/m"          "Open_marine"                       "Prograding_delta_front"
4138.1 "6506_12-1" 14.57000 "Sandstone" "Shale" -999.25  55.0000 45.00000     0.0 "vf"           "f/m"          "Open_marine"                       "Prograding_delta_front"
4138.2 "6506_12-1" 13.81000 "Sandstone" "Shale" -999.25  55.0000 45.00000     0.0 "vf"           "f/m"          "Open_marine"                       "Prograding_delta_front"
4138.3 "6506_12-1" 13.05000 "Sandstone" "Shale" -999.25  55.0000 45.00000     0.0 "vf"           "f/m"          "Open_marine"                       "Prograding_delta_front"
4138.4 "6506_12-1" 12.29000 "Sandstone" "Shale" -999.25  55.0000 45.00000     0.0 "vf"           "f/m"          "Open_marine"                       "Prograding_delta_front"
4138.5 "6506_12-1" 11.81000 "Sandstone" "Shale" -999.25  55.0000 45.00000     0.0 "vf"           "f/m"          "Open_marine"                       "Prograding_delta_front"
4138.6 "6506_12-1" 12.11000 "Sandstone" "Shale" -999.25  55.0000 45.00000     0.0 "vf"           "f/m"          "Open_marine"                       "Prograding_delta_front"
4138.7 "6506_12-1" 12.75000 "Sandstone" "Shale" -999.25  55.0000 45.00000     0.0 "vf"           "f/m"          "Open_marine"                       "Prograding_delta_front"
4138.8 "6506_12-1" 13.39000 "Sandstone" "Shale" -999.25  55.0000 45.00000     0.0 "vf"           "f/m"          "Open_marine"                       "Prograding_delta_front"
4138.9 "6506_12-1" 14.03000 "Sandstone" "Shale" -999.25  55.0000 45.00000     0.0 "vf"           "f/m"          "Open_marine"                       "Prograding_delta_front"
4139.0 "6506_12-1" 14.85000 "Sandstone" "Shale" -999.25  55.0000 45.00000     0.0 "vf"           "f/m"          "Open_marine"                       "Prograding_delta_front"
4139.1 "6506_12-1" 15.75000 "Sandstone" "Shale" -999.25  55.0000 45.00000     0.0 "vf"           "f/m"          "Open_marine"                       "Prograding_delta_front"
4139.2 "6506_12-1" 16.66000 "Sandstone" "Shale" -999.25  55.0000 45.00000     0.0 "vf"           "f/m"          "Open_marine"                       "Prograding_delta_front"
4139.3 "6506_12-1" 17.57000 "Sandstone" "Shale" -999.25  55.0000 45.00000     0.0 "vf"           "f/m"          "Open_marine"                       "Prograding_delta_front"
4139.4 "6506_12-1" 18.47000 "Sandstone" "Shale" -999.25  55.0000 45.00000     0.0 "vf"           "f/m"          "Open_marine"                       "Prograding_delta_front"
