~Version
VERS  .                                 3.0 : CWLS LAS ASCII Standard - Version 3.0
WRAP  . NO                                  : One line per depth step
DLM   . SPACE                               : Column data section delimiter
SOURCE. Converted to LAS by Log Studio 4.76 : GeoProvider

~Well
STRT.         3975.0 : Start depth
STOP.         4598.0 : Stop depth
STEP.              1 : Step
NULL.        -999.25 : No-value
COMP.                : Company
WELL. 6506/12-1      : Well
FLD .                : Field
LOC .                : Location
LATI.                : Latitude
LONG.                : Longitude
GDAT.                : Geodetic datum
CNTY.                : County
STAT.                : State
CTRY.                : Country
SRVC. GeoProvider AS : Service company
DATE.                : Date
API .                : API number
RUN .                : Run number

~Parameters
WellboreName.  : Wellbore name
RigName     .  : Rig name
StartDate   .  : Start date

~Curves
DEPTH.m            .  : null {F}Depth mMD
Hole_ID.-          .  : null {S}Hole ID
GR.API             .  : null {F}Gamma Ray
Lithology1.-       .  : null {S}Lithology 1
Lithology2.-       .  : null {S}Lithology 2
Lithology3.-       .  : null {S}Lithology 3
Lithology1.%       .  : null {F}Lithology 1 percentage
Lithology2.%       .  : null {F}Lithology 2 percentage
Lithology3.%       .  : null {F}Lithology 3 percentage
Grain_size_Top.-   .  : null {S}Grain size at the top 
Grain_size_Base.-  .  : null {S}Grain size at the bottom
Sub_Environment.-  .  : null {S}Sub Environment
Gross_Environment.-.  : null {S}Gross Environment

~Ascii
# ...
4036.1 "6506_12-1" 43.62000 "Sandstone" "Shale" -999.25  40.0000 60.00000     0.0 "vf"           "m/c"          "Open_marine"                       "Distal_delta_front"    
4036.2 "6506_12-1" 43.13000 "Sandstone" "Shale" -999.25  40.0000 60.00000     0.0 "vf"           "m/c"          "Open_marine"                       "Distal_delta_front"    
4036.3 "6506_12-1" 41.34000 "Sandstone" "Shale" -999.25  40.0000 60.00000     0.0 "vf"           "m/c"          "Open_marine"                       "Distal_delta_front"    
4036.4 "6506_12-1" 39.18000 "Sandstone" "Shale" -999.25  40.0000 60.00000     0.0 "vf"           "m/c"          "Open_marine"                       "Distal_delta_front"    
4036.5 "6506_12-1" 37.01000 "Sandstone" "Shale" -999.25  40.0000 60.00000     0.0 "vf"           "m/c"          "Open_marine"                       "Distal_delta_front"    
4036.6 "6506_12-1" 34.85000 "Sandstone" -999.25 -999.25 100.0000      0.0     0.0 "c"            "c"            "Open_marine"                       "Distal_delta_front"    
4036.7 "6506_12-1" 32.68000 "Sandstone" "Shale" -999.25  30.0000 70.00000     0.0 "f"            "vf"           "Open_marine"                       "Distal_delta_front"    
4036.8 "6506_12-1" 30.52000 "Sandstone" "Shale" -999.25  30.0000 70.00000     0.0 "f"            "vf"           "Open_marine"                       "Distal_delta_front"    
4036.9 "6506_12-1" 29.47000 "Sandstone" "Shale" -999.25  30.0000 70.00000     0.0 "f"            "vf"           "Open_marine"                       "Distal_delta_front"    
4037.0 "6506_12-1" 30.28000 "Sandstone" "Shale" -999.25  30.0000 70.00000     0.0 "f"            "vf"           "Open_marine"                       "Distal_delta_front"    
4037.1 "6506_12-1" 31.09000 "Sandstone" "Shale" -999.25  30.0000 70.00000     0.0 "f"            "vf"           "Open_marine"                       "Distal_delta_front"    
4037.2 "6506_12-1" 31.83000 "Sandstone" "Shale" -999.25  30.0000 70.00000     0.0 "f"            "vf"           "Open_marine"                       "Distal_delta_front"    
4037.3 "6506_12-1" 32.41000 "Sandstone" "Shale" -999.25  30.0000 70.00000     0.0 "f"            "vf"           "Open_marine"                       "Distal_delta_front"    
4037.4 "6506_12-1" 32.99000 "Sandstone" "Shale" -999.25  30.0000 70.00000     0.0 "f"            "vf"           "Open_marine"                       "Distal_delta_front"    
4037.5 "6506_12-1" 33.56000 "Sandstone" "Shale" -999.25  30.0000 70.00000     0.0 "f"            "vf"           "Open_marine"                       "Distal_delta_front"    
4037.6 "6506_12-1" 33.20000 "Sandstone" "Shale" -999.25  30.0000 70.00000     0.0 "f"            "vf"           "Open_marine"                       "Distal_delta_front"    
4037.7 "6506_12-1" 32.84000 "Sandstone" "Shale" -999.25  30.0000 70.00000     0.0 "f"            "vf"           "Open_marine"                       "Distal_delta_front"    
4037.8 "6506_12-1" 32.49000 "Sandstone" "Shale" -999.25  30.0000 70.00000     0.0 "f"            "vf"           "Open_marine"                       "Distal_delta_front"    
4037.9 "6506_12-1" 32.62000 "Sandstone" "Shale" -999.25  30.0000 70.00000     0.0 "f"            "vf"           "Open_marine"                       "Distal_delta_front"    
4038.0 "6506_12-1" 32.96000 "Sandstone" "Shale" -999.25  30.0000 70.00000     0.0 "f"            "vf"           "Open_marine"                       "Distal_delta_front"    
4038.1 "6506_12-1" 33.30000 "Sandstone" "Shale" -999.25  30.0000 70.00000     0.0 "f"            "vf"           "Avgrenset_marine_basin"            "Distal_delta_front"    
4038.2 "6506_12-1" 33.64000 "Sandstone" "Shale" -999.25  30.0000 70.00000     0.0 "f"            "vf"           "Avgrenset_marine_basin"            "Distal_delta_front"    
4038.3 "6506_12-1" 33.86000 "Sandstone" "Shale" -999.25  30.0000 70.00000     0.0 "f"            "vf"           "Avgrenset_marine_basin"            "Distal_delta_front"    
4038.4 "6506_12-1" 33.77000 "Sandstone" "Shale" -999.25  85.0000 15.00000     0.0 "f"            "vc"           "Avgrenset_marine_basin"            "Distal_delta_front"    
4038.5 "6506_12-1" 33.69000 "Sandstone" "Shale" -999.25  85.0000 15.00000     0.0 "f"            "vc"           "Avgrenset_marine_basin"            "Distal_delta_front"    
4038.6 "6506_12-1" 33.32000 "Sandstone" "Shale" -999.25  85.0000 15.00000     0.0 "f"            "vc"           "Avgrenset_marine_basin"            "Distal_delta_front"    
4038.7 "6506_12-1" 32.88000 "Sandstone" "Shale" -999.25  85.0000 15.00000     0.0 "f"            "vc"           "Avgrenset_marine_basin"            "Distal_delta_front"    
4038.8 "6506_12-1" 32.69000 "Sandstone" "Shale" -999.25  85.0000 15.00000     0.0 "f"            "vc"           "Avgrenset_marine_basin"            "Distal_delta_front"    
4038.9 "6506_12-1" 32.65000 "Sandstone" "Shale" -999.25  85.0000 15.00000     0.0 "f"            "vc"           "Avgrenset_marine_basin"            "Distal_delta_front"    
4039.0 "6506_12-1" 32.62000 "Sandstone" -999.25 -999.25 100.0000      0.0     0.0 "vc/granule"   "vc/granule"   "Avgrenset_marine_basin"            "Distal_delta_front"    
4039.1 "6506_12-1" 32.42000 "Sandstone" "Shale" -999.25  95.0000  5.00000     0.0 "m/c"          "m/c"          "Avgrenset_marine_basin"            "Distal_delta_front"    
4039.2 "6506_12-1" 31.76000 "Sandstone" "Shale" -999.25  95.0000  5.00000     0.0 "m/c"          "m/c"          "Avgrenset_marine_basin"            "Distal_delta_front"    
4039.3 "6506_12-1" 31.10000 "Sandstone" "Shale" -999.25  95.0000  5.00000     0.0 "m/c"          "m/c"          "Avgrenset_marine_basin"            "Distal_delta_front"    
4039.4 "6506_12-1" 30.44000 "Sandstone" "Shale" -999.25  95.0000  5.00000     0.0 "m/c"          "m/c"          "Avgrenset_marine_basin"            "Distal_delta_front"    
4039.5 "6506_12-1" 29.78000 "Sandstone" "Shale" -999.25  95.0000  5.00000     0.0 "m/c"          "m/c"          "Avgrenset_marine_basin"            "Distal_delta_front"    
4039.6 "6506_12-1" 29.11000 "Sandstone" "Shale" -999.25  95.0000  5.00000     0.0 "m/c"          "m/c"          "Avgrenset_marine_basin"            "Distal_delta_front"    
4039.7 "6506_12-1" 29.99000 "Sandstone" "Shale" -999.25  95.0000  5.00000     0.0 "m/c"          "m/c"          "Avgrenset_marine_basin"            "Distal_delta_front"    
4039.8 "6506_12-1" 31.38000 "Sandstone" "Shale" -999.25  95.0000  5.00000     0.0 "m/c"          "m/c"          "Avgrenset_marine_basin"            "Distal_delta_front"    
4039.9 "6506_12-1" 32.76000 "Sandstone" "Shale" -999.25  95.0000  5.00000     0.0 "m/c"          "m/c"          "Avgrenset_marine_basin"            "Distal_delta_front"    
4040.0 "6506_12-1" 34.15000 "Sandstone" "Shale" -999.25  95.0000  5.00000     0.0 "m/c"          "m/c"          "Avgrenset_marine_basin"            "Distal_delta_front"    
4040.1 "6506_12-1" 34.07000 "Sandstone" "Shale" -999.25  95.0000  5.00000     0.0 "m/c"          "m/c"          "Avgrenset_marine_basin"            "Distal_delta_front"    
4040.2 "6506_12-1" 33.80000 "Sandstone" "Shale" -999.25  95.0000  5.00000     0.0 "m/c"          "m/c"          "Avgrenset_marine_basin"            "Distal_delta_front"    
4040.3 "6506_12-1" 33.53000 "Sandstone" "Shale" -999.25  95.0000  5.00000     0.0 "m/c"          "m/c"          "Avgrenset_marine_basin"            "Distal_delta_front"    
4040.4 "6506_12-1" 33.26000 "Sandstone" "Shale" -999.25  95.0000  5.00000     0.0 "m/c"          "m/c"          "Avgrenset_marine_basin"            "Distal_delta_front"    
4040.5 "6506_12-1" 32.99000 "Sandstone" "Shale" -999.25  95.0000  5.00000     0.0 "m/c"          "m/c"          "Avgrenset_marine_basin"            "Distal_delta_front"    
4040.6 "6506_12-1" 32.48000 "Sandstone" "Shale" -999.25  95.0000  5.00000     0.0 "m/c"          "m/c"          "Avgrenset_marine_basin"            "Distal_delta_front"    
4040.7 "6506_12-1" 31.54000 "Sandstone" "Shale" -999.25  95.0000  5.00000     0.0 "m/c"          "m/c"          "Avgrenset_marine_basin"            "Distal_delta_front"    
