~Version
VERS  .                                 3.0 : CWLS LAS ASCII Standard - Version 3.0
WRAP  . NO                                  : One line per depth step
DLM   . SPACE                               : Column data section delimiter
SOURCE. Converted to LAS by Log Studio 4.76 : GeoProvider

~Well
STRT.         3975.0 : Start depth
STOP.         4598.0 : Stop depth
STEP.              1 : Step
NULL.        -999.25 : No-value
COMP.                : Company
WELL. 6506/12-1      : Well
FLD .                : Field
LOC .                : Location
LATI.                : Latitude
LONG.                : Longitude
GDAT.                : Geodetic datum
CNTY.                : County
STAT.                : State
CTRY.                : Country
SRVC. GeoProvider AS : Service company
DATE.                : Date
API .                : API number
RUN .                : Run number

~Parameters
WellboreName.  : Wellbore name
RigName     .  : Rig name
StartDate   .  : Start date

~Curves
DEPTH.m            .  : null {F}Depth mMD
Hole_ID.-          .  : null {S}Hole ID
GR.API             .  : null {F}Gamma Ray
Lithology1.-       .  : null {S}Lithology 1
Lithology2.-       .  : null {S}Lithology 2
Lithology3.-       .  : null {S}Lithology 3
Lithology1.%       .  : null {F}Lithology 1 percentage
Lithology2.%       .  : null {F}Lithology 2 percentage
Lithology3.%       .  : null {F}Lithology 3 percentage
Grain_size_Top.-   .  : null {S}Grain size at the top 
Grain_size_Base.-  .  : null {S}Grain size at the bottom
Sub_Environment.-  .  : null {S}Sub Environment
Gross_Environment.-.  : null {S}Gross Environment

~Ascii
# ...
4017.3 "6506_12-1" 30.45000 "Sandstone" "Shale" -999.25  90.0000 10.00000     0.0 "m"            "m/c"          "Upper_lower_beach_slope"           "Distal_delta_front"    
4017.4 "6506_12-1" 32.78000 "Sandstone" "Shale" -999.25  90.0000 10.00000     0.0 "m"            "m/c"          "Upper_lower_beach_slope"           "Distal_delta_front"    
4017.5 "6506_12-1" 35.11000 "Sandstone" "Shale" -999.25  90.0000 10.00000     0.0 "m"            "m/c"          "Upper_lower_beach_slope"           "Distal_delta_front"    
4017.6 "6506_12-1" 36.64000 "Sandstone" "Shale" -999.25  90.0000 10.00000     0.0 "m"            "m/c"          "Upper_lower_beach_slope"           "Distal_delta_front"    
4017.7 "6506_12-1" 34.78000 "Sandstone" "Shale" -999.25  90.0000 10.00000     0.0 "m"            "m/c"          "Upper_lower_beach_slope"           "Distal_delta_front"    
4017.8 "6506_12-1" 32.91000 "Sandstone" "Shale" -999.25  90.0000 10.00000     0.0 "m"            "m/c"          "Upper_lower_beach_slope"           "Distal_delta_front"    
4017.9 "6506_12-1" 30.88000 "Sandstone" "Shale" -999.25  90.0000 10.00000     0.0 "m"            "m/c"          "Upper_lower_beach_slope"           "Distal_delta_front"    
4018.0 "6506_12-1" 28.61000 "Sandstone" "Shale" -999.25  90.0000 10.00000     0.0 "m"            "m/c"          "Upper_lower_beach_slope"           "Distal_delta_front"    
4018.1 "6506_12-1" 26.34000 "Sandstone" "Shale" -999.25  90.0000 10.00000     0.0 "m"            "m/c"          "Upper_lower_beach_slope"           "Distal_delta_front"    
4018.2 "6506_12-1" 24.26000 "Sandstone" "Shale" -999.25  90.0000 10.00000     0.0 "m"            "m/c"          "Upper_lower_beach_slope"           "Distal_delta_front"    
4018.3 "6506_12-1" 23.58000 "Sandstone" "Shale" -999.25  90.0000 10.00000     0.0 "m"            "m/c"          "Upper_lower_beach_slope"           "Distal_delta_front"    
4018.4 "6506_12-1" 23.63000 "Sandstone" "Shale" -999.25  90.0000 10.00000     0.0 "m"            "m/c"          "Upper_lower_beach_slope"           "Distal_delta_front"    
4018.5 "6506_12-1" 23.67000 "Sandstone" "Shale" -999.25  90.0000 10.00000     0.0 "m"            "m/c"          "Upper_lower_beach_slope"           "Distal_delta_front"    
4018.6 "6506_12-1" 24.10000 "Sandstone" "Shale" -999.25  90.0000 10.00000     0.0 "m"            "m/c"          "Upper_lower_beach_slope"           "Distal_delta_front"    
4018.7 "6506_12-1" 24.87000 "Sandstone" "Shale" -999.25  90.0000 10.00000     0.0 "m"            "m/c"          "Upper_lower_beach_slope"           "Distal_delta_front"    
4018.8 "6506_12-1" 25.65000 "Sandstone" "Shale" -999.25  90.0000 10.00000     0.0 "m"            "m/c"          "Upper_lower_beach_slope"           "Distal_delta_front"    
4018.9 "6506_12-1" 25.88000 "Sandstone" "Shale" -999.25  90.0000 10.00000     0.0 "m"            "m/c"          "Upper_lower_beach_slope"           "Distal_delta_front"    
4019.0 "6506_12-1" 25.94000 "Sandstone" "Shale" -999.25  90.0000 10.00000     0.0 "m"            "m/c"          "Upper_lower_beach_slope"           "Distal_delta_front"    
4019.1 "6506_12-1" 24.76000 "Sandstone" "Shale" -999.25  90.0000 10.00000     0.0 "m"            "m/c"          "Upper_lower_beach_slope"           "Distal_delta_front"    
4019.2 "6506_12-1" 23.32000 "Sandstone" "Shale" -999.25  90.0000 10.00000     0.0 "m"            "m/c"          "Upper_lower_beach_slope"           "Distal_delta_front"    
4019.3 "6506_12-1" 21.88000 "Sandstone" "Shale" -999.25  90.0000 10.00000     0.0 "m"            "m/c"          "Upper_lower_beach_slope"           "Distal_delta_front"    
4019.4 "6506_12-1" 20.45000 "Sandstone" "Shale" -999.25  90.0000 10.00000     0.0 "m"            "m/c"          "Upper_lower_beach_slope"           "Distal_delta_front"    
4019.5 "6506_12-1" 19.01000 "Sandstone" "Shale" -999.25  90.0000 10.00000     0.0 "m"            "m/c"          "Upper_lower_beach_slope"           "Distal_delta_front"    
4019.6 "6506_12-1" 18.07000 "Sandstone" "Shale" -999.25  90.0000 10.00000     0.0 "m"            "m/c"          "Upper_lower_beach_slope"           "Distal_delta_front"    
4019.7 "6506_12-1" 18.31000 "Sandstone" "Shale" -999.25  90.0000 10.00000     0.0 "m"            "m/c"          "Upper_lower_beach_slope"           "Distal_delta_front"    
4019.8 "6506_12-1" 18.54000 "Sandstone" "Shale" -999.25  90.0000 10.00000     0.0 "m"            "m/c"          "Upper_lower_beach_slope"           "Distal_delta_front"    
4019.9 "6506_12-1" 18.89000 "Sandstone" "Shale" -999.25  90.0000 10.00000     0.0 "m"            "m/c"          "Upper_lower_beach_slope"           "Distal_delta_front"    
4020.0 "6506_12-1" 19.33000 "Sandstone" "Shale" -999.25  90.0000 10.00000     0.0 "m"            "m/c"          "Upper_lower_beach_slope"           "Distal_delta_front"    
4020.1 "6506_12-1" 19.78000 "Sandstone" "Shale" -999.25  90.0000 10.00000     0.0 "m"            "m/c"          "Upper_lower_beach_slope"           "Distal_delta_front"    
4020.2 "6506_12-1" 20.22000 "Sandstone" "Shale" -999.25  90.0000 10.00000     0.0 "m"            "m/c"          "Upper_lower_beach_slope"           "Distal_delta_front"    
4020.3 "6506_12-1" 20.66000 "Sandstone" "Shale" -999.25  90.0000 10.00000     0.0 "m"            "m/c"          "Upper_lower_beach_slope"           "Distal_delta_front"    
4020.4 "6506_12-1" 21.11000 "Sandstone" "Shale" -999.25  90.0000 10.00000     0.0 "m"            "m/c"          "Upper_lower_beach_slope"           "Distal_delta_front"    
4020.5 "6506_12-1" 21.88000 "Sandstone" "Shale" -999.25  90.0000 10.00000     0.0 "m"            "m/c"          "Upper_lower_beach_slope"           "Distal_delta_front"    
4020.6 "6506_12-1" 22.78000 "Sandstone" "Shale" -999.25  90.0000 10.00000     0.0 "m"            "m/c"          "Upper_lower_beach_slope"           "Distal_delta_front"    
4020.7 "6506_12-1" 23.68000 "Sandstone" "Shale" -999.25  90.0000 10.00000     0.0 "m"            "m/c"          "Upper_lower_beach_slope"           "Distal_delta_front"    
4020.8 "6506_12-1" 24.57000 "Sandstone" "Shale" -999.25  90.0000 10.00000     0.0 "m"            "m/c"          "Upper_lower_beach_slope"           "Distal_delta_front"    
4020.9 "6506_12-1" 25.47000 "Sandstone" "Shale" -999.25  90.0000 10.00000     0.0 "m"            "m/c"          "Upper_lower_beach_slope"           "Distal_delta_front"    
4021.0 "6506_12-1" 26.37000 "Sandstone" "Shale" -999.25  90.0000 10.00000     0.0 "m"            "m/c"          "Upper_lower_beach_slope"           "Distal_delta_front"    
4021.1 "6506_12-1" 27.26000 "Sandstone" "Shale" -999.25  90.0000 10.00000     0.0 "m"            "m/c"          "Upper_lower_beach_slope"           "Distal_delta_front"    
4021.2 "6506_12-1" 28.16000 "Sandstone" "Shale" -999.25  90.0000 10.00000     0.0 "m"            "m/c"          "Upper_lower_beach_slope"           "Distal_delta_front"    
4021.3 "6506_12-1" 29.06000 "Sandstone" "Shale" -999.25  90.0000 10.00000     0.0 "m"            "m/c"          "Upper_lower_beach_slope"           "Distal_delta_front"    
4021.4 "6506_12-1" 29.95000 "Sandstone" "Shale" -999.25  90.0000 10.00000     0.0 "m"            "m/c"          "Upper_lower_beach_slope"           "Distal_delta_front"    
4021.5 "6506_12-1" 30.85000 "Sandstone" "Shale" -999.25  90.0000 10.00000     0.0 "m"            "m/c"          "Upper_lower_beach_slope"           "Distal_delta_front"    
4021.6 "6506_12-1" 30.96000 "Sandstone" "Shale" -999.25  90.0000 10.00000     0.0 "m"            "m/c"          "Lower_beach_slope"                 "Distal_delta_front"    
4021.7 "6506_12-1" 31.04000 "Sandstone" "Shale" -999.25  90.0000 10.00000     0.0 "m"            "m/c"          "Lower_beach_slope"                 "Distal_delta_front"    
4021.8 "6506_12-1" 31.13000 "Sandstone" "Shale" -999.25  90.0000 10.00000     0.0 "m"            "m/c"          "Lower_beach_slope"                 "Distal_delta_front"    
4021.9 "6506_12-1" 31.25000 "Sandstone" "Shale" -999.25  90.0000 10.00000     0.0 "m"            "vc"           "Lower_beach_slope"                 "Distal_delta_front"    
