~Version
VERS  .                                 3.0 : CWLS LAS ASCII Standard - Version 3.0
WRAP  . NO                                  : One line per depth step
DLM   . SPACE                               : Column data section delimiter
SOURCE. Converted to LAS by Log Studio 4.76 : GeoProvider

~Well
STRT.         3975.0 : Start depth
STOP.         4598.0 : Stop depth
STEP.              1 : Step
NULL.        -999.25 : No-value
COMP.                : Company
WELL. 6506/12-1      : Well
FLD .                : Field
LOC .                : Location
LATI.                : Latitude
LONG.                : Longitude
GDAT.                : Geodetic datum
CNTY.                : County
STAT.                : State
CTRY.                : Country
SRVC. GeoProvider AS : Service company
DATE.                : Date
API .                : API number
RUN .                : Run number

~Parameters
WellboreName.  : Wellbore name
RigName     .  : Rig name
StartDate   .  : Start date

~Curves
DEPTH.m            .  : null {F}Depth mMD
Hole_ID.-          .  : null {S}Hole ID
GR.API             .  : null {F}Gamma Ray
Lithology1.-       .  : null {S}Lithology 1
Lithology2.-       .  : null {S}Lithology 2
Lithology3.-       .  : null {S}Lithology 3
Lithology1.%       .  : null {F}Lithology 1 percentage
Lithology2.%       .  : null {F}Lithology 2 percentage
Lithology3.%       .  : null {F}Lithology 3 percentage
Grain_size_Top.-   .  : null {S}Grain size at the top 
Grain_size_Base.-  .  : null {S}Grain size at the bottom
Sub_Environment.-  .  : null {S}Sub Environment
Gross_Environment.-.  : null {S}Gross Environment

~Ascii
# ...
4172.4 "6506_12-1" 12.91000 -999.25   -999.25 -999.25 100.0000      0.0     0.0 -999.25        -999.25        -999.25                             -999.25                 
4172.5 "6506_12-1" 12.37000 -999.25   -999.25 -999.25 100.0000      0.0     0.0 -999.25        -999.25        -999.25                             -999.25                 
4172.6 "6506_12-1" 11.82000 -999.25   -999.25 -999.25 100.0000      0.0     0.0 -999.25        -999.25        -999.25                             -999.25                 
4172.7 "6506_12-1" 11.28000 -999.25   -999.25 -999.25 100.0000      0.0     0.0 -999.25        -999.25        -999.25                             -999.25                 
4172.8 "6506_12-1" 10.73000 -999.25   -999.25 -999.25 100.0000      0.0     0.0 -999.25        -999.25        -999.25                             -999.25                 
4172.9 "6506_12-1" 10.18000 -999.25   -999.25 -999.25 100.0000      0.0     0.0 -999.25        -999.25        -999.25                             -999.25                 
4173.0 "6506_12-1"  9.64000 -999.25   -999.25 -999.25 100.0000      0.0     0.0 -999.25        -999.25        -999.25                             -999.25                 
4173.1 "6506_12-1"  9.09000 "Sandstone" "Shale" -999.25  85.0000 15.00000     0.0 "vc"           "c"            -999.25                             "Fan_delta_complex"     
4173.2 "6506_12-1"  9.28000 "Sandstone" "Shale" -999.25  85.0000 15.00000     0.0 "vc"           "c"            -999.25                             "Fan_delta_complex"     
4173.3 "6506_12-1"  9.58000 "Sandstone" "Shale" -999.25  85.0000 15.00000     0.0 "vc"           "c"            -999.25                             "Fan_delta_complex"     
4173.4 "6506_12-1"  9.88000 "Sandstone" "Shale" -999.25  85.0000 15.00000     0.0 "vc"           "c"            -999.25                             "Fan_delta_complex"     
4173.5 "6506_12-1" 10.49000 "Sandstone" "Shale" -999.25  85.0000 15.00000     0.0 "vc"           "c"            -999.25                             "Fan_delta_complex"     
4173.6 "6506_12-1" 10.76000 "Sandstone" "Shale" -999.25  85.0000 15.00000     0.0 "vc"           "c"            -999.25                             "Fan_delta_complex"     
4173.7 "6506_12-1" 10.56000 "Sandstone" "Shale" -999.25  85.0000 15.00000     0.0 "vc"           "c"            -999.25                             "Fan_delta_complex"     
4173.8 "6506_12-1" 10.08000 "Sandstone" "Shale" -999.25  85.0000 15.00000     0.0 "vc"           "c"            -999.25                             "Fan_delta_complex"     
4173.9 "6506_12-1"  9.29000 "Sandstone" "Shale" -999.25  85.0000 15.00000     0.0 "vc"           "c"            -999.25                             "Fan_delta_complex"     
4174.0 "6506_12-1"  9.29000 "Sandstone" "Shale" -999.25  85.0000 15.00000     0.0 "vc"           "c"            -999.25                             "Fan_delta_complex"     
4174.1 "6506_12-1"  9.38000 "Sandstone" "Shale" -999.25  85.0000 15.00000     0.0 "vc"           "c"            -999.25                             "Fan_delta_complex"     
4174.2 "6506_12-1"  9.61000 "Sandstone" "Shale" -999.25  85.0000 15.00000     0.0 "vc"           "c"            -999.25                             "Fan_delta_complex"     
4174.3 "6506_12-1"  9.65000 "Sandstone" "Shale" -999.25  85.0000 15.00000     0.0 "vc"           "c"            -999.25                             "Fan_delta_complex"     
4174.4 "6506_12-1"  9.30000 "Sandstone" "Shale" -999.25  85.0000 15.00000     0.0 "vc"           "c"            -999.25                             "Fan_delta_complex"     
4174.5 "6506_12-1"  9.06000 "Sandstone" "Shale" -999.25  85.0000 15.00000     0.0 "vc"           "c"            -999.25                             "Fan_delta_complex"     
4174.6 "6506_12-1"  9.24000 "Sandstone" "Shale" -999.25  85.0000 15.00000     0.0 "vc"           "c"            -999.25                             "Fan_delta_complex"     
4174.7 "6506_12-1"  9.42000 "Sandstone" "Shale" -999.25  85.0000 15.00000     0.0 "vc"           "c"            -999.25                             "Fan_delta_complex"     
4174.8 "6506_12-1"  9.30000 "Sandstone" "Shale" -999.25  85.0000 15.00000     0.0 "vc"           "c"            -999.25                             "Fan_delta_complex"     
4174.9 "6506_12-1"  9.18000 "Sandstone" "Shale" -999.25  85.0000 15.00000     0.0 "vc"           "c"            -999.25                             "Fan_delta_complex"     
4175.0 "6506_12-1"  9.09000 "Sandstone" "Shale" -999.25  85.0000 15.00000     0.0 "vc"           "c"            -999.25                             "Fan_delta_complex"     
4175.1 "6506_12-1"  9.27000 "Sandstone" "Shale" -999.25  85.0000 15.00000     0.0 "vc"           "c"            -999.25                             "Fan_delta_complex"     
4175.2 "6506_12-1"  9.97000 "Sandstone" "Shale" -999.25  85.0000 15.00000     0.0 "vc"           "c"            -999.25                             "Fan_delta_complex"     
4175.3 "6506_12-1" 10.67000 "Sandstone" "Shale" -999.25  85.0000 15.00000     0.0 "vc"           "c"            -999.25                             "Fan_delta_complex"     
4175.4 "6506_12-1" 11.36000 "Sandstone" "Shale" -999.25  85.0000 15.00000     0.0 "vc"           "c"            -999.25                             "Fan_delta_complex"     
4175.5 "6506_12-1" 12.06000 "Sandstone" "Shale" -999.25  85.0000 15.00000     0.0 "vc"           "c"            -999.25                             "Fan_delta_complex"     
4175.6 "6506_12-1" 12.76000 "Sandstone" "Shale" -999.25  85.0000 15.00000     0.0 "vc"           "c"            -999.25                             "Fan_delta_complex"     
4175.7 "6506_12-1" 13.17000 "Sandstone" "Shale" -999.25  85.0000 15.00000     0.0 "vc"           "c"            -999.25                             "Fan_delta_complex"     
4175.8 "6506_12-1" 12.96000 "Sandstone" "Shale" -999.25  85.0000 15.00000     0.0 "vc"           "c"            -999.25                             "Fan_delta_complex"     
4175.9 "6506_12-1" 12.76000 "Sandstone" "Shale" -999.25  85.0000 15.00000     0.0 "vc"           "c"            -999.25                             "Fan_delta_complex"     
4176.0 "6506_12-1" 12.71000 "Sandstone" "Shale" -999.25  85.0000 15.00000     0.0 "vc"           "c"            -999.25                             "Fan_delta_complex"     
4176.1 "6506_12-1" 12.98000 "Sandstone" "Shale" -999.25  85.0000 15.00000     0.0 "vc"           "c"            -999.25                             "Fan_delta_complex"     
4176.2 "6506_12-1" 13.25000 "Sandstone" "Shale" -999.25  85.0000 15.00000     0.0 "vc"           "c"            -999.25                             "Fan_delta_complex"     
4176.3 "6506_12-1" 13.52000 "Sandstone" "Shale" -999.25  85.0000 15.00000     0.0 "vc"           "c"            -999.25                             "Fan_delta_complex"     
4176.4 "6506_12-1" 13.59000 "Sandstone" "Shale" -999.25  85.0000 15.00000     0.0 "vc"           "c"            -999.25                             "Fan_delta_complex"     
4176.5 "6506_12-1" 13.23000 "Sandstone" "Shale" -999.25  85.0000 15.00000     0.0 "vc"           "c"            -999.25                             "Fan_delta_complex"     
4176.6 "6506_12-1" 12.87000 "Sandstone" "Shale" -999.25  85.0000 15.00000     0.0 "vc"           "c"            -999.25                             "Fan_delta_complex"     
4176.7 "6506_12-1" 12.50000 "Sandstone" "Shale" -999.25  85.0000 15.00000     0.0 "vc"           "c"            -999.25                             "Fan_delta_complex"     
4176.8 "6506_12-1" 12.14000 "Sandstone" "Shale" -999.25  85.0000 15.00000     0.0 "vc"           "c"            -999.25                             "Fan_delta_complex"     
4176.9 "6506_12-1" 11.78000 "Sandstone" "Shale" -999.25  85.0000 15.00000     0.0 "vc"           "c"            -999.25                             "Fan_delta_complex"     
4177.0 "6506_12-1" 11.36000 "Sandstone" "Shale" -999.25  85.0000 15.00000     0.0 "vc"           "c"            -999.25                             "Fan_delta_complex"     
