~Version
VERS  .                                 3.0 : CWLS LAS ASCII Standard - Version 3.0
WRAP  . NO                                  : One line per depth step
DLM   . SPACE                               : Column data section delimiter
SOURCE. Converted to LAS by Log Studio 4.76 : GeoProvider

~Well
STRT.         3975.0 : Start depth
STOP.         4598.0 : Stop depth
STEP.              1 : Step
NULL.        -999.25 : No-value
COMP.                : Company
WELL. 6506/12-1      : Well
FLD .                : Field
LOC .                : Location
LATI.                : Latitude
LONG.                : Longitude
GDAT.                : Geodetic datum
CNTY.                : County
STAT.                : State
CTRY.                : Country
SRVC. GeoProvider AS : Service company
DATE.                : Date
API .                : API number
RUN .                : Run number

~Parameters
WellboreName.  : Wellbore name
RigName     .  : Rig name
StartDate   .  : Start date

~Curves
DEPTH.m            .  : null {F}Depth mMD
Hole_ID.-          .  : null {S}Hole ID
GR.API             .  : null {F}Gamma Ray
Lithology1.-       .  : null {S}Lithology 1
Lithology2.-       .  : null {S}Lithology 2
Lithology3.-       .  : null {S}Lithology 3
Lithology1.%       .  : null {F}Lithology 1 percentage
Lithology2.%       .  : null {F}Lithology 2 percentage
Lithology3.%       .  : null {F}Lithology 3 percentage
Grain_size_Top.-   .  : null {S}Grain size at the top 
Grain_size_Base.-  .  : null {S}Grain size at the bottom
Sub_Environment.-  .  : null {S}Sub Environment
Gross_Environment.-.  : null {S}Gross Environment

~Ascii
# ...
4116.0 "6506_12-1" 21.81000 "Sandstone" "Shale" -999.25  90.0000 10.00000     0.0 "f/m"          "m"            "Upper_lower_beach_slope"           "Prograding_delta_front"
4116.1 "6506_12-1" 21.69000 "Sandstone" "Shale" -999.25  90.0000 10.00000     0.0 "f/m"          "m"            "Upper_lower_beach_slope"           "Prograding_delta_front"
4116.2 "6506_12-1" 21.57000 "Sandstone" "Shale" -999.25  90.0000 10.00000     0.0 "f/m"          "m"            "Upper_lower_beach_slope"           "Prograding_delta_front"
4116.3 "6506_12-1" 21.39000 "Sandstone" "Shale" -999.25  90.0000 10.00000     0.0 "f/m"          "m"            "Upper_lower_beach_slope"           "Prograding_delta_front"
4116.4 "6506_12-1" 21.37000 "Sandstone" "Shale" -999.25  90.0000 10.00000     0.0 "f/m"          "m"            "Upper_lower_beach_slope"           "Prograding_delta_front"
4116.5 "6506_12-1" 21.86000 "Sandstone" "Shale" -999.25  90.0000 10.00000     0.0 "f/m"          "m"            "Upper_lower_beach_slope"           "Prograding_delta_front"
4116.6 "6506_12-1" 22.35000 "Sandstone" "Shale" -999.25  90.0000 10.00000     0.0 "f/m"          "m"            "Upper_lower_beach_slope"           "Prograding_delta_front"
4116.7 "6506_12-1" 22.84000 "Sandstone" "Shale" -999.25  90.0000 10.00000     0.0 "f/m"          "m"            "Upper_lower_beach_slope"           "Prograding_delta_front"
4116.8 "6506_12-1" 23.27000 "Sandstone" "Shale" -999.25  90.0000 10.00000     0.0 "f/m"          "m"            "Upper_lower_beach_slope"           "Prograding_delta_front"
4116.9 "6506_12-1" 23.46000 "Sandstone" "Shale" -999.25  90.0000 10.00000     0.0 "f/m"          "m"            "Upper_lower_beach_slope"           "Prograding_delta_front"
4117.0 "6506_12-1" 23.66000 "Sandstone" "Shale" -999.25  90.0000 10.00000     0.0 "f/m"          "m"            "Upper_lower_beach_slope"           "Prograding_delta_front"
4117.1 "6506_12-1" 23.85000 "Sandstone" "Shale" -999.25  90.0000 10.00000     0.0 "f/m"          "m"            "Upper_lower_beach_slope"           "Prograding_delta_front"
4117.2 "6506_12-1" 24.23000 "Sandstone" "Shale" -999.25  90.0000 10.00000     0.0 "f/m"          "m"            "Upper_lower_beach_slope"           "Prograding_delta_front"
4117.3 "6506_12-1" 24.67000 "Sandstone" "Shale" -999.25  90.0000 10.00000     0.0 "f/m"          "m"            "Upper_lower_beach_slope"           "Prograding_delta_front"
4117.4 "6506_12-1" 25.12000 "Sandstone" "Shale" -999.25  90.0000 10.00000     0.0 "f/m"          "m"            "Upper_lower_beach_slope"           "Prograding_delta_front"
4117.5 "6506_12-1" 25.48000 "Sandstone" "Shale" -999.25  90.0000 10.00000     0.0 "f/m"          "m"            "Upper_lower_beach_slope"           "Prograding_delta_front"
4117.6 "6506_12-1" 25.52000 "Sandstone" "Shale" -999.25  90.0000 10.00000     0.0 "f/m"          "m"            "Upper_lower_beach_slope"           "Prograding_delta_front"
4117.7 "6506_12-1" 25.57000 "Sandstone" "Shale" -999.25  90.0000 10.00000     0.0 "f/m"          "m"            "Upper_lower_beach_slope"           "Prograding_delta_front"
4117.8 "6506_12-1" 25.57000 "Sandstone" "Shale" -999.25  90.0000 10.00000     0.0 "f/m"          "m"            "Upper_lower_beach_slope"           "Prograding_delta_front"
4117.9 "6506_12-1" 24.99000 "Sandstone" "Shale" -999.25  90.0000 10.00000     0.0 "f/m"          "m"            "Upper_lower_beach_slope"           "Prograding_delta_front"
4118.0 "6506_12-1" 24.42000 "Sandstone" "Shale" -999.25  90.0000 10.00000     0.0 "f/m"          "m"            "Upper_lower_beach_slope"           "Prograding_delta_front"
4118.1 "6506_12-1" 23.84000 "Sandstone" "Shale" -999.25  90.0000 10.00000     0.0 "f/m"          "m"            "Upper_lower_beach_slope"           "Prograding_delta_front"
4118.2 "6506_12-1" 23.27000 "Sandstone" "Shale" -999.25  90.0000 10.00000     0.0 "f/m"          "m"            "Upper_lower_beach_slope"           "Prograding_delta_front"
4118.3 "6506_12-1" 22.42000 "Sandstone" "Shale" -999.25  90.0000 10.00000     0.0 "f/m"          "m"            "Upper_lower_beach_slope"           "Prograding_delta_front"
4118.4 "6506_12-1" 21.05000 "Sandstone" "Shale" -999.25  90.0000 10.00000     0.0 "f/m"          "m"            "Upper_lower_beach_slope"           "Prograding_delta_front"
4118.5 "6506_12-1" 19.68000 "Sandstone" "Shale" -999.25  90.0000 10.00000     0.0 "f/m"          "m"            "Upper_lower_beach_slope"           "Prograding_delta_front"
4118.6 "6506_12-1" 18.31000 "Sandstone" "Shale" -999.25  90.0000 10.00000     0.0 "f/m"          "m"            "Upper_lower_beach_slope"           "Prograding_delta_front"
4118.7 "6506_12-1" 16.94000 "Sandstone" "Shale" -999.25  90.0000 10.00000     0.0 "f/m"          "m"            "Upper_lower_beach_slope"           "Prograding_delta_front"
4118.8 "6506_12-1" 15.57000 "Sandstone" "Shale" -999.25  90.0000 10.00000     0.0 "f/m"          "m"            "Upper_lower_beach_slope"           "Prograding_delta_front"
4118.9 "6506_12-1" 14.52000 "Sandstone" "Shale" -999.25  90.0000 10.00000     0.0 "f/m"          "m"            "Upper_lower_beach_slope"           "Prograding_delta_front"
4119.0 "6506_12-1" 13.99000 "Sandstone" "Shale" -999.25  90.0000 10.00000     0.0 "f/m"          "m"            "Upper_lower_beach_slope"           "Prograding_delta_front"
4119.1 "6506_12-1" 14.09000 "Sandstone" "Shale" -999.25  90.0000 10.00000     0.0 "f/m"          "m"            "Upper_lower_beach_slope"           "Prograding_delta_front"
4119.2 "6506_12-1" 14.21000 "Sandstone" "Shale" -999.25  90.0000 10.00000     0.0 "f/m"          "m"            "Upper_lower_beach_slope"           "Prograding_delta_front"
4119.3 "6506_12-1" 14.32000 "Sandstone" "Shale" -999.25  90.0000 10.00000     0.0 "f/m"          "m"            "Upper_lower_beach_slope"           "Prograding_delta_front"
4119.4 "6506_12-1" 14.43000 "Sandstone" "Shale" -999.25  90.0000 10.00000     0.0 "f/m"          "m"            "Upper_lower_beach_slope"           "Prograding_delta_front"
4119.5 "6506_12-1" 14.34000 "Sandstone" "Shale" -999.25  90.0000 10.00000     0.0 "f/m"          "m"            "Upper_lower_beach_slope"           "Prograding_delta_front"
4119.6 "6506_12-1" 14.19000 "Sandstone" "Shale" -999.25  90.0000 10.00000     0.0 "f/m"          "m"            "Upper_lower_beach_slope"           "Prograding_delta_front"
4119.7 "6506_12-1" 14.05000 "Sandstone" "Shale" -999.25  90.0000 10.00000     0.0 "f/m"          "m"            "Upper_lower_beach_slope"           "Prograding_delta_front"
4119.8 "6506_12-1" 13.90000 "Sandstone" "Shale" -999.25  90.0000 10.00000     0.0 "f/m"          "m"            "Upper_lower_beach_slope"           "Prograding_delta_front"
4119.9 "6506_12-1" 13.75000 "Sandstone" "Shale" -999.25  90.0000 10.00000     0.0 "f/m"          "m"            "Upper_lower_beach_slope"           "Prograding_delta_front"
4120.0 "6506_12-1" 14.20000 "Sandstone" "Shale" -999.25  90.0000 10.00000     0.0 "f/m"          "m"            "Upper_lower_beach_slope"           "Prograding_delta_front"
4120.1 "6506_12-1" 15.03000 "Sandstone" "Shale" -999.25  90.0000 10.00000     0.0 "f/m"          "m"            "Upper_lower_beach_slope"           "Prograding_delta_front"
4120.2 "6506_12-1" 16.68000 "Sandstone" "Shale" -999.25  90.0000 10.00000     0.0 "f/m"          "m"            "Upper_lower_beach_slope"           "Prograding_delta_front"
4120.3 "6506_12-1" 18.34000 "Sandstone" "Shale" -999.25  90.0000 10.00000     0.0 "f/m"          "m"            "Upper_lower_beach_slope"           "Prograding_delta_front"
4120.4 "6506_12-1" 19.99000 "Sandstone" "Shale" -999.25  90.0000 10.00000     0.0 "f/m"          "m"            "Upper_lower_beach_slope"           "Prograding_delta_front"
4120.5 "6506_12-1" 20.69000 "Sandstone" "Shale" -999.25  90.0000 10.00000     0.0 "f/m"          "m"            "Upper_lower_beach_slope"           "Prograding_delta_front"
4120.6 "6506_12-1" 20.98000 "Sandstone" "Shale" -999.25  90.0000 10.00000     0.0 "f/m"          "m"            "Upper_lower_beach_slope"           "Prograding_delta_front"
