~Version
VERS  .                                 3.0 : CWLS LAS ASCII Standard - Version 3.0
WRAP  . NO                                  : One line per depth step
DLM   . SPACE                               : Column data section delimiter
SOURCE. Converted to LAS by Log Studio 4.76 : GeoProvider

~Well
STRT.         3975.0 : Start depth
STOP.         4598.0 : Stop depth
STEP.              1 : Step
NULL.        -999.25 : No-value
COMP.                : Company
WELL. 6506/12-1      : Well
FLD .                : Field
LOC .                : Location
LATI.                : Latitude
LONG.                : Longitude
GDAT.                : Geodetic datum
CNTY.                : County
STAT.                : State
CTRY.                : Country
SRVC. GeoProvider AS : Service company
DATE.                : Date
API .                : API number
RUN .                : Run number

~Parameters
WellboreName.  : Wellbore name
RigName     .  : Rig name
StartDate   .  : Start date

~Curves
DEPTH.m            .  : null {F}Depth mMD
Hole_ID.-          .  : null {S}Hole ID
GR.API             .  : null {F}Gamma Ray
Lithology1.-       .  : null {S}Lithology 1
Lithology2.-       .  : null {S}Lithology 2
Lithology3.-       .  : null {S}Lithology 3
Lithology1.%       .  : null {F}Lithology 1 percentage
Lithology2.%       .  : null {F}Lithology 2 percentage
Lithology3.%       .  : null {F}Lithology 3 percentage
Grain_size_Top.-   .  : null {S}Grain size at the top 
Grain_size_Base.-  .  : null {S}Grain size at the bottom
Sub_Environment.-  .  : null {S}Sub Environment
Gross_Environment.-.  : null {S}Gross Environment

~Ascii
# ...
3993.8 "6506_12-1" 10.22000 "Sandstone" -999.25 -999.25 100.0000      0.0     0.0 "vc"           "c/vc"         "Mainly_upper_beach_slope"          "Proximal_delta_front"  
3993.9 "6506_12-1" 10.31000 "Sandstone" -999.25 -999.25 100.0000      0.0     0.0 "vc"           "c/vc"         "Mainly_upper_beach_slope"          "Proximal_delta_front"  
3994.0 "6506_12-1" 10.40000 "Sandstone" -999.25 -999.25 100.0000      0.0     0.0 "vc"           "c/vc"         "Mainly_upper_beach_slope"          "Proximal_delta_front"  
3994.1 "6506_12-1" 10.49000 "Sandstone" -999.25 -999.25 100.0000      0.0     0.0 "vc"           "c/vc"         "Mainly_upper_beach_slope"          "Proximal_delta_front"  
3994.2 "6506_12-1" 10.37000 "Sandstone" -999.25 -999.25 100.0000      0.0     0.0 "vc"           "c/vc"         "Mainly_upper_beach_slope"          "Proximal_delta_front"  
3994.3 "6506_12-1" 10.24000 "Sandstone" -999.25 -999.25 100.0000      0.0     0.0 "vc"           "c/vc"         "Mainly_upper_beach_slope"          "Proximal_delta_front"  
3994.4 "6506_12-1" 10.12000 "Sandstone" -999.25 -999.25 100.0000      0.0     0.0 "vc"           "c/vc"         "Mainly_upper_beach_slope"          "Proximal_delta_front"  
3994.5 "6506_12-1"  9.99000 "Sandstone" -999.25 -999.25 100.0000      0.0     0.0 "vc"           "c/vc"         "Mainly_upper_beach_slope"          "Proximal_delta_front"  
3994.6 "6506_12-1"  9.87000 "Sandstone" -999.25 -999.25 100.0000      0.0     0.0 "vc"           "c/vc"         "Mainly_upper_beach_slope"          "Proximal_delta_front"  
3994.7 "6506_12-1"  9.74000 "Sandstone" -999.25 -999.25 100.0000      0.0     0.0 "vc"           "c/vc"         "Mainly_upper_beach_slope"          "Proximal_delta_front"  
3994.8 "6506_12-1"  9.62000 "Sandstone" -999.25 -999.25 100.0000      0.0     0.0 "vc"           "c/vc"         "Mainly_upper_beach_slope"          "Proximal_delta_front"  
3994.9 "6506_12-1"  9.45000 "Sandstone" -999.25 -999.25 100.0000      0.0     0.0 "vc"           "c/vc"         "Mainly_upper_beach_slope"          "Proximal_delta_front"  
3995.0 "6506_12-1"  9.14000 "Sandstone" -999.25 -999.25 100.0000      0.0     0.0 "vc"           "c/vc"         "Mainly_upper_beach_slope"          "Proximal_delta_front"  
3995.1 "6506_12-1"  8.84000 "Sandstone" -999.25 -999.25 100.0000      0.0     0.0 "vc"           "c/vc"         "Mainly_upper_beach_slope"          "Proximal_delta_front"  
3995.2 "6506_12-1"  8.53000 "Sandstone" -999.25 -999.25 100.0000      0.0     0.0 "vc"           "c/vc"         "Mainly_upper_beach_slope"          "Proximal_delta_front"  
3995.3 "6506_12-1"  8.47000 "Sandstone" -999.25 -999.25 100.0000      0.0     0.0 "vc"           "c/vc"         "Mainly_upper_beach_slope"          "Proximal_delta_front"  
3995.4 "6506_12-1"  8.78000 "Sandstone" -999.25 -999.25 100.0000      0.0     0.0 "vc"           "c/vc"         "Mainly_upper_beach_slope"          "Proximal_delta_front"  
3995.5 "6506_12-1"  9.09000 "Sandstone" -999.25 -999.25 100.0000      0.0     0.0 "vc"           "c/vc"         "Mainly_upper_beach_slope"          "Proximal_delta_front"  
3995.6 "6506_12-1" 10.06000 "Sandstone" -999.25 -999.25 100.0000      0.0     0.0 "vc"           "c/vc"         "Mainly_upper_beach_slope"          "Proximal_delta_front"  
3995.7 "6506_12-1" 11.42000 "Sandstone" -999.25 -999.25 100.0000      0.0     0.0 "vc"           "c/vc"         "Mainly_upper_beach_slope"          "Proximal_delta_front"  
3995.8 "6506_12-1" 11.40000 "Sandstone" -999.25 -999.25 100.0000      0.0     0.0 "vc"           "c/vc"         "Mainly_upper_beach_slope"          "Proximal_delta_front"  
3995.9 "6506_12-1" 11.21000 "Sandstone" -999.25 -999.25 100.0000      0.0     0.0 "vc"           "c/vc"         "Mainly_upper_beach_slope"          "Proximal_delta_front"  
3996.0 "6506_12-1" 10.75000 "Sandstone" -999.25 -999.25 100.0000      0.0     0.0 "vc"           "c/vc"         "Mainly_upper_beach_slope"          "Proximal_delta_front"  
3996.1 "6506_12-1" 10.60000 "Sandstone" -999.25 -999.25 100.0000      0.0     0.0 "vc"           "c/vc"         "Mainly_upper_beach_slope"          "Proximal_delta_front"  
3996.2 "6506_12-1" 10.60000 "Sandstone" -999.25 -999.25 100.0000      0.0     0.0 "vc"           "c/vc"         "Mainly_upper_beach_slope"          "Proximal_delta_front"  
3996.3 "6506_12-1" 10.60000 "Sandstone" -999.25 -999.25 100.0000      0.0     0.0 "vc"           "c/vc"         "Mainly_upper_beach_slope"          "Proximal_delta_front"  
3996.4 "6506_12-1" 10.49000 "Sandstone" -999.25 -999.25 100.0000      0.0     0.0 "vc"           "c/vc"         "Mainly_upper_beach_slope"          "Proximal_delta_front"  
3996.5 "6506_12-1" 10.32000 "Sandstone" -999.25 -999.25 100.0000      0.0     0.0 "vc"           "c/vc"         "Mainly_upper_beach_slope"          "Proximal_delta_front"  
3996.6 "6506_12-1" 10.14000 "Sandstone" -999.25 -999.25 100.0000      0.0     0.0 "vc"           "c/vc"         "Mainly_upper_beach_slope"          "Proximal_delta_front"  
3996.7 "6506_12-1"  9.97000 "Sandstone" -999.25 -999.25 100.0000      0.0     0.0 "vc"           "c/vc"         "Mainly_upper_beach_slope"          "Proximal_delta_front"  
3996.8 "6506_12-1"  9.79000 "Sandstone" -999.25 -999.25 100.0000      0.0     0.0 "vc"           "c/vc"         "Mainly_upper_beach_slope"          "Proximal_delta_front"  
3996.9 "6506_12-1"  9.63000 "Sandstone" -999.25 -999.25 100.0000      0.0     0.0 "vc"           "c/vc"         "Mainly_upper_beach_slope"          "Proximal_delta_front"  
3997.0 "6506_12-1"  9.63000 "Sandstone" -999.25 -999.25 100.0000      0.0     0.0 "vc"           "c/vc"         "Mainly_upper_beach_slope"          "Proximal_delta_front"  
3997.1 "6506_12-1"  9.63000 "Sandstone" -999.25 -999.25 100.0000      0.0     0.0 "vc"           "c/vc"         "Mainly_upper_beach_slope"          "Proximal_delta_front"  
3997.2 "6506_12-1"  9.85000 "Sandstone" -999.25 -999.25 100.0000      0.0     0.0 "vc"           "c/vc"         "Mainly_upper_beach_slope"          "Proximal_delta_front"  
3997.3 "6506_12-1" 10.20000 "Sandstone" -999.25 -999.25 100.0000      0.0     0.0 "vc"           "c/vc"         "Mainly_upper_beach_slope"          "Proximal_delta_front"  
3997.4 "6506_12-1" 10.55000 "Sandstone" -999.25 -999.25 100.0000      0.0     0.0 "vc"           "c/vc"         "Mainly_upper_beach_slope"          "Proximal_delta_front"  
3997.5 "6506_12-1" 10.90000 "Sandstone" -999.25 -999.25 100.0000      0.0     0.0 "vc"           "c/vc"         "Mainly_upper_beach_slope"          "Proximal_delta_front"  
3997.6 "6506_12-1" 11.25000 "Sandstone" -999.25 -999.25 100.0000      0.0     0.0 "vc"           "c/vc"         "Mainly_upper_beach_slope"          "Proximal_delta_front"  
3997.7 "6506_12-1" 11.62000 "Sandstone" -999.25 -999.25 100.0000      0.0     0.0 "vc"           "c/vc"         "Mainly_upper_beach_slope"          "Proximal_delta_front"  
3997.8 "6506_12-1" 12.27000 "Sandstone" -999.25 -999.25 100.0000      0.0     0.0 "vc"           "c/vc"         "Mainly_upper_beach_slope"          "Proximal_delta_front"  
3997.9 "6506_12-1" 12.56000 "Sandstone" -999.25 -999.25 100.0000      0.0     0.0 "vc"           "c/vc"         "Mainly_upper_beach_slope"          "Proximal_delta_front"  
3998.0 "6506_12-1" 12.39000 "Sandstone" -999.25 -999.25 100.0000      0.0     0.0 "vc/granule"   "vc"           "Beach"                             "Proximal_delta_front"  
3998.1 "6506_12-1" 12.21000 "Sandstone" -999.25 -999.25 100.0000      0.0     0.0 "vc/granule"   "vc"           "Beach"                             "Proximal_delta_front"  
3998.2 "6506_12-1" 12.10000 "Sandstone" -999.25 -999.25 100.0000      0.0     0.0 "vc/granule"   "vc"           "Beach"                             "Proximal_delta_front"  
3998.3 "6506_12-1" 12.10000 "Sandstone" -999.25 -999.25 100.0000      0.0     0.0 "vc/granule"   "vc"           "Beach"                             "Proximal_delta_front"  
3998.4 "6506_12-1" 12.10000 "Sandstone" -999.25 -999.25 100.0000      0.0     0.0 "vc/granule"   "vc"           "Beach"                             "Proximal_delta_front"  
