~Version
VERS  .                                 3.0 : CWLS LAS ASCII Standard - Version 3.0
WRAP  . NO                                  : One line per depth step
DLM   . SPACE                               : Column data section delimiter
SOURCE. Converted to LAS by Log Studio 4.76 : GeoProvider

~Well
STRT.         3975.0 : Start depth
STOP.         4598.0 : Stop depth
STEP.              1 : Step
NULL.        -999.25 : No-value
COMP.                : Company
WELL. 6506/12-1      : Well
FLD .                : Field
LOC .                : Location
LATI.                : Latitude
LONG.                : Longitude
GDAT.                : Geodetic datum
CNTY.                : County
STAT.                : State
CTRY.                : Country
SRVC. GeoProvider AS : Service company
DATE.                : Date
API .                : API number
RUN .                : Run number

~Parameters
WellboreName.  : Wellbore name
RigName     .  : Rig name
StartDate   .  : Start date

~Curves
DEPTH.m            .  : null {F}Depth mMD
Hole_ID.-          .  : null {S}Hole ID
GR.API             .  : null {F}Gamma Ray
Lithology1.-       .  : null {S}Lithology 1
Lithology2.-       .  : null {S}Lithology 2
Lithology3.-       .  : null {S}Lithology 3
Lithology1.%       .  : null {F}Lithology 1 percentage
Lithology2.%       .  : null {F}Lithology 2 percentage
Lithology3.%       .  : null {F}Lithology 3 percentage
Grain_size_Top.-   .  : null {S}Grain size at the top 
Grain_size_Base.-  .  : null {S}Grain size at the bottom
Sub_Environment.-  .  : null {S}Sub Environment
Gross_Environment.-.  : null {S}Gross Environment

~Ascii
# ...
4265.9 "6506_12-1" 18.64000 "Sandstone" "Shale" -999.25  90.0000 10.00000     0.0 "c"            "c"            "Open_bay_(High_energy)"            "Delta_front_/_Bay"     
4266.0 "6506_12-1" 19.76000 "Sandstone" "Shale" -999.25  90.0000 10.00000     0.0 "c"            "c"            "Open_bay_(High_energy)"            "Delta_front_/_Bay"     
4266.1 "6506_12-1" 21.14000 "Sandstone" "Shale" -999.25  90.0000 10.00000     0.0 "c"            "c"            "Upper__beach_slope_/_beach"        "Delta_front_/_Bay"     
4266.2 "6506_12-1" 22.71000 "Sandstone" "Shale" -999.25  90.0000 10.00000     0.0 "c"            "c"            "Upper__beach_slope_/_beach"        "Delta_front_/_Bay"     
4266.3 "6506_12-1" 24.28000 "Sandstone" "Shale" -999.25  90.0000 10.00000     0.0 "c"            "c"            "Upper__beach_slope_/_beach"        "Delta_front_/_Bay"     
4266.4 "6506_12-1" 25.84000 "Sandstone" "Shale" -999.25  90.0000 10.00000     0.0 "c"            "c"            "Upper__beach_slope_/_beach"        "Delta_front_/_Bay"     
4266.5 "6506_12-1" 27.41000 "Sandstone" "Shale" -999.25  90.0000 10.00000     0.0 "c"            "c"            "Upper__beach_slope_/_beach"        "Delta_front_/_Bay"     
4266.6 "6506_12-1" 27.43000 "Sandstone" -999.25 -999.25 100.0000      0.0     0.0 "c"            "m/c"          "Upper__beach_slope_/_beach"        "Delta_front_/_Bay"     
4266.7 "6506_12-1" 26.28000 "Sandstone" -999.25 -999.25 100.0000      0.0     0.0 "c"            "m/c"          "Upper__beach_slope_/_beach"        "Delta_front_/_Bay"     
4266.8 "6506_12-1" 24.61000 "Sandstone" -999.25 -999.25 100.0000      0.0     0.0 "c"            "m/c"          "Upper__beach_slope_/_beach"        "Delta_front_/_Bay"     
4266.9 "6506_12-1" 22.95000 "Sandstone" -999.25 -999.25 100.0000      0.0     0.0 "c"            "m/c"          "Upper__beach_slope_/_beach"        "Delta_front_/_Bay"     
4267.0 "6506_12-1" 21.28000 "Sandstone" -999.25 -999.25 100.0000      0.0     0.0 "c"            "m/c"          "Upper__beach_slope_/_beach"        "Delta_front_/_Bay"     
4267.1 "6506_12-1" 18.59000 "Sandstone" -999.25 -999.25 100.0000      0.0     0.0 "c"            "m/c"          "Upper__beach_slope_/_beach"        "Delta_front_/_Bay"     
4267.2 "6506_12-1" 15.59000 "Sandstone" -999.25 -999.25 100.0000      0.0     0.0 "c"            "m/c"          "Upper__beach_slope_/_beach"        "Delta_front_/_Bay"     
4267.3 "6506_12-1" 14.81000 "Sandstone" -999.25 -999.25 100.0000      0.0     0.0 "c"            "m/c"          "Upper__beach_slope_/_beach"        "Delta_front_/_Bay"     
4267.4 "6506_12-1" 14.75000 "Sandstone" -999.25 -999.25 100.0000      0.0     0.0 "c"            "m/c"          "Upper__beach_slope_/_beach"        "Delta_front_/_Bay"     
4267.5 "6506_12-1" 14.70000 "Sandstone" -999.25 -999.25 100.0000      0.0     0.0 "c"            "m/c"          "Upper__beach_slope_/_beach"        "Delta_front_/_Bay"     
4267.6 "6506_12-1" 14.51000 "Sandstone" -999.25 -999.25 100.0000      0.0     0.0 "c/vc"         "vc"           "Upper__beach_slope_/_beach"        "Delta_front_/_Bay"     
4267.7 "6506_12-1" 13.65000 "Sandstone" -999.25 -999.25 100.0000      0.0     0.0 "c/vc"         "vc"           "Upper__beach_slope_/_beach"        "Delta_front_/_Bay"     
4267.8 "6506_12-1" 12.79000 "Sandstone" -999.25 -999.25 100.0000      0.0     0.0 "c/vc"         "vc"           "Upper__beach_slope_/_beach"        "Delta_front_/_Bay"     
4267.9 "6506_12-1" 11.94000 "Sandstone" -999.25 -999.25 100.0000      0.0     0.0 "c/vc"         "vc"           "Upper__beach_slope_/_beach"        "Delta_front_/_Bay"     
4268.0 "6506_12-1" 11.08000 "Sandstone" -999.25 -999.25 100.0000      0.0     0.0 "c/vc"         "vc"           "Upper__beach_slope_/_beach"        "Delta_front_/_Bay"     
4268.1 "6506_12-1" 11.34000 "Sandstone" -999.25 -999.25 100.0000      0.0     0.0 "c/vc"         "vc"           "Upper__beach_slope_/_beach"        "Delta_front_/_Bay"     
4268.2 "6506_12-1" 11.63000 "Sandstone" -999.25 -999.25 100.0000      0.0     0.0 "c/vc"         "vc"           "Upper__beach_slope_/_beach"        "Delta_front_/_Bay"     
4268.3 "6506_12-1" 12.15000 "Sandstone" -999.25 -999.25 100.0000      0.0     0.0 "c/vc"         "vc"           "Upper__beach_slope_/_beach"        "Delta_front_/_Bay"     
4268.4 "6506_12-1" 13.70000 "Sandstone" -999.25 -999.25 100.0000      0.0     0.0 "c/vc"         "vc"           "Upper__beach_slope_/_beach"        "Delta_front_/_Bay"     
4268.5 "6506_12-1" 15.26000 "Sandstone" -999.25 -999.25 100.0000      0.0     0.0 "c/vc"         "vc"           "Upper__beach_slope_/_beach"        "Delta_front_/_Bay"     
4268.6 "6506_12-1" 16.81000 "Sandstone" -999.25 -999.25 100.0000      0.0     0.0 "c/vc"         "vc"           "Upper__beach_slope_/_beach"        "Delta_front_/_Bay"     
4268.7 "6506_12-1" 17.97000 "Sandstone" -999.25 -999.25 100.0000      0.0     0.0 "f"            "granule"      "Upper__beach_slope_/_beach"        "Delta_front_/_Bay"     
4268.8 "6506_12-1" 18.75000 "Sandstone" -999.25 -999.25 100.0000      0.0     0.0 "f"            "granule"      "Upper__beach_slope_/_beach"        "Delta_front_/_Bay"     
4268.9 "6506_12-1" 19.53000 "Sandstone" -999.25 -999.25 100.0000      0.0     0.0 "f"            "granule"      "Upper__beach_slope_/_beach"        "Delta_front_/_Bay"     
4269.0 "6506_12-1" 20.08000 "Sandstone" -999.25 -999.25 100.0000      0.0     0.0 "f"            "granule"      "Upper__beach_slope_/_beach"        "Delta_front_/_Bay"     
4269.1 "6506_12-1" 19.60000 "Sandstone" -999.25 -999.25 100.0000      0.0     0.0 "f"            "granule"      "Upper__beach_slope_/_beach"        "Delta_front_/_Bay"     
4269.2 "6506_12-1" 19.12000 "Sandstone" -999.25 -999.25 100.0000      0.0     0.0 -999.25        -999.25        "Upper__beach_slope_/_beach"        "Delta_front_/_Bay"     
4269.3 "6506_12-1" 18.64000 "Sandstone" -999.25 -999.25 100.0000      0.0     0.0 "vc"           "vc/granule"   "Upper__beach_slope_/_beach"        "Delta_front_/_Bay"     
4269.4 "6506_12-1" 18.37000 "Sandstone" -999.25 -999.25 100.0000      0.0     0.0 "vc"           "vc/granule"   "Upper__beach_slope_/_beach"        "Delta_front_/_Bay"     
4269.5 "6506_12-1" 18.53000 "Sandstone" -999.25 -999.25 100.0000      0.0     0.0 "vc"           "vc/granule"   "Upper__beach_slope_/_beach"        "Delta_front_/_Bay"     
4269.6 "6506_12-1" 19.26000 "Sandstone" -999.25 -999.25 100.0000      0.0     0.0 "vc"           "vc/granule"   "Upper__beach_slope_/_beach"        "Delta_front_/_Bay"     
4269.7 "6506_12-1" 19.98000 "Sandstone" -999.25 -999.25 100.0000      0.0     0.0 "vc"           "vc/granule"   "Upper__beach_slope_/_beach"        "Delta_front_/_Bay"     
4269.8 "6506_12-1" 20.24000 "Sandstone" -999.25 -999.25 100.0000      0.0     0.0 "vc"           "vc/granule"   "Upper__beach_slope_/_beach"        "Delta_front_/_Bay"     
4269.9 "6506_12-1" 20.24000 "Sandstone" -999.25 -999.25 100.0000      0.0     0.0 "vc"           "vc/granule"   "Upper__beach_slope_/_beach"        "Delta_front_/_Bay"     
4270.0 "6506_12-1" 20.11000 "Sandstone" -999.25 -999.25 100.0000      0.0     0.0 "vc"           "vc/granule"   "Upper__beach_slope_/_beach"        "Delta_front_/_Bay"     
4270.1 "6506_12-1" 19.97000 "Sandstone" -999.25 -999.25 100.0000      0.0     0.0 "vc"           "vc/granule"   "Upper__beach_slope_/_beach"        "Delta_front_/_Bay"     
4270.2 "6506_12-1" 19.67000 "Sandstone" -999.25 -999.25 100.0000      0.0     0.0 "vc"           "vc/granule"   "Upper__beach_slope_/_beach"        "Delta_front_/_Bay"     
4270.3 "6506_12-1" 19.38000 "Sandstone" -999.25 -999.25 100.0000      0.0     0.0 "vc"           "vc/granule"   "Upper__beach_slope_/_beach"        "Delta_front_/_Bay"     
4270.4 "6506_12-1" 19.08000 "Sandstone" -999.25 -999.25 100.0000      0.0     0.0 "vc"           "vc/granule"   "Upper__beach_slope_/_beach"        "Delta_front_/_Bay"     
4270.5 "6506_12-1" 18.44000 "Sandstone" -999.25 -999.25 100.0000      0.0     0.0 "vc"           "vc/granule"   "Upper__beach_slope_/_beach"        "Delta_front_/_Bay"     
