~Version
VERS  .                                 3.0 : CWLS LAS ASCII Standard - Version 3.0
WRAP  . NO                                  : One line per depth step
DLM   . SPACE                               : Column data section delimiter
SOURCE. Converted to LAS by Log Studio 4.76 : GeoProvider

~Well
STRT.         3975.0 : Start depth
STOP.         4598.0 : Stop depth
STEP.              1 : Step
NULL.        -999.25 : No-value
COMP.                : Company
WELL. 6506/12-1      : Well
FLD .                : Field
LOC .                : Location
LATI.                : Latitude
LONG.                : Longitude
GDAT.                : Geodetic datum
CNTY.                : County
STAT.                : State
CTRY.                : Country
SRVC. GeoProvider AS : Service company
DATE.                : Date
API .                : API number
RUN .                : Run number

~Parameters
WellboreName.  : Wellbore name
RigName     .  : Rig name
StartDate   .  : Start date

~Curves
DEPTH.m            .  : null {F}Depth mMD
Hole_ID.-          .  : null {S}Hole ID
GR.API             .  : null {F}Gamma Ray
Lithology1.-       .  : null {S}Lithology 1
Lithology2.-       .  : null {S}Lithology 2
Lithology3.-       .  : null {S}Lithology 3
Lithology1.%       .  : null {F}Lithology 1 percentage
Lithology2.%       .  : null {F}Lithology 2 percentage
Lithology3.%       .  : null {F}Lithology 3 percentage
Grain_size_Top.-   .  : null {S}Grain size at the top 
Grain_size_Base.-  .  : null {S}Grain size at the bottom
Sub_Environment.-  .  : null {S}Sub Environment
Gross_Environment.-.  : null {S}Gross Environment

~Ascii
# ...
4247.1 "6506_12-1" 59.40000 "Sandstone" "Shale" -999.25  75.0000 25.00000     0.0 "m"            "m/c"          "Upper_and_lower_beach_slope"       "Delta_front_/_Bay"     
4247.2 "6506_12-1" 56.07000 "Sandstone" "Shale" -999.25  75.0000 25.00000     0.0 "m"            "m/c"          "Upper_and_lower_beach_slope"       "Delta_front_/_Bay"     
4247.3 "6506_12-1" 52.74000 "Sandstone" "Shale" -999.25  75.0000 25.00000     0.0 "m"            "m/c"          "Upper_and_lower_beach_slope"       "Delta_front_/_Bay"     
4247.4 "6506_12-1" 48.94000 "Sandstone" "Shale" -999.25  75.0000 25.00000     0.0 "m"            "m/c"          "Upper_and_lower_beach_slope"       "Delta_front_/_Bay"     
4247.5 "6506_12-1" 48.20000 "Sandstone" "Shale" -999.25  75.0000 25.00000     0.0 "m"            "m/c"          "Upper_and_lower_beach_slope"       "Delta_front_/_Bay"     
4247.6 "6506_12-1" 46.35000 "Sandstone" "Shale" -999.25  75.0000 25.00000     0.0 "m"            "m/c"          "Upper_and_lower_beach_slope"       "Delta_front_/_Bay"     
4247.7 "6506_12-1" 44.85000 "Sandstone" "Shale" -999.25  75.0000 25.00000     0.0 "m"            "m/c"          "Transgression"                     "Delta_front_/_Bay"     
4247.8 "6506_12-1" 43.36000 "Sandstone" "Shale" -999.25  75.0000 25.00000     0.0 "m"            "m/c"          "Transgression"                     "Delta_front_/_Bay"     
4247.9 "6506_12-1" 42.74000 "Sandstone" "Shale" -999.25  75.0000 25.00000     0.0 "m"            "m/c"          "Transgression"                     "Delta_front_/_Bay"     
4248.0 "6506_12-1" 42.71000 "Sandstone" "Shale" -999.25  75.0000 25.00000     0.0 "m"            "m/c"          "Transgression"                     "Delta_front_/_Bay"     
4248.1 "6506_12-1" 42.56000 "Sandstone" "Shale" -999.25  75.0000 25.00000     0.0 "m"            "m/c"          "Transgression"                     "Delta_front_/_Bay"     
4248.2 "6506_12-1" 41.26000 "Sandstone" "Shale" -999.25  75.0000 25.00000     0.0 "m"            "m/c"          "Transgression"                     "Delta_front_/_Bay"     
4248.3 "6506_12-1" 39.65000 "Sandstone" "Shale" -999.25  40.0000 60.00000     0.0 "vf/f"         "m"            "Tidal_affected_channel"            "Delta_front_/_Bay"     
4248.4 "6506_12-1" 38.03000 "Sandstone" "Shale" -999.25  40.0000 60.00000     0.0 "vf/f"         "m"            "Tidal_affected_channel"            "Delta_front_/_Bay"     
4248.5 "6506_12-1" 36.42000 "Sandstone" "Shale" -999.25  40.0000 60.00000     0.0 "vf/f"         "m"            "Tidal_affected_channel"            "Delta_front_/_Bay"     
4248.6 "6506_12-1" 35.44000 "Sandstone" "Shale" -999.25  40.0000 60.00000     0.0 "vf/f"         "m"            "Tidal_affected_channel"            "Delta_front_/_Bay"     
4248.7 "6506_12-1" 35.39000 "Sandstone" "Shale" -999.25  40.0000 60.00000     0.0 "vf/f"         "m"            "Tidal_affected_channel"            "Delta_front_/_Bay"     
4248.8 "6506_12-1" 35.34000 "Sandstone" "Shale" -999.25  40.0000 60.00000     0.0 "vf/f"         "m"            "Tidal_affected_channel"            "Delta_front_/_Bay"     
4248.9 "6506_12-1" 35.29000 "Sandstone" "Shale" -999.25  40.0000 60.00000     0.0 "vf/f"         "m"            "Tidal_affected_channel"            "Delta_front_/_Bay"     
4249.0 "6506_12-1" 34.84000 "Sandstone" "Shale" -999.25  40.0000 60.00000     0.0 "vf/f"         "m"            "Tidal_affected_channel"            "Delta_front_/_Bay"     
4249.1 "6506_12-1" 33.75000 "Sandstone" "Shale" -999.25  40.0000 60.00000     0.0 "vf/f"         "m"            "Tidal_affected_channel"            "Delta_front_/_Bay"     
4249.2 "6506_12-1" 32.66000 "Sandstone" "Shale" -999.25  40.0000 60.00000     0.0 "vf/f"         "m"            "Tidal_affected_channel"            "Delta_front_/_Bay"     
4249.3 "6506_12-1" 31.57000 "Sandstone" "Shale" -999.25  40.0000 60.00000     0.0 "vf/f"         "m"            "Tidal_affected_channel"            "Delta_front_/_Bay"     
4249.4 "6506_12-1" 30.48000 "Sandstone" "Shale" -999.25  40.0000 60.00000     0.0 "vf/f"         "m"            "Tidal_affected_channel"            "Delta_front_/_Bay"     
4249.5 "6506_12-1" 29.39000 "Sandstone" "Shale" -999.25  40.0000 60.00000     0.0 "vf/f"         "m"            "Tidal_affected_channel"            "Delta_front_/_Bay"     
4249.6 "6506_12-1" 28.30000 "Sandstone" "Shale" -999.25  40.0000 60.00000     0.0 "vf/f"         "m"            "Tidal_affected_channel"            "Delta_front_/_Bay"     
4249.7 "6506_12-1" 27.39000 "Sandstone" -999.25 -999.25 100.0000      0.0     0.0 "vc/granule"   "vc/granule"   "Tidal_affected_channel"            "Delta_front_/_Bay"     
4249.8 "6506_12-1" 27.16000 "Sandstone" -999.25 -999.25 100.0000      0.0     0.0 "vc/granule"   "vc/granule"   "Tidal_affected_channel"            "Delta_front_/_Bay"     
4249.9 "6506_12-1" 26.93000 "Sandstone" -999.25 -999.25 100.0000      0.0     0.0 "vc/granule"   "vc/granule"   "Tidal_affected_channel"            "Delta_front_/_Bay"     
4250.0 "6506_12-1" 26.70000 "Sandstone" -999.25 -999.25 100.0000      0.0     0.0 "vc/granule"   "vc/granule"   "Tidal_affected_channel"            "Delta_front_/_Bay"     
4250.1 "6506_12-1" 26.47000 "Sandstone" -999.25 -999.25 100.0000      0.0     0.0 "vc/granule"   "vc/granule"   "Tidal_affected_channel"            "Delta_front_/_Bay"     
4250.2 "6506_12-1" 26.23000 "Sandstone" -999.25 -999.25 100.0000      0.0     0.0 -999.25        -999.25        "Tidal_affected_channel"            "Delta_front_/_Bay"     
4250.3 "6506_12-1" 25.99000 "Sandstone" -999.25 -999.25 100.0000      0.0     0.0 -999.25        -999.25        "Tidal_affected_channel"            "Delta_front_/_Bay"     
4250.4 "6506_12-1" 25.75000 "Sandstone" -999.25 -999.25 100.0000      0.0     0.0 "vc"           "vc"           "Tidal_affected_channel"            "Delta_front_/_Bay"     
4250.5 "6506_12-1" 26.19000 "Sandstone" -999.25 -999.25 100.0000      0.0     0.0 "vc"           "vc"           "Tidal_affected_channel"            "Delta_front_/_Bay"     
4250.6 "6506_12-1" 26.95000 "Sandstone" -999.25 -999.25 100.0000      0.0     0.0 "vc"           "vc"           "Tidal_affected_channel"            "Delta_front_/_Bay"     
4250.7 "6506_12-1" 27.70000 "Sandstone" -999.25 -999.25 100.0000      0.0     0.0 "vc"           "vc"           "Tidal_affected_channel"            "Delta_front_/_Bay"     
4250.8 "6506_12-1" 27.53000 "Sandstone" -999.25 -999.25 100.0000      0.0     0.0 "vc"           "vc"           "Tidal_affected_channel"            "Delta_front_/_Bay"     
4250.9 "6506_12-1" 26.56000 -999.25   -999.25 -999.25 100.0000      0.0     0.0 -999.25        -999.25        "Tidal_affected_channel"            "Delta_front_/_Bay"     
4251.0 "6506_12-1" 25.40000 -999.25   -999.25 -999.25 100.0000      0.0     0.0 -999.25        -999.25        "Tidal_affected_channel"            "Delta_front_/_Bay"     
4251.1 "6506_12-1" 22.10000 -999.25   -999.25 -999.25 100.0000      0.0     0.0 -999.25        -999.25        "Tidal_affected_channel"            "Delta_front_/_Bay"     
4251.2 "6506_12-1" 18.79000 -999.25   -999.25 -999.25 100.0000      0.0     0.0 -999.25        -999.25        "Tidal_affected_channel"            "Delta_front_/_Bay"     
4251.3 "6506_12-1" 15.74000 -999.25   -999.25 -999.25 100.0000      0.0     0.0 -999.25        -999.25        "Tidal_affected_channel"            "Delta_front_/_Bay"     
4251.4 "6506_12-1" 13.32000 -999.25   -999.25 -999.25 100.0000      0.0     0.0 -999.25        -999.25        "Tidal_affected_channel"            "Delta_front_/_Bay"     
4251.5 "6506_12-1" 12.50000 -999.25   -999.25 -999.25 100.0000      0.0     0.0 -999.25        -999.25        "Tidal_affected_channel"            "Delta_front_/_Bay"     
4251.6 "6506_12-1" 11.69000 -999.25   -999.25 -999.25 100.0000      0.0     0.0 -999.25        -999.25        "Tidal_affected_channel"            "Delta_front_/_Bay"     
4251.7 "6506_12-1" 10.88000 -999.25   -999.25 -999.25 100.0000      0.0     0.0 -999.25        -999.25        "Tidal_affected_channel"            "Delta_front_/_Bay"     
