~Version
VERS  .                                 3.0 : CWLS LAS ASCII Standard - Version 3.0
WRAP  . NO                                  : One line per depth step
DLM   . SPACE                               : Column data section delimiter
SOURCE. Converted to LAS by Log Studio 4.76 : GeoProvider

~Well
STRT.         3975.0 : Start depth
STOP.         4598.0 : Stop depth
STEP.              1 : Step
NULL.        -999.25 : No-value
COMP.                : Company
WELL. 6506/12-1      : Well
FLD .                : Field
LOC .                : Location
LATI.                : Latitude
LONG.                : Longitude
GDAT.                : Geodetic datum
CNTY.                : County
STAT.                : State
CTRY.                : Country
SRVC. GeoProvider AS : Service company
DATE.                : Date
API .                : API number
RUN .                : Run number

~Parameters
WellboreName.  : Wellbore name
RigName     .  : Rig name
StartDate   .  : Start date

~Curves
DEPTH.m            .  : null {F}Depth mMD
Hole_ID.-          .  : null {S}Hole ID
GR.API             .  : null {F}Gamma Ray
Lithology1.-       .  : null {S}Lithology 1
Lithology2.-       .  : null {S}Lithology 2
Lithology3.-       .  : null {S}Lithology 3
Lithology1.%       .  : null {F}Lithology 1 percentage
Lithology2.%       .  : null {F}Lithology 2 percentage
Lithology3.%       .  : null {F}Lithology 3 percentage
Grain_size_Top.-   .  : null {S}Grain size at the top 
Grain_size_Base.-  .  : null {S}Grain size at the bottom
Sub_Environment.-  .  : null {S}Sub Environment
Gross_Environment.-.  : null {S}Gross Environment

~Ascii
# ...
4097.2 "6506_12-1" 14.63000 "Sandstone" -999.25 -999.25 100.0000      0.0     0.0 "c/vc"         "c/vc"         "Upper_beach_slope"                 "Prograding_delta_front"
4097.3 "6506_12-1" 15.41000 "Sandstone" -999.25 -999.25 100.0000      0.0     0.0 "c/vc"         "c/vc"         "Upper_beach_slope"                 "Prograding_delta_front"
4097.4 "6506_12-1" 16.18000 "Sandstone" -999.25 -999.25 100.0000      0.0     0.0 -999.25        -999.25        "Upper_beach_slope"                 "Prograding_delta_front"
4097.5 "6506_12-1" 15.76000 "Sandstone" -999.25 -999.25 100.0000      0.0     0.0 -999.25        -999.25        "Upper_beach_slope"                 "Prograding_delta_front"
4097.6 "6506_12-1" 14.52000 "Sandstone" -999.25 -999.25 100.0000      0.0     0.0 -999.25        -999.25        "Upper_beach_slope"                 "Prograding_delta_front"
4097.7 "6506_12-1" 14.06000 "Sandstone" -999.25 -999.25 100.0000      0.0     0.0 -999.25        -999.25        "Upper_beach_slope"                 "Prograding_delta_front"
4097.8 "6506_12-1" 13.99000 "Sandstone" -999.25 -999.25 100.0000      0.0     0.0 -999.25        -999.25        "Upper_beach_slope"                 "Prograding_delta_front"
4097.9 "6506_12-1" 13.95000 "Sandstone" -999.25 -999.25 100.0000      0.0     0.0 "m"            "c"            "Upper_beach_slope"                 "Prograding_delta_front"
4098.0 "6506_12-1" 14.71000 "Sandstone" -999.25 -999.25 100.0000      0.0     0.0 "m"            "c"            "Upper_beach_slope"                 "Prograding_delta_front"
4098.1 "6506_12-1" 15.46000 "Sandstone" -999.25 -999.25 100.0000      0.0     0.0 "m"            "c"            "Upper_beach_slope"                 "Prograding_delta_front"
4098.2 "6506_12-1" 16.22000 "Sandstone" -999.25 -999.25 100.0000      0.0     0.0 "m"            "c"            "Upper_beach_slope"                 "Prograding_delta_front"
4098.3 "6506_12-1" 16.02000 "Sandstone" -999.25 -999.25 100.0000      0.0     0.0 "m"            "c"            "Upper_beach_slope"                 "Prograding_delta_front"
4098.4 "6506_12-1" 15.45000 "Sandstone" -999.25 -999.25 100.0000      0.0     0.0 "m"            "c"            "Upper_beach_slope"                 "Prograding_delta_front"
4098.5 "6506_12-1" 14.89000 "Sandstone" -999.25 -999.25 100.0000      0.0     0.0 "m"            "c"            "Upper_beach_slope"                 "Prograding_delta_front"
4098.6 "6506_12-1" 14.32000 "Sandstone" -999.25 -999.25 100.0000      0.0     0.0 "m"            "c"            "Upper_beach_slope"                 "Prograding_delta_front"
4098.7 "6506_12-1" 14.13000 "Sandstone" -999.25 -999.25 100.0000      0.0     0.0 "m"            "c"            "Upper_beach_slope"                 "Prograding_delta_front"
4098.8 "6506_12-1" 14.29000 "Sandstone" -999.25 -999.25 100.0000      0.0     0.0 "m"            "c"            "Upper_beach_slope"                 "Prograding_delta_front"
4098.9 "6506_12-1" 14.67000 "Sandstone" -999.25 -999.25 100.0000      0.0     0.0 "m"            "c"            "Upper_beach_slope"                 "Prograding_delta_front"
4099.0 "6506_12-1" 15.11000 "Sandstone" -999.25 -999.25 100.0000      0.0     0.0 "m"            "c"            "Upper_beach_slope"                 "Prograding_delta_front"
4099.1 "6506_12-1" 15.56000 "Sandstone" -999.25 -999.25 100.0000      0.0     0.0 "m"            "c"            "Upper_beach_slope"                 "Prograding_delta_front"
4099.2 "6506_12-1" 15.88000 "Sandstone" -999.25 -999.25 100.0000      0.0     0.0 "m"            "c"            "Upper_beach_slope"                 "Prograding_delta_front"
4099.3 "6506_12-1" 15.88000 "Sandstone" -999.25 -999.25 100.0000      0.0     0.0 "m"            "c"            "Upper_beach_slope"                 "Prograding_delta_front"
4099.4 "6506_12-1" 15.88000 "Sandstone" -999.25 -999.25 100.0000      0.0     0.0 "m"            "c"            "Upper_beach_slope"                 "Prograding_delta_front"
4099.5 "6506_12-1" 15.88000 "Sandstone" -999.25 -999.25 100.0000      0.0     0.0 "m"            "c"            "Upper_beach_slope"                 "Prograding_delta_front"
4099.6 "6506_12-1" 15.82000 "Sandstone" -999.25 -999.25 100.0000      0.0     0.0 "m"            "c"            "Upper_beach_slope"                 "Prograding_delta_front"
4099.7 "6506_12-1" 15.75000 "Sandstone" -999.25 -999.25 100.0000      0.0     0.0 "m"            "c"            "Upper_beach_slope"                 "Prograding_delta_front"
4099.8 "6506_12-1" 15.67000 "Sandstone" -999.25 -999.25 100.0000      0.0     0.0 "m"            "c"            "Upper_beach_slope"                 "Prograding_delta_front"
4099.9 "6506_12-1" 15.59000 "Sandstone" -999.25 -999.25 100.0000      0.0     0.0 "m"            "c"            "Upper_beach_slope"                 "Prograding_delta_front"
4100.0 "6506_12-1" 15.72000 "Sandstone" -999.25 -999.25 100.0000      0.0     0.0 "m"            "c"            "Upper_beach_slope"                 "Prograding_delta_front"
4100.1 "6506_12-1" 16.17000 "Sandstone" -999.25 -999.25 100.0000      0.0     0.0 "m"            "c"            "Upper_beach_slope"                 "Prograding_delta_front"
4100.2 "6506_12-1" 16.63000 "Sandstone" -999.25 -999.25 100.0000      0.0     0.0 "m"            "c"            "Upper_beach_slope"                 "Prograding_delta_front"
4100.3 "6506_12-1" 17.08000 "Sandstone" -999.25 -999.25 100.0000      0.0     0.0 "m"            "c"            "Upper_beach_slope"                 "Prograding_delta_front"
4100.4 "6506_12-1" 17.53000 "Sandstone" -999.25 -999.25 100.0000      0.0     0.0 "m"            "c"            "Upper_beach_slope"                 "Prograding_delta_front"
4100.5 "6506_12-1" 17.98000 "Sandstone" -999.25 -999.25 100.0000      0.0     0.0 "m"            "c"            "Upper_beach_slope"                 "Prograding_delta_front"
4100.6 "6506_12-1" 18.43000 "Sandstone" -999.25 -999.25 100.0000      0.0     0.0 "m"            "c"            "Upper_beach_slope"                 "Prograding_delta_front"
4100.7 "6506_12-1" 18.34000 "Sandstone" -999.25 -999.25 100.0000      0.0     0.0 "m"            "c"            "Upper_beach_slope"                 "Prograding_delta_front"
4100.8 "6506_12-1" 18.21000 "Sandstone" -999.25 -999.25 100.0000      0.0     0.0 "m"            "c"            "Upper_beach_slope"                 "Prograding_delta_front"
4100.9 "6506_12-1" 18.08000 "Sandstone" -999.25 -999.25 100.0000      0.0     0.0 "m"            "c"            "Upper_beach_slope"                 "Prograding_delta_front"
4101.0 "6506_12-1" 17.94000 "Sandstone" -999.25 -999.25 100.0000      0.0     0.0 "m"            "c"            "Upper_beach_slope"                 "Prograding_delta_front"
4101.1 "6506_12-1" 17.81000 "Sandstone" -999.25 -999.25 100.0000      0.0     0.0 "m"            "c"            "Upper_beach_slope"                 "Prograding_delta_front"
4101.2 "6506_12-1" 17.68000 "Sandstone" -999.25 -999.25 100.0000      0.0     0.0 "m"            "c"            "Upper_beach_slope"                 "Prograding_delta_front"
4101.3 "6506_12-1" 17.55000 "Sandstone" -999.25 -999.25 100.0000      0.0     0.0 "m"            "c"            "Upper_beach_slope"                 "Prograding_delta_front"
4101.4 "6506_12-1" 17.42000 "Sandstone" -999.25 -999.25 100.0000      0.0     0.0 "m"            "c"            "Upper_beach_slope"                 "Prograding_delta_front"
4101.5 "6506_12-1" 17.05000 "Sandstone" -999.25 -999.25 100.0000      0.0     0.0 "m"            "c"            "Upper_beach_slope"                 "Prograding_delta_front"
4101.6 "6506_12-1" 16.57000 "Sandstone" -999.25 -999.25 100.0000      0.0     0.0 "m"            "c"            "Upper_beach_slope"                 "Prograding_delta_front"
4101.7 "6506_12-1" 16.10000 "Sandstone" -999.25 -999.25 100.0000      0.0     0.0 "m"            "c"            "Upper_beach_slope"                 "Prograding_delta_front"
4101.8 "6506_12-1" 15.63000 "Sandstone" -999.25 -999.25 100.0000      0.0     0.0 "m"            "c"            "Upper_beach_slope"                 "Prograding_delta_front"
