~Version
VERS  .                                 3.0 : CWLS LAS ASCII Standard - Version 3.0
WRAP  . NO                                  : One line per depth step
DLM   . SPACE                               : Column data section delimiter
SOURCE. Converted to LAS by Log Studio 4.76 : GeoProvider

~Well
STRT.         3975.0 : Start depth
STOP.         4598.0 : Stop depth
STEP.              1 : Step
NULL.        -999.25 : No-value
COMP.                : Company
WELL. 6506/12-1      : Well
FLD .                : Field
LOC .                : Location
LATI.                : Latitude
LONG.                : Longitude
GDAT.                : Geodetic datum
CNTY.                : County
STAT.                : State
CTRY.                : Country
SRVC. GeoProvider AS : Service company
DATE.                : Date
API .                : API number
RUN .                : Run number

~Parameters
WellboreName.  : Wellbore name
RigName     .  : Rig name
StartDate   .  : Start date

~Curves
DEPTH.m            .  : null {F}Depth mMD
Hole_ID.-          .  : null {S}Hole ID
GR.API             .  : null {F}Gamma Ray
Lithology1.-       .  : null {S}Lithology 1
Lithology2.-       .  : null {S}Lithology 2
Lithology3.-       .  : null {S}Lithology 3
Lithology1.%       .  : null {F}Lithology 1 percentage
Lithology2.%       .  : null {F}Lithology 2 percentage
Lithology3.%       .  : null {F}Lithology 3 percentage
Grain_size_Top.-   .  : null {S}Grain size at the top 
Grain_size_Base.-  .  : null {S}Grain size at the bottom
Sub_Environment.-  .  : null {S}Sub Environment
Gross_Environment.-.  : null {S}Gross Environment

~Ascii
# ...
4594.6 "6506_12-1"  -999.25 "Sandstone" "Shale" -999.25  15.0000 85.00000     0.0 "vf"           "vf"           "Crevasse_splay_Floodplain"         "Floodplain_(delta_slope)"
4594.7 "6506_12-1"  -999.25 "Sandstone" "Shale" -999.25  15.0000 85.00000     0.0 "vf"           "vf"           "Crevasse_splay_Floodplain"         "Floodplain_(delta_slope)"
4594.8 "6506_12-1"  -999.25 "Sandstone" "Shale" -999.25  15.0000 85.00000     0.0 "vf"           "vf"           "Crevasse_splay_Floodplain"         "Floodplain_(delta_slope)"
4594.9 "6506_12-1"  -999.25 "Sandstone" "Shale" -999.25  15.0000 85.00000     0.0 "vf"           "vf"           "Crevasse_splay_Floodplain"         "Floodplain_(delta_slope)"
4595.0 "6506_12-1"  -999.25 "Sandstone" "Shale" -999.25  15.0000 85.00000     0.0 "vf"           "vf"           "Crevasse_splay_Floodplain"         "Floodplain_(delta_slope)"
4595.1 "6506_12-1"  -999.25 "Sandstone" "Shale" -999.25  95.0000  5.00000     0.0 "f"            "f/m"          "Crevasse_splay"                    "Floodplain_(delta_slope)"
4595.2 "6506_12-1"  -999.25 "Sandstone" "Shale" -999.25  95.0000  5.00000     0.0 "f"            "f/m"          "Crevasse_splay"                    "Floodplain_(delta_slope)"
4595.3 "6506_12-1"  -999.25 "Sandstone" "Shale" -999.25  95.0000  5.00000     0.0 "f"            "f/m"          "Crevasse_splay"                    "Floodplain_(delta_slope)"
4595.4 "6506_12-1"  -999.25 "Sandstone" "Shale" -999.25  95.0000  5.00000     0.0 "f"            "f/m"          "Crevasse_splay"                    "Floodplain_(delta_slope)"
4595.5 "6506_12-1"  -999.25 "Sandstone" "Shale" -999.25  95.0000  5.00000     0.0 "f"            "f/m"          "Crevasse_splay"                    "Floodplain_(delta_slope)"
4595.6 "6506_12-1"  -999.25 "Sandstone" "Shale" -999.25  95.0000  5.00000     0.0 "f"            "f/m"          "Crevasse_splay"                    "Floodplain_(delta_slope)"
4595.7 "6506_12-1"  -999.25 "Sandstone" "Shale" -999.25  95.0000  5.00000     0.0 "f"            "f/m"          "Crevasse_splay"                    "Floodplain_(delta_slope)"
4595.8 "6506_12-1"  -999.25 "Sandstone" "Shale" -999.25  95.0000  5.00000     0.0 "f"            "f/m"          "Crevasse_splay"                    "Floodplain_(delta_slope)"
4595.9 "6506_12-1"  -999.25 "Sandstone" "Shale" -999.25  95.0000  5.00000     0.0 "f"            "f/m"          "Crevasse_splay"                    "Floodplain_(delta_slope)"
4596.0 "6506_12-1"  -999.25 "Sandstone" "Shale" -999.25  95.0000  5.00000     0.0 "f"            "f/m"          "Crevasse_splay"                    "Floodplain_(delta_slope)"
4596.1 "6506_12-1"  -999.25 "Sandstone" "Shale" -999.25  95.0000  5.00000     0.0 "f"            "f/m"          "Crevasse_splay"                    "Floodplain_(delta_slope)"
4596.2 "6506_12-1"  -999.25 "Sandstone" "Shale" -999.25  95.0000  5.00000     0.0 "f"            "f/m"          "Crevasse_splay"                    "Floodplain_(delta_slope)"
4596.3 "6506_12-1"  -999.25 "Sandstone" "Shale" -999.25  95.0000  5.00000     0.0 "f"            "f/m"          "Crevasse_splay"                    "Floodplain_(delta_slope)"
4596.4 "6506_12-1"  -999.25 "Sandstone" "Shale" -999.25  95.0000  5.00000     0.0 "f"            "f/m"          "Crevasse_splay"                    "Floodplain_(delta_slope)"
4596.5 "6506_12-1"  -999.25 "Sandstone" "Shale" -999.25  95.0000  5.00000     0.0 "f"            "f/m"          "Crevasse_splay"                    "Floodplain_(delta_slope)"
4596.6 "6506_12-1"  -999.25 "Sandstone" "Shale" -999.25  95.0000  5.00000     0.0 "f"            "f/m"          "Crevasse_splay"                    "Floodplain_(delta_slope)"
4596.7 "6506_12-1"  -999.25 "Sandstone" "Shale" -999.25  95.0000  5.00000     0.0 "f"            "f/m"          "Crevasse_splay"                    "Floodplain_(delta_slope)"
4596.8 "6506_12-1"  -999.25 "Sandstone" "Shale" -999.25  95.0000  5.00000     0.0 "f"            "f/m"          "Crevasse_splay"                    "Floodplain_(delta_slope)"
4596.9 "6506_12-1"  -999.25 "Sandstone" "Shale" -999.25  95.0000  5.00000     0.0 "f"            "f/m"          "Crevasse_splay"                    "Floodplain_(delta_slope)"
4597.0 "6506_12-1"  -999.25 "Sandstone" "Shale" -999.25  95.0000  5.00000     0.0 "f"            "f/m"          "Crevasse_splay"                    "Floodplain_(delta_slope)"
4597.1 "6506_12-1"  -999.25 "Sandstone" "Shale" -999.25  95.0000  5.00000     0.0 "f"            "f/m"          "Crevasse_splay"                    "Floodplain_(delta_slope)"
4597.2 "6506_12-1"  -999.25 "Sandstone" "Shale" -999.25  95.0000  5.00000     0.0 "f"            "f/m"          "Crevasse_splay"                    "Floodplain_(delta_slope)"
4597.3 "6506_12-1"  -999.25 "Sandstone" "Shale" -999.25  97.0000  3.00000     0.0 "f"            "f"            "Crevasse_splay"                    "Floodplain_(delta_slope)"
4597.4 "6506_12-1"  -999.25 "Sandstone" "Shale" -999.25  97.0000  3.00000     0.0 "f"            "f"            "Crevasse_splay"                    "Floodplain_(delta_slope)"
4597.5 "6506_12-1"  -999.25 "Sandstone" "Shale" -999.25  97.0000  3.00000     0.0 "f"            "f"            "Crevasse_splay"                    "Floodplain_(delta_slope)"
4597.6 "6506_12-1"  -999.25 "Sandstone" "Shale" -999.25  97.0000  3.00000     0.0 "f"            "f"            "Crevasse_splay"                    "Floodplain_(delta_slope)"
4597.7 "6506_12-1"  -999.25 "Sandstone" "Shale" -999.25  97.0000  3.00000     0.0 "f"            "f"            "Crevasse_splay"                    "Floodplain_(delta_slope)"
4597.8 "6506_12-1"  -999.25 "Sandstone" "Shale" -999.25  97.0000  3.00000     0.0 "f"            "f"            "Crevasse_splay"                    "Floodplain_(delta_slope)"
4597.9 "6506_12-1"  -999.25 "Sandstone" "Shale" -999.25  97.0000  3.00000     0.0 "f"            "f"            "Crevasse_splay"                    "Floodplain_(delta_slope)"
4598.0 "6506_12-1"  -999.25 "Sandstone" "Shale" -999.25  97.0000  3.00000     0.0 "f"            "f"            "Crevasse_splay"                    "Floodplain_(delta_slope)"
