~Version
VERS  .                                 3.0 : CWLS LAS ASCII Standard - Version 3.0
WRAP  . NO                                  : One line per depth step
DLM   . SPACE                               : Column data section delimiter
SOURCE. Converted to LAS by Log Studio 4.76 : GeoProvider

~Well
STRT.         3975.0 : Start depth
STOP.         4598.0 : Stop depth
STEP.              1 : Step
NULL.        -999.25 : No-value
COMP.                : Company
WELL. 6506/12-1      : Well
FLD .                : Field
LOC .                : Location
LATI.                : Latitude
LONG.                : Longitude
GDAT.                : Geodetic datum
CNTY.                : County
STAT.                : State
CTRY.                : Country
SRVC. GeoProvider AS : Service company
DATE.                : Date
API .                : API number
RUN .                : Run number

~Parameters
WellboreName.  : Wellbore name
RigName     .  : Rig name
StartDate   .  : Start date

~Curves
DEPTH.m            .  : null {F}Depth mMD
Hole_ID.-          .  : null {S}Hole ID
GR.API             .  : null {F}Gamma Ray
Lithology1.-       .  : null {S}Lithology 1
Lithology2.-       .  : null {S}Lithology 2
Lithology3.-       .  : null {S}Lithology 3
Lithology1.%       .  : null {F}Lithology 1 percentage
Lithology2.%       .  : null {F}Lithology 2 percentage
Lithology3.%       .  : null {F}Lithology 3 percentage
Grain_size_Top.-   .  : null {S}Grain size at the top 
Grain_size_Base.-  .  : null {S}Grain size at the bottom
Sub_Environment.-  .  : null {S}Sub Environment
Gross_Environment.-.  : null {S}Gross Environment

~Ascii
# ...
4228.3 "6506_12-1" 22.44000 "Sandstone" -999.25 -999.25 100.0000      0.0     0.0 "vc/granule"   "vc/granule"   "Proximal_bay"                      "Delta_front_/_Bay"     
4228.4 "6506_12-1" 22.97000 "Sandstone" -999.25 -999.25 100.0000      0.0     0.0 "vc/granule"   "vc/granule"   "Proximal_bay"                      "Delta_front_/_Bay"     
4228.5 "6506_12-1" 23.41000 "Sandstone" -999.25 -999.25 100.0000      0.0     0.0 "vc/granule"   "vc/granule"   "Proximal_bay"                      "Delta_front_/_Bay"     
4228.6 "6506_12-1" 23.25000 "Sandstone" -999.25 -999.25 100.0000      0.0     0.0 "vc/granule"   "vc/granule"   "Proximal_bay"                      "Delta_front_/_Bay"     
4228.7 "6506_12-1" 23.04000 "Sandstone" -999.25 -999.25 100.0000      0.0     0.0 "vc/granule"   "vc/granule"   "Proximal_bay"                      "Delta_front_/_Bay"     
4228.8 "6506_12-1" 21.84000 "Sandstone" -999.25 -999.25 100.0000      0.0     0.0 "vc/granule"   "vc/granule"   "Proximal_bay"                      "Delta_front_/_Bay"     
4228.9 "6506_12-1" 20.73000 "Sandstone" -999.25 -999.25 100.0000      0.0     0.0 "vc/granule"   "vc/granule"   "Proximal_bay"                      "Delta_front_/_Bay"     
4229.0 "6506_12-1" 20.31000 "Sandstone" -999.25 -999.25 100.0000      0.0     0.0 "vc/granule"   "vc/granule"   "Proximal_bay"                      "Delta_front_/_Bay"     
4229.1 "6506_12-1" 19.91000 "Sandstone" -999.25 -999.25 100.0000      0.0     0.0 "vc/granule"   "vc/granule"   "Proximal_bay"                      "Delta_front_/_Bay"     
4229.2 "6506_12-1" 20.88000 "Sandstone" -999.25 -999.25 100.0000      0.0     0.0 "vc/granule"   "vc/granule"   "Proximal_bay"                      "Delta_front_/_Bay"     
4229.3 "6506_12-1" 21.85000 "Sandstone" -999.25 -999.25 100.0000      0.0     0.0 "vc/granule"   "vc/granule"   "Proximal_bay"                      "Delta_front_/_Bay"     
4229.4 "6506_12-1" 22.83000 "Sandstone" -999.25 -999.25 100.0000      0.0     0.0 "vc/granule"   "vc/granule"   "Proximal_bay"                      "Delta_front_/_Bay"     
4229.5 "6506_12-1" 23.80000 "Sandstone" -999.25 -999.25 100.0000      0.0     0.0 "vc/granule"   "vc/granule"   "Proximal_bay"                      "Delta_front_/_Bay"     
4229.6 "6506_12-1" 24.77000 "Sandstone" -999.25 -999.25 100.0000      0.0     0.0 "vc/granule"   "vc/granule"   "Proximal_bay"                      "Delta_front_/_Bay"     
4229.7 "6506_12-1" 24.24000 -999.25   -999.25 -999.25 100.0000      0.0     0.0 -999.25        -999.25        "Proximal_bay"                      "Delta_front_/_Bay"     
4229.8 "6506_12-1" 23.26000 -999.25   -999.25 -999.25 100.0000      0.0     0.0 -999.25        -999.25        "Proximal_bay"                      "Delta_front_/_Bay"     
4229.9 "6506_12-1" 22.28000 -999.25   -999.25 -999.25 100.0000      0.0     0.0 -999.25        -999.25        "Proximal_bay"                      "Delta_front_/_Bay"     
4230.0 "6506_12-1" 21.30000 -999.25   -999.25 -999.25 100.0000      0.0     0.0 -999.25        -999.25        "Proximal_bay"                      "Delta_front_/_Bay"     
4230.1 "6506_12-1" 18.84000 -999.25   -999.25 -999.25 100.0000      0.0     0.0 -999.25        -999.25        "Proximal_bay"                      "Delta_front_/_Bay"     
4230.2 "6506_12-1" 15.86000 -999.25   -999.25 -999.25 100.0000      0.0     0.0 -999.25        -999.25        "Proximal_bay"                      "Delta_front_/_Bay"     
4230.3 "6506_12-1" 13.16000 -999.25   -999.25 -999.25 100.0000      0.0     0.0 -999.25        -999.25        "Proximal_bay"                      "Delta_front_/_Bay"     
4230.4 "6506_12-1" 12.49000 -999.25   -999.25 -999.25 100.0000      0.0     0.0 -999.25        -999.25        "Proximal_bay"                      "Delta_front_/_Bay"     
4230.5 "6506_12-1" 11.83000 -999.25   -999.25 -999.25 100.0000      0.0     0.0 -999.25        -999.25        "Proximal_bay"                      "Delta_front_/_Bay"     
4230.6 "6506_12-1" 11.25000 -999.25   -999.25 -999.25 100.0000      0.0     0.0 -999.25        -999.25        "Proximal_bay"                      "Delta_front_/_Bay"     
4230.7 "6506_12-1" 11.17000 -999.25   -999.25 -999.25 100.0000      0.0     0.0 -999.25        -999.25        "Proximal_bay"                      "Delta_front_/_Bay"     
4230.8 "6506_12-1" 11.09000 -999.25   -999.25 -999.25 100.0000      0.0     0.0 -999.25        -999.25        "Proximal_bay"                      "Delta_front_/_Bay"     
4230.9 "6506_12-1" 11.01000 -999.25   -999.25 -999.25 100.0000      0.0     0.0 -999.25        -999.25        "Proximal_bay"                      "Delta_front_/_Bay"     
4231.0 "6506_12-1" 10.93000 -999.25   -999.25 -999.25 100.0000      0.0     0.0 -999.25        -999.25        "Proximal_bay"                      "Delta_front_/_Bay"     
4231.1 "6506_12-1" 10.85000 "Sandstone" -999.25 -999.25 100.0000      0.0     0.0 "vc/granule"   "vc/granule"   "Proximal_bay"                      "Delta_front_/_Bay"     
4231.2 "6506_12-1" 10.77000 "Sandstone" -999.25 -999.25 100.0000      0.0     0.0 "vc/granule"   "vc/granule"   "Proximal_bay"                      "Delta_front_/_Bay"     
4231.3 "6506_12-1" 10.69000 "Sandstone" -999.25 -999.25 100.0000      0.0     0.0 "vc/granule"   "vc/granule"   "Proximal_bay"                      "Delta_front_/_Bay"     
4231.4 "6506_12-1" 10.77000 "Sandstone" -999.25 -999.25 100.0000      0.0     0.0 "vc/granule"   "vc/granule"   "Proximal_bay"                      "Delta_front_/_Bay"     
4231.5 "6506_12-1" 11.05000 "Sandstone" -999.25 -999.25 100.0000      0.0     0.0 "vc/granule"   "vc/granule"   "Proximal_bay"                      "Delta_front_/_Bay"     
4231.6 "6506_12-1" 11.33000 "Sandstone" -999.25 -999.25 100.0000      0.0     0.0 "vc/granule"   "vc/granule"   "Proximal_bay"                      "Delta_front_/_Bay"     
4231.7 "6506_12-1" 11.60000 "Sandstone" -999.25 -999.25 100.0000      0.0     0.0 "vc/granule"   "vc/granule"   "Proximal_bay"                      "Delta_front_/_Bay"     
4231.8 "6506_12-1" 11.88000 "Sandstone" -999.25 -999.25 100.0000      0.0     0.0 "vc/granule"   "vc/granule"   "Proximal_bay"                      "Delta_front_/_Bay"     
4231.9 "6506_12-1" 11.90000 "Sandstone" -999.25 -999.25 100.0000      0.0     0.0 "vc/granule"   "vc/granule"   "Proximal_bay"                      "Delta_front_/_Bay"     
4232.0 "6506_12-1" 11.69000 "Sandstone" -999.25 -999.25 100.0000      0.0     0.0 "vc/granule"   "vc/granule"   "Proximal_bay"                      "Delta_front_/_Bay"     
4232.1 "6506_12-1" 11.48000 "Sandstone" -999.25 -999.25 100.0000      0.0     0.0 "vc/granule"   "vc/granule"   "Proximal_bay"                      "Delta_front_/_Bay"     
4232.2 "6506_12-1" 11.27000 "Sandstone" -999.25 -999.25 100.0000      0.0     0.0 "vc/granule"   "vc/granule"   "Proximal_bay"                      "Delta_front_/_Bay"     
4232.3 "6506_12-1" 11.06000 "Sandstone" -999.25 -999.25 100.0000      0.0     0.0 "vc/granule"   "vc/granule"   "Proximal_bay"                      "Delta_front_/_Bay"     
4232.4 "6506_12-1" 10.85000 "Sandstone" -999.25 -999.25 100.0000      0.0     0.0 "vc/granule"   "vc/granule"   "Proximal_bay"                      "Delta_front_/_Bay"     
4232.5 "6506_12-1" 10.64000 "Sandstone" -999.25 -999.25 100.0000      0.0     0.0 "vc/granule"   "vc/granule"   "Proximal_bay"                      "Delta_front_/_Bay"     
4232.6 "6506_12-1" 10.45000 "Sandstone" -999.25 -999.25 100.0000      0.0     0.0 "vc/granule"   "vc/granule"   "Proximal_bay"                      "Delta_front_/_Bay"     
4232.7 "6506_12-1" 10.26000 "Sandstone" -999.25 -999.25 100.0000      0.0     0.0 "vc/granule"   "vc/granule"   "Proximal_bay"                      "Delta_front_/_Bay"     
4232.8 "6506_12-1" 10.07000 "Sandstone" -999.25 -999.25 100.0000      0.0     0.0 "vc/granule"   "vc/granule"   "Proximal_bay"                      "Delta_front_/_Bay"     
4232.9 "6506_12-1"  9.88000 "Sandstone" -999.25 -999.25 100.0000      0.0     0.0 "vc/granule"   "vc/granule"   "Proximal_bay"                      "Delta_front_/_Bay"     
