~Version
VERS  .                                 3.0 : CWLS LAS ASCII Standard - Version 3.0
WRAP  . NO                                  : One line per depth step
DLM   . SPACE                               : Column data section delimiter
SOURCE. Converted to LAS by Log Studio 4.76 : GeoProvider

~Well
STRT.         2260.0 : Start depth
STOP.         2495.0 : Stop depth
STEP.              1 : Step
NULL.        -999.25 : No-value
COMP.                : Company
WELL. 6507/8-1       : Well
FLD .                : Field
LOC .                : Location
LATI.                : Latitude
LONG.                : Longitude
GDAT.                : Geodetic datum
CNTY.                : County
STAT.                : State
CTRY.                : Country
SRVC. GeoProvider AS : Service company
DATE.                : Date
API .                : API number
RUN .                : Run number

~Parameters
WellboreName.  : Wellbore name
RigName     .  : Rig name
StartDate   .  : Start date

~Curves
DEPTH.m            .  : null {F}Depth mMD
Hole_ID.-          .  : null {S}Hole ID
GR.API             .  : null {F}Gamma Ray
Lithology1.-       .  : null {S}Lithology 1
Lithology2.-       .  : null {S}Lithology 2
Lithology3.-       .  : null {S}Lithology 3
Lithology1.%       .  : null {F}Lithology 1 percentage
Lithology2.%       .  : null {F}Lithology 2 percentage
Lithology3.%       .  : null {F}Lithology 3 percentage
Grain_size_Top.-   .  : null {S}Grain size at the top 
Grain_size_Base.-  .  : null {S}Grain size at the bottom
Sub_Environment.-  .  : null {S}Sub Environment
Gross_Environment.-.  : null {S}Gross Environment

~Ascii
# ...
2479.1 "6507_8-1" 108.6400 "Sandstone"                   "Shale"   -999.25    70.0000 30.00000      0.0 "f/m"          "vf/f"     "Upper_/_lower_shoreface"          -999.25
2479.2 "6507_8-1" 105.0400 "Sandstone"                   "Shale"   -999.25    70.0000 30.00000      0.0 "f/m"          "vf/f"     "Upper_/_lower_shoreface"          -999.25
2479.3 "6507_8-1" 101.4400 "Sandstone"                   "Shale"   -999.25    70.0000 30.00000      0.0 "f/m"          "vf/f"     "Upper_/_lower_shoreface"          -999.25
2479.4 "6507_8-1"  97.8300 "Sandstone"                   "Shale"   -999.25    90.0000 10.00000      0.0 "m"            "vf"       "Upper_/_lower_shoreface"          -999.25
2479.5 "6507_8-1"  95.7000 "Sandstone"                   "Shale"   -999.25    90.0000 10.00000      0.0 "m"            "vf"       "Upper_/_lower_shoreface"          -999.25
2479.6 "6507_8-1"  95.4800 "Sandstone"                   "Shale"   -999.25    80.0000 20.00000      0.0 "m"            "vf/f"     "Upper_/_lower_shoreface"          -999.25
2479.7 "6507_8-1"  95.2700 "Sandstone"                   "Shale"   -999.25    80.0000 20.00000      0.0 "m"            "vf/f"     "Upper_/_lower_shoreface"          -999.25
2479.8 "6507_8-1"  97.3400 "Sandstone"                   "Shale"   -999.25    80.0000 20.00000      0.0 "m"            "vf/f"     "Upper_/_lower_shoreface"          -999.25
2479.9 "6507_8-1" 100.0300 "Sandstone"                   "Shale"   -999.25    80.0000 20.00000      0.0 "m"            "vf/f"     "Upper_/_lower_shoreface"          -999.25
2480.0 "6507_8-1" 102.7200 "Sandstone"                   "Shale"   -999.25    65.0000 35.00000      0.0 "f/m"          "f"        "Upper_/_lower_shoreface"          -999.25
2480.1 "6507_8-1" 104.4700 "Sandstone"                   "Shale"   -999.25    65.0000 35.00000      0.0 "f/m"          "f"        "Upper_/_lower_shoreface"          -999.25
2480.2 "6507_8-1" 104.9600 "Sandstone"                   "Shale"   -999.25    65.0000 35.00000      0.0 "f/m"          "f"        "Upper_/_lower_shoreface"          -999.25
2480.3 "6507_8-1" 106.2600 "Sandstone"                   "Shale"   -999.25    65.0000 35.00000      0.0 "f/m"          "f"        "Upper_/_lower_shoreface"          -999.25
2480.4 "6507_8-1" 108.3700 "Sandstone"                   "Shale"   -999.25    30.0000 70.00000      0.0 "vf/f"         "vf"       "Upper_/_lower_shoreface"          -999.25
2480.5 "6507_8-1" 110.4800 "Sandstone"                   "Shale"   -999.25    30.0000 70.00000      0.0 "vf/f"         "vf"       "Upper_/_lower_shoreface"          -999.25
2480.6 "6507_8-1" 111.8100 "Sandstone"                   "Shale"   -999.25    30.0000 70.00000      0.0 "vf/f"         "vf"       "Upper_/_lower_shoreface"          -999.25
2480.7 "6507_8-1" 111.8600 "Sandstone"                   -999.25   -999.25   100.0000      0.0      0.0 "vf"           "vf"       "Upper_/_lower_shoreface"          -999.25
2480.8 "6507_8-1" 111.9100 "Sandstone"                   -999.25   -999.25   100.0000      0.0      0.0 "vf"           "vf"       "Upper_/_lower_shoreface"          -999.25
2480.9 "6507_8-1" 111.9500 "Sandstone"                   -999.25   -999.25   100.0000      0.0      0.0 "vf"           "vf"       "Upper_/_lower_shoreface"          -999.25
2481.0 "6507_8-1" 111.9800 "Sandstone"                   -999.25   -999.25   100.0000      0.0      0.0 "vf"           "vf"       "Upper_/_lower_shoreface"          -999.25
2481.1 "6507_8-1" 111.9800 "Sandstone"                   "Shale"   -999.25    92.0000  8.00000      0.0 "f/m"          "m/c"      "Upper_/_lower_shoreface"          -999.25
2481.2 "6507_8-1" 111.9800 "Sandstone"                   "Shale"   -999.25    92.0000  8.00000      0.0 "f/m"          "m/c"      "Upper_/_lower_shoreface"          -999.25
2481.3 "6507_8-1" 112.8700 "Sandstone"                   "Shale"   -999.25    92.0000  8.00000      0.0 "f/m"          "m/c"      "Upper_/_lower_shoreface"          -999.25
2481.4 "6507_8-1" 115.0200 "Sandstone"                   "Shale"   -999.25    92.0000  8.00000      0.0 "f/m"          "m/c"      "Upper_/_lower_shoreface"          -999.25
2481.5 "6507_8-1" 117.1700 "Sandstone"                   "Shale"   -999.25    90.0000 10.00000      0.0 "f/m"          "m/c"      "Upper_/_lower_shoreface"          -999.25
2481.6 "6507_8-1" 119.3300 "Sandstone"                   "Shale"   -999.25    90.0000 10.00000      0.0 "f/m"          "m/c"      "Upper_/_lower_shoreface"          -999.25
2481.7 "6507_8-1" 121.4800 "Sandstone"                   "Shale"   -999.25    90.0000 10.00000      0.0 "f/m"          "m/c"      "Upper_/_lower_shoreface"          -999.25
2481.8 "6507_8-1" 123.6400 "Sandstone"                   "Shale"   -999.25    90.0000 10.00000      0.0 "f/m"          "m/c"      "Upper_/_lower_shoreface"          -999.25
2481.9 "6507_8-1" 125.5000 "Sandstone"                   "Shale"   -999.25    90.0000 10.00000      0.0 "f/m"          "m/c"      "Upper_/_lower_shoreface"          -999.25
2482.0 "6507_8-1" 126.2000 "Sandstone"                   "Limestone" -999.25    80.0000 20.00000      0.0 "m"            "f/m"      "Upper_/_lower_shoreface"          -999.25
2482.1 "6507_8-1" 123.0400 "Sandstone"                   "Limestone" -999.25    80.0000 20.00000      0.0 "m"            "f/m"      "Upper_/_lower_shoreface"          -999.25
2482.2 "6507_8-1" 119.8700 "Sandstone"                   "Limestone" -999.25    80.0000 20.00000      0.0 "m"            "f/m"      "Upper_/_lower_shoreface"          -999.25
2482.3 "6507_8-1" 116.7000 "Sandstone"                   "Limestone" -999.25    80.0000 20.00000      0.0 "m"            "f/m"      "Upper_/_lower_shoreface"          -999.25
2482.4 "6507_8-1" 113.5400 "Sandstone"                   "Limestone" -999.25    80.0000 20.00000      0.0 "m"            "f/m"      "Upper_/_lower_shoreface"          -999.25
2482.5 "6507_8-1" 110.3700 "Sandstone"                   "Limestone" -999.25    80.0000 20.00000      0.0 "m"            "f/m"      "Upper_/_lower_shoreface"          -999.25
2482.6 "6507_8-1" 108.9300 "Sandstone"                   "Limestone" -999.25    80.0000 20.00000      0.0 "m"            "f/m"      "Upper_/_lower_shoreface"          -999.25
2482.7 "6507_8-1" 109.7200 "Sandstone"                   "Limestone" -999.25    80.0000 20.00000      0.0 "m"            "f/m"      "Upper_/_lower_shoreface"          -999.25
2482.8 "6507_8-1" 110.5000 "Sandstone"                   "Limestone" -999.25    80.0000 20.00000      0.0 "m"            "f/m"      "Upper_/_lower_shoreface"          -999.25
2482.9 "6507_8-1" 111.2800 "Sandstone"                   "Limestone" -999.25    80.0000 20.00000      0.0 "m"            "f/m"      "Upper_/_lower_shoreface"          -999.25
2483.0 "6507_8-1" 112.0700 "Sandstone"                   "Shale"   -999.25    92.0000  8.00000      0.0 "f/m"          "m"        "Upper_/_lower_shoreface"          -999.25
2483.1 "6507_8-1" 110.8400 "Sandstone"                   "Shale"   -999.25    92.0000  8.00000      0.0 "f/m"          "m"        "Upper_/_lower_shoreface"          -999.25
2483.2 "6507_8-1" 109.3200 "Sandstone"                   "Shale"   -999.25    92.0000  8.00000      0.0 "f/m"          "m"        "Upper_/_lower_shoreface"          -999.25
2483.3 "6507_8-1" 107.8000 "Sandstone"                   "Shale"   -999.25    92.0000  8.00000      0.0 "f/m"          "m"        "Upper_/_lower_shoreface"          -999.25
2483.4 "6507_8-1" 106.2800 "Sandstone"                   -999.25   -999.25   100.0000      0.0      0.0 "c"            "f/m"      "Upper_/_lower_shoreface"          -999.25
2483.5 "6507_8-1" 106.7000 "Sandstone"                   -999.25   -999.25   100.0000      0.0      0.0 "c"            "f/m"      "Upper_/_lower_shoreface"          -999.25
2483.6 "6507_8-1" 107.6600 "Sandstone"                   -999.25   -999.25   100.0000      0.0      0.0 "c"            "f/m"      "Upper_/_lower_shoreface"          -999.25
2483.7 "6507_8-1" 108.6100 "Sandstone"                   -999.25   -999.25   100.0000      0.0      0.0 "c"            "f/m"      "Upper_/_lower_shoreface"          -999.25
