~Version
VERS  .                                 3.0 : CWLS LAS ASCII Standard - Version 3.0
WRAP  . NO                                  : One line per depth step
DLM   . SPACE                               : Column data section delimiter
SOURCE. Converted to LAS by Log Studio 4.76 : GeoProvider

~Well
STRT.         2260.0 : Start depth
STOP.         2495.0 : Stop depth
STEP.              1 : Step
NULL.        -999.25 : No-value
COMP.                : Company
WELL. 6507/8-1       : Well
FLD .                : Field
LOC .                : Location
LATI.                : Latitude
LONG.                : Longitude
GDAT.                : Geodetic datum
CNTY.                : County
STAT.                : State
CTRY.                : Country
SRVC. GeoProvider AS : Service company
DATE.                : Date
API .                : API number
RUN .                : Run number

~Parameters
WellboreName.  : Wellbore name
RigName     .  : Rig name
StartDate   .  : Start date

~Curves
DEPTH.m            .  : null {F}Depth mMD
Hole_ID.-          .  : null {S}Hole ID
GR.API             .  : null {F}Gamma Ray
Lithology1.-       .  : null {S}Lithology 1
Lithology2.-       .  : null {S}Lithology 2
Lithology3.-       .  : null {S}Lithology 3
Lithology1.%       .  : null {F}Lithology 1 percentage
Lithology2.%       .  : null {F}Lithology 2 percentage
Lithology3.%       .  : null {F}Lithology 3 percentage
Grain_size_Top.-   .  : null {S}Grain size at the top 
Grain_size_Base.-  .  : null {S}Grain size at the bottom
Sub_Environment.-  .  : null {S}Sub Environment
Gross_Environment.-.  : null {S}Gross Environment

~Ascii
# ...
2381.3 "6507_8-1" 115.6700 "Sandstone"                   "Mudstone" -999.25    20.0000 80.00000      0.0 "clay"         "clay/silt" "Offshore_marine"                  -999.25
2381.4 "6507_8-1" 116.4100 "Sandstone"                   "Mudstone" -999.25    20.0000 80.00000      0.0 "clay"         "clay/silt" "Offshore_marine"                  -999.25
2381.5 "6507_8-1" 117.1500 "Sandstone"                   "Mudstone" -999.25    20.0000 80.00000      0.0 "clay"         "clay/silt" "Offshore_marine"                  -999.25
2381.6 "6507_8-1" 117.8900 "Sandstone"                   "Mudstone" -999.25    20.0000 80.00000      0.0 "clay"         "clay/silt" "Offshore_marine"                  -999.25
2381.7 "6507_8-1" 119.0800 "Sandstone"                   "Mudstone" -999.25    20.0000 80.00000      0.0 "clay"         "clay/silt" "Offshore_marine"                  -999.25
2381.8 "6507_8-1" 124.5600 "Sandstone"                   "Mudstone" -999.25    20.0000 80.00000      0.0 "clay"         "clay/silt" "Offshore_marine"                  -999.25
2381.9 "6507_8-1" 130.0400 "Sandstone"                   "Mudstone" -999.25    20.0000 80.00000      0.0 "clay"         "clay/silt" "Offshore_marine"                  -999.25
2382.0 "6507_8-1" 131.6900 "Sandstone"                   "Mudstone" -999.25    20.0000 80.00000      0.0 "clay"         "clay/silt" "Offshore_marine"                  -999.25
2382.1 "6507_8-1" 131.6100 "Sandstone"                   -999.25   -999.25   100.0000      0.0      0.0 "m"            "m"        "Offshore_marine"                  -999.25
2382.2 "6507_8-1" 131.5300 "Sandstone"                   -999.25   -999.25   100.0000      0.0      0.0 "m"            "m"        "Offshore_marine"                  -999.25
2382.3 "6507_8-1" 131.4500 "Sandstone"                   -999.25   -999.25   100.0000      0.0      0.0 "m"            "m"        "Offshore_marine"                  -999.25
2382.4 "6507_8-1" 131.3800 "Sandstone"                   -999.25   -999.25   100.0000      0.0      0.0 "m"            "m"        "Offshore_marine"                  -999.25
2382.5 "6507_8-1" 126.5900 "Sandstone"                   "Mudstone" -999.25    57.0000 43.00000      0.0 "vf"           "clay/silt" "Offshore_marine"                  -999.25
2382.6 "6507_8-1" 121.1900 "Sandstone"                   "Mudstone" -999.25    57.0000 43.00000      0.0 "vf"           "clay/silt" "Offshore_marine"                  -999.25
2382.7 "6507_8-1" 115.0900 "Sandstone"                   "Mudstone" -999.25    57.0000 43.00000      0.0 "vf"           "clay/silt" "Offshore_marine"                  -999.25
2382.8 "6507_8-1" 108.9600 "Sandstone"                   "Mudstone" -999.25    57.0000 43.00000      0.0 "vf"           "clay/silt" "Offshore_marine"                  -999.25
2382.9 "6507_8-1" 108.8500 "Sandstone"                   "Mudstone" -999.25    57.0000 43.00000      0.0 "vf"           "clay/silt" "Offshore_marine"                  -999.25
2383.0 "6507_8-1" 110.1200 "Sandstone"                   "Mudstone" -999.25    57.0000 43.00000      0.0 "vf"           "clay/silt" "Offshore_marine"                  -999.25
2383.1 "6507_8-1" 113.8900 "Sandstone"                   "Mudstone" -999.25    57.0000 43.00000      0.0 "vf"           "clay/silt" "Offshore_marine"                  -999.25
2383.2 "6507_8-1" 117.6500 "Sandstone"                   "Mudstone" -999.25    57.0000 43.00000      0.0 "vf"           "clay/silt" "Offshore_marine"                  -999.25
2383.3 "6507_8-1" 121.4100 "Sandstone"                   "Mudstone" -999.25    57.0000 43.00000      0.0 "vf"           "clay/silt" "Offshore_marine"                  -999.25
2383.4 "6507_8-1" 121.5600 "Sandstone"                   "Mudstone" -999.25    57.0000 43.00000      0.0 "vf"           "clay/silt" "Offshore_marine"                  -999.25
2383.5 "6507_8-1" 120.5400 "Sandstone"                   "Mudstone" -999.25    57.0000 43.00000      0.0 "vf"           "clay/silt" "Offshore_marine"                  -999.25
2383.6 "6507_8-1" 119.9200 "Sandstone"                   "Mudstone" -999.25    57.0000 43.00000      0.0 "vf"           "clay/silt" "Offshore_marine"                  -999.25
2383.7 "6507_8-1" 120.0300 "Sandstone"                   "Mudstone" -999.25    57.0000 43.00000      0.0 "vf"           "clay/silt" "Offshore_marine"                  -999.25
2383.8 "6507_8-1" 120.1500 "Sandstone"                   "Mudstone" -999.25    57.0000 43.00000      0.0 "vf"           "clay/silt" "Offshore_marine"                  -999.25
2383.9 "6507_8-1" 120.2600 "Sandstone"                   "Mudstone" -999.25    57.0000 43.00000      0.0 "vf"           "clay/silt" "Offshore_marine"                  -999.25
2384.0 "6507_8-1" 113.6800 "Sandstone"                   "Mudstone" -999.25    57.0000 43.00000      0.0 "vf"           "clay/silt" "Offshore_marine"                  -999.25
2384.1 "6507_8-1" 107.0200 "Sandstone"                   "Mudstone" -999.25    57.0000 43.00000      0.0 "vf"           "clay/silt" "Offshore_marine"                  -999.25
2384.2 "6507_8-1" 100.3600 "Sandstone"                   "Mudstone" -999.25    57.0000 43.00000      0.0 "vf"           "clay/silt" "Offshore_marine"                  -999.25
2384.3 "6507_8-1"  93.5500 "Sandstone"                   "Mudstone" -999.25    57.0000 43.00000      0.0 "vf"           "clay/silt" "Offshore_marine"                  -999.25
2384.4 "6507_8-1"  86.6400 "Sandstone"                   "Mudstone" -999.25    57.0000 43.00000      0.0 "vf"           "clay/silt" "Offshore_marine"                  -999.25
2384.5 "6507_8-1"  79.7300 "Sandstone"                   "Mudstone" -999.25    57.0000 43.00000      0.0 "vf"           "clay/silt" "Offshore_marine"                  -999.25
2384.6 "6507_8-1"  79.4100 "Sandstone"                   "Mudstone" -999.25    57.0000 43.00000      0.0 "vf"           "clay/silt" "Offshore_marine"                  -999.25
2384.7 "6507_8-1"  79.2300 "Sandstone"                   "Mudstone" -999.25    57.0000 43.00000      0.0 "vf"           "clay/silt" "Offshore_marine"                  -999.25
2384.8 "6507_8-1"  79.4300 "Sandstone"                   "Mudstone" -999.25    57.0000 43.00000      0.0 "vf"           "clay/silt" "Offshore_marine"                  -999.25
2384.9 "6507_8-1"  79.6300 "Sandstone"                   "Mudstone" -999.25    57.0000 43.00000      0.0 "vf"           "clay/silt" "Offshore_marine"                  -999.25
2385.0 "6507_8-1"  79.8200 "Sandstone"                   "Mudstone" -999.25    57.0000 43.00000      0.0 "vf"           "clay/silt" "Offshore_marine"                  -999.25
2385.1 "6507_8-1"  80.0200 "Sandstone"                   -999.25   -999.25   100.0000      0.0      0.0 "c"            "silt"     "Offshore_marine"                  -999.25
2385.2 "6507_8-1"  80.0300 "Sandstone"                   -999.25   -999.25   100.0000      0.0      0.0 "c"            "silt"     "Offshore_marine"                  -999.25
2385.3 "6507_8-1"  79.5300 "Sandstone"                   -999.25   -999.25   100.0000      0.0      0.0 "c"            "silt"     "Offshore_marine"                  -999.25
2385.4 "6507_8-1"  79.0200 "Sandstone"                   -999.25   -999.25   100.0000      0.0      0.0 "c"            "silt"     "Offshore_marine"                  -999.25
2385.5 "6507_8-1"  78.5100 "Sandstone"                   -999.25   -999.25   100.0000      0.0      0.0 "c"            "silt"     "Offshore_marine"                  -999.25
2385.6 "6507_8-1"  77.8400 "Sandstone"                   -999.25   -999.25   100.0000      0.0      0.0 "c"            "silt"     "Offshore_marine"                  -999.25
2385.7 "6507_8-1"  76.3800 "Sandstone"                   -999.25   -999.25   100.0000      0.0      0.0 "c"            "silt"     "Offshore_marine"                  -999.25
2385.8 "6507_8-1"  74.9200 "Sandstone"                   -999.25   -999.25   100.0000      0.0      0.0 "c"            "silt"     "Offshore_marine"                  -999.25
