~Version
VERS  .                                 3.0 : CWLS LAS ASCII Standard - Version 3.0
WRAP  . NO                                  : One line per depth step
DLM   . SPACE                               : Column data section delimiter
SOURCE. Converted to LAS by Log Studio 4.76 : GeoProvider

~Well
STRT.         2260.0 : Start depth
STOP.         2495.0 : Stop depth
STEP.              1 : Step
NULL.        -999.25 : No-value
COMP.                : Company
WELL. 6507/8-1       : Well
FLD .                : Field
LOC .                : Location
LATI.                : Latitude
LONG.                : Longitude
GDAT.                : Geodetic datum
CNTY.                : County
STAT.                : State
CTRY.                : Country
SRVC. GeoProvider AS : Service company
DATE.                : Date
API .                : API number
RUN .                : Run number

~Parameters
WellboreName.  : Wellbore name
RigName     .  : Rig name
StartDate   .  : Start date

~Curves
DEPTH.m            .  : null {F}Depth mMD
Hole_ID.-          .  : null {S}Hole ID
GR.API             .  : null {F}Gamma Ray
Lithology1.-       .  : null {S}Lithology 1
Lithology2.-       .  : null {S}Lithology 2
Lithology3.-       .  : null {S}Lithology 3
Lithology1.%       .  : null {F}Lithology 1 percentage
Lithology2.%       .  : null {F}Lithology 2 percentage
Lithology3.%       .  : null {F}Lithology 3 percentage
Grain_size_Top.-   .  : null {S}Grain size at the top 
Grain_size_Base.-  .  : null {S}Grain size at the bottom
Sub_Environment.-  .  : null {S}Sub Environment
Gross_Environment.-.  : null {S}Gross Environment

~Ascii
# ...
2372.1 "6507_8-1" 111.8600 "Sandstone"                   "Mudstone" -999.25    20.0000 80.00000      0.0 "clay"         "clay/silt" "Offshore_marine"                  -999.25
2372.2 "6507_8-1" 112.0800 "Sandstone"                   "Mudstone" -999.25    20.0000 80.00000      0.0 "clay"         "clay/silt" "Offshore_marine"                  -999.25
2372.3 "6507_8-1" 112.3100 "Sandstone"                   "Mudstone" -999.25    20.0000 80.00000      0.0 "clay"         "clay/silt" "Offshore_marine"                  -999.25
2372.4 "6507_8-1" 112.5300 "Sandstone"                   "Mudstone" -999.25    20.0000 80.00000      0.0 "clay"         "clay/silt" "Offshore_marine"                  -999.25
2372.5 "6507_8-1" 112.6700 "Sandstone"                   "Mudstone" -999.25    20.0000 80.00000      0.0 "clay"         "clay/silt" "Offshore_marine"                  -999.25
2372.6 "6507_8-1" 112.1900 "Sandstone"                   "Mudstone" -999.25    20.0000 80.00000      0.0 "clay"         "clay/silt" "Offshore_marine"                  -999.25
2372.7 "6507_8-1" 111.7000 "Sandstone"                   "Mudstone" -999.25    20.0000 80.00000      0.0 "clay"         "clay/silt" "Offshore_marine"                  -999.25
2372.8 "6507_8-1" 111.2200 "Sandstone"                   "Mudstone" -999.25    20.0000 80.00000      0.0 "clay"         "clay/silt" "Offshore_marine"                  -999.25
2372.9 "6507_8-1" 110.7300 "Sandstone"                   "Mudstone" -999.25    20.0000 80.00000      0.0 "clay"         "clay/silt" "Offshore_marine"                  -999.25
2373.0 "6507_8-1" 110.2500 "Sandstone"                   "Mudstone" -999.25    20.0000 80.00000      0.0 "clay"         "clay/silt" "Offshore_marine"                  -999.25
2373.1 "6507_8-1" 109.7600 "Sandstone"                   "Mudstone" -999.25    20.0000 80.00000      0.0 "clay"         "clay/silt" "Offshore_marine"                  -999.25
2373.2 "6507_8-1" 109.2800 "Sandstone"                   "Mudstone" -999.25    20.0000 80.00000      0.0 "clay"         "clay/silt" "Offshore_marine"                  -999.25
2373.3 "6507_8-1" 108.7900 "Sandstone"                   "Mudstone" -999.25    20.0000 80.00000      0.0 "clay"         "clay/silt" "Offshore_marine"                  -999.25
2373.4 "6507_8-1" 108.3100 "Sandstone"                   "Mudstone" -999.25    20.0000 80.00000      0.0 "clay"         "clay/silt" "Offshore_marine"                  -999.25
2373.5 "6507_8-1" 107.8200 "Sandstone"                   "Mudstone" -999.25    20.0000 80.00000      0.0 "clay"         "clay/silt" "Offshore_marine"                  -999.25
2373.6 "6507_8-1" 107.3500 "Sandstone"                   "Mudstone" -999.25    20.0000 80.00000      0.0 "clay"         "clay/silt" "Offshore_marine"                  -999.25
2373.7 "6507_8-1" 106.8800 "Sandstone"                   "Mudstone" -999.25    20.0000 80.00000      0.0 "clay"         "clay/silt" "Offshore_marine"                  -999.25
2373.8 "6507_8-1" 106.4100 "Sandstone"                   "Mudstone" -999.25    20.0000 80.00000      0.0 "clay"         "clay/silt" "Offshore_marine"                  -999.25
2373.9 "6507_8-1" 105.9400 "Sandstone"                   "Mudstone" -999.25    20.0000 80.00000      0.0 "clay"         "clay/silt" "Offshore_marine"                  -999.25
2374.0 "6507_8-1" 105.4600 "Sandstone"                   "Mudstone" -999.25    20.0000 80.00000      0.0 "clay"         "clay/silt" "Offshore_marine"                  -999.25
2374.1 "6507_8-1" 104.9100 "Sandstone"                   "Mudstone" -999.25    20.0000 80.00000      0.0 "clay"         "clay/silt" "Offshore_marine"                  -999.25
2374.2 "6507_8-1" 104.3600 "Sandstone"                   "Mudstone" -999.25    20.0000 80.00000      0.0 "clay"         "clay/silt" "Offshore_marine"                  -999.25
2374.3 "6507_8-1" 105.4900 "Sandstone"                   "Mudstone" -999.25    20.0000 80.00000      0.0 "clay"         "clay/silt" "Offshore_marine"                  -999.25
2374.4 "6507_8-1" 106.9900 "Sandstone"                   "Mudstone" -999.25    20.0000 80.00000      0.0 "clay"         "clay/silt" "Offshore_marine"                  -999.25
2374.5 "6507_8-1" 108.4900 "Sandstone"                   "Mudstone" -999.25    20.0000 80.00000      0.0 "clay"         "clay/silt" "Offshore_marine"                  -999.25
2374.6 "6507_8-1" 108.1400 "Sandstone"                   "Mudstone" -999.25    20.0000 80.00000      0.0 "clay"         "clay/silt" "Offshore_marine"                  -999.25
2374.7 "6507_8-1" 107.6600 "Sandstone"                   "Mudstone" -999.25    20.0000 80.00000      0.0 "clay"         "clay/silt" "Offshore_marine"                  -999.25
2374.8 "6507_8-1" 107.1700 "Sandstone"                   "Mudstone" -999.25    20.0000 80.00000      0.0 "clay"         "clay/silt" "Offshore_marine"                  -999.25
2374.9 "6507_8-1" 106.6900 "Sandstone"                   "Mudstone" -999.25    20.0000 80.00000      0.0 "clay"         "clay/silt" "Offshore_marine"                  -999.25
2375.0 "6507_8-1" 106.2100 "Sandstone"                   "Mudstone" -999.25    20.0000 80.00000      0.0 "clay"         "clay/silt" "Offshore_marine"                  -999.25
2375.1 "6507_8-1" 105.7300 "Sandstone"                   "Mudstone" -999.25    20.0000 80.00000      0.0 "clay"         "clay/silt" "Offshore_marine"                  -999.25
2375.2 "6507_8-1" 106.3500 "Sandstone"                   "Mudstone" -999.25    20.0000 80.00000      0.0 "clay"         "clay/silt" "Offshore_marine"                  -999.25
2375.3 "6507_8-1" 107.4900 "Sandstone"                   "Mudstone" -999.25    20.0000 80.00000      0.0 "clay"         "clay/silt" "Offshore_marine"                  -999.25
2375.4 "6507_8-1" 108.6200 "Sandstone"                   "Mudstone" -999.25    20.0000 80.00000      0.0 "clay"         "clay/silt" "Offshore_marine"                  -999.25
2375.5 "6507_8-1" 109.7500 "Sandstone"                   "Mudstone" -999.25    20.0000 80.00000      0.0 "clay"         "clay/silt" "Offshore_marine"                  -999.25
2375.6 "6507_8-1" 110.5300 "Sandstone"                   "Mudstone" -999.25    20.0000 80.00000      0.0 "clay"         "clay/silt" "Offshore_marine"                  -999.25
2375.7 "6507_8-1" 110.6800 "Sandstone"                   "Mudstone" -999.25    20.0000 80.00000      0.0 "clay"         "clay/silt" "Offshore_marine"                  -999.25
2375.8 "6507_8-1" 110.8400 "Sandstone"                   "Mudstone" -999.25    20.0000 80.00000      0.0 "clay"         "clay/silt" "Offshore_marine"                  -999.25
2375.9 "6507_8-1" 111.0000 "Sandstone"                   "Mudstone" -999.25    20.0000 80.00000      0.0 "clay"         "clay/silt" "Offshore_marine"                  -999.25
2376.0 "6507_8-1" 112.6300 "Sandstone"                   "Mudstone" -999.25    20.0000 80.00000      0.0 "clay"         "clay/silt" "Offshore_marine"                  -999.25
2376.1 "6507_8-1" 114.7400 "Sandstone"                   "Mudstone" -999.25    20.0000 80.00000      0.0 "clay"         "clay/silt" "Offshore_marine"                  -999.25
2376.2 "6507_8-1" 116.8500 "Sandstone"                   "Mudstone" -999.25    20.0000 80.00000      0.0 "clay"         "clay/silt" "Offshore_marine"                  -999.25
2376.3 "6507_8-1" 117.5100 "Sandstone"                   "Mudstone" -999.25    20.0000 80.00000      0.0 "clay"         "clay/silt" "Offshore_marine"                  -999.25
2376.4 "6507_8-1" 117.3200 "Sandstone"                   "Mudstone" -999.25    20.0000 80.00000      0.0 "clay"         "clay/silt" "Offshore_marine"                  -999.25
2376.5 "6507_8-1" 117.1400 "Sandstone"                   "Mudstone" -999.25    20.0000 80.00000      0.0 "clay"         "clay/silt" "Offshore_marine"                  -999.25
2376.6 "6507_8-1" 116.9500 "Sandstone"                   "Mudstone" -999.25    20.0000 80.00000      0.0 "clay"         "clay/silt" "Offshore_marine"                  -999.25
