~Version
VERS  .                                 3.0 : CWLS LAS ASCII Standard - Version 3.0
WRAP  . NO                                  : One line per depth step
DLM   . SPACE                               : Column data section delimiter
SOURCE. Converted to LAS by Log Studio 4.76 : GeoProvider

~Well
STRT.         2260.0 : Start depth
STOP.         2495.0 : Stop depth
STEP.              1 : Step
NULL.        -999.25 : No-value
COMP.                : Company
WELL. 6507/8-1       : Well
FLD .                : Field
LOC .                : Location
LATI.                : Latitude
LONG.                : Longitude
GDAT.                : Geodetic datum
CNTY.                : County
STAT.                : State
CTRY.                : Country
SRVC. GeoProvider AS : Service company
DATE.                : Date
API .                : API number
RUN .                : Run number

~Parameters
WellboreName.  : Wellbore name
RigName     .  : Rig name
StartDate   .  : Start date

~Curves
DEPTH.m            .  : null {F}Depth mMD
Hole_ID.-          .  : null {S}Hole ID
GR.API             .  : null {F}Gamma Ray
Lithology1.-       .  : null {S}Lithology 1
Lithology2.-       .  : null {S}Lithology 2
Lithology3.-       .  : null {S}Lithology 3
Lithology1.%       .  : null {F}Lithology 1 percentage
Lithology2.%       .  : null {F}Lithology 2 percentage
Lithology3.%       .  : null {F}Lithology 3 percentage
Grain_size_Top.-   .  : null {S}Grain size at the top 
Grain_size_Base.-  .  : null {S}Grain size at the bottom
Sub_Environment.-  .  : null {S}Sub Environment
Gross_Environment.-.  : null {S}Gross Environment

~Ascii
# ...
2437.4 "6507_8-1"  89.6700 -999.25                       -999.25   -999.25    -999.25  -999.25  -999.25 -999.25        -999.25    -999.25                            -999.25
2437.5 "6507_8-1"  91.1000 -999.25                       -999.25   -999.25    -999.25  -999.25  -999.25 -999.25        -999.25    -999.25                            -999.25
2437.6 "6507_8-1"  92.1100 -999.25                       -999.25   -999.25    -999.25  -999.25  -999.25 -999.25        -999.25    -999.25                            -999.25
2437.7 "6507_8-1"  91.6600 -999.25                       -999.25   -999.25    -999.25  -999.25  -999.25 -999.25        -999.25    -999.25                            -999.25
2437.8 "6507_8-1"  91.2000 -999.25                       -999.25   -999.25    -999.25  -999.25  -999.25 -999.25        -999.25    -999.25                            -999.25
2437.9 "6507_8-1"  90.7500 -999.25                       -999.25   -999.25    -999.25  -999.25  -999.25 -999.25        -999.25    -999.25                            -999.25
2438.0 "6507_8-1"  90.3000 -999.25                       -999.25   -999.25    -999.25  -999.25  -999.25 -999.25        -999.25    -999.25                            -999.25
2438.1 "6507_8-1"  91.1500 -999.25                       -999.25   -999.25    -999.25  -999.25  -999.25 -999.25        -999.25    -999.25                            -999.25
2438.2 "6507_8-1"  92.6700 -999.25                       -999.25   -999.25    -999.25  -999.25  -999.25 -999.25        -999.25    -999.25                            -999.25
2438.3 "6507_8-1"  94.2000 -999.25                       -999.25   -999.25    -999.25  -999.25  -999.25 -999.25        -999.25    -999.25                            -999.25
2438.4 "6507_8-1"  95.7300 -999.25                       -999.25   -999.25    -999.25  -999.25  -999.25 -999.25        -999.25    -999.25                            -999.25
2438.5 "6507_8-1"  97.2600 -999.25                       -999.25   -999.25    -999.25  -999.25  -999.25 -999.25        -999.25    -999.25                            -999.25
2438.6 "6507_8-1"  98.4200 -999.25                       -999.25   -999.25    -999.25  -999.25  -999.25 -999.25        -999.25    -999.25                            -999.25
2438.7 "6507_8-1"  97.6600 -999.25                       -999.25   -999.25    -999.25  -999.25  -999.25 -999.25        -999.25    -999.25                            -999.25
2438.8 "6507_8-1"  95.9200 -999.25                       -999.25   -999.25    -999.25  -999.25  -999.25 -999.25        -999.25    -999.25                            -999.25
2438.9 "6507_8-1"  94.0600 -999.25                       -999.25   -999.25    -999.25  -999.25  -999.25 -999.25        -999.25    -999.25                            -999.25
2439.0 "6507_8-1"  92.0800 -999.25                       -999.25   -999.25    -999.25  -999.25  -999.25 -999.25        -999.25    -999.25                            -999.25
2439.1 "6507_8-1"  90.1000 "Limestone"                   "Shale"   -999.25    70.0000 30.00000      0.0 "silt/vf"      "f"        "Exposure_Upper_shoreface_Foreshore" -999.25
2439.2 "6507_8-1"  88.1200 "Limestone"                   "Shale"   -999.25    70.0000 30.00000      0.0 "silt/vf"      "f"        "Exposure_Upper_shoreface_Foreshore" -999.25
2439.3 "6507_8-1"  87.3300 "Sandstone"                   "Shale"   -999.25    80.0000 20.00000      0.0 "f/m"          "silt/vf"  "Exposure_Upper_shoreface_Foreshore" -999.25
2439.4 "6507_8-1"  88.3000 "Sandstone"                   "Shale"   -999.25    80.0000 20.00000      0.0 "f/m"          "silt/vf"  "Exposure_Upper_shoreface_Foreshore" -999.25
2439.5 "6507_8-1"  89.2700 "Sandstone"                   "Shale"   -999.25    80.0000 20.00000      0.0 "f/m"          "silt/vf"  "Exposure_Upper_shoreface_Foreshore" -999.25
2439.6 "6507_8-1"  90.2400 "Sandstone"                   "Shale"   -999.25    80.0000 20.00000      0.0 "f/m"          "silt/vf"  "Exposure_Upper_shoreface_Foreshore" -999.25
2439.7 "6507_8-1"  91.2100 "Sandstone"                   "Shale"   -999.25    80.0000 20.00000      0.0 "f/m"          "silt/vf"  "Exposure_Upper_shoreface_Foreshore" -999.25
2439.8 "6507_8-1"  92.5400 "Sandstone"                   "Shale"   -999.25    80.0000 20.00000      0.0 "f/m"          "silt/vf"  "Exposure_Upper_shoreface_Foreshore" -999.25
2439.9 "6507_8-1"  94.5000 "Sandstone"                   "Shale"   -999.25    80.0000 20.00000      0.0 "f/m"          "silt/vf"  "Exposure_Upper_shoreface_Foreshore" -999.25
2440.0 "6507_8-1"  96.4600 "Sandstone"                   "Limestone" "Shale"    66.0000  9.00000 25.00000 "silt/vf"      "f/m"      "Exposure_Upper_shoreface_Foreshore" -999.25
2440.1 "6507_8-1"  96.7100 "Sandstone"                   "Limestone" "Shale"    66.0000  9.00000 25.00000 "silt/vf"      "f/m"      "Exposure_Upper_shoreface_Foreshore" -999.25
2440.2 "6507_8-1"  96.8800 "Sandstone"                   "Limestone" "Shale"    66.0000  9.00000 25.00000 "silt/vf"      "f/m"      "Exposure_Upper_shoreface_Foreshore" -999.25
2440.3 "6507_8-1"  96.6700 "Sandstone"                   "Limestone" "Shale"    66.0000  9.00000 25.00000 "silt/vf"      "f/m"      "Exposure_Upper_shoreface_Foreshore" -999.25
2440.4 "6507_8-1"  96.3500 "Sandstone"                   "Limestone" "Shale"    66.0000  9.00000 25.00000 "silt/vf"      "f/m"      "Exposure_Upper_shoreface_Foreshore" -999.25
2440.5 "6507_8-1"  96.4800 "Sandstone"                   "Limestone" "Shale"    66.0000  9.00000 25.00000 "silt/vf"      "f/m"      "Exposure_Upper_shoreface_Foreshore" -999.25
2440.6 "6507_8-1"  97.3000 "Sandstone"                   "Limestone" "Shale"    66.0000  9.00000 25.00000 "silt/vf"      "f/m"      "Exposure_Upper_shoreface_Foreshore" -999.25
2440.7 "6507_8-1"  98.1200 "Sandstone"                   "Limestone" "Shale"    66.0000  9.00000 25.00000 "silt/vf"      "f/m"      "Exposure_Upper_shoreface_Foreshore" -999.25
2440.8 "6507_8-1"  98.9300 "Sandstone"                   "Limestone" "Shale"    66.0000  9.00000 25.00000 "silt/vf"      "f/m"      "Exposure_Upper_shoreface_Foreshore" -999.25
2440.9 "6507_8-1"  99.7500 "Sandstone"                   "Limestone" "Shale"    66.0000  9.00000 25.00000 "silt/vf"      "f/m"      "Exposure_Upper_shoreface_Foreshore" -999.25
2441.0 "6507_8-1" 100.5600 "Sandstone"                   "Limestone" "Shale"    66.0000  9.00000 25.00000 "silt/vf"      "f/m"      "Exposure_Upper_shoreface_Foreshore" -999.25
2441.1 "6507_8-1" 100.1800 "Sandstone"                   "Limestone" "Shale"    66.0000  9.00000 25.00000 "silt/vf"      "f/m"      "Exposure_Upper_shoreface_Foreshore" -999.25
2441.2 "6507_8-1"  99.0800 "Sandstone"                   "Shale"   -999.25    73.0000 27.00000      0.0 "f/m"          "silt/vf"  "Exposure_Upper_shoreface_Foreshore" -999.25
2441.3 "6507_8-1"  97.9700 "Sandstone"                   "Shale"   -999.25    73.0000 27.00000      0.0 "f/m"          "silt/vf"  "Exposure_Upper_shoreface_Foreshore" -999.25
2441.4 "6507_8-1"  96.8700 "Sandstone"                   "Shale"   -999.25    73.0000 27.00000      0.0 "f/m"          "silt/vf"  "Exposure_Upper_shoreface_Foreshore" -999.25
2441.5 "6507_8-1"  95.7600 "Sandstone"                   "Shale"   -999.25    73.0000 27.00000      0.0 "f/m"          "silt/vf"  "Exposure_Upper_shoreface_Foreshore" -999.25
2441.6 "6507_8-1"  93.9400 "Sandstone"                   "Shale"   -999.25    73.0000 27.00000      0.0 "f/m"          "silt/vf"  "Exposure_Upper_shoreface_Foreshore" -999.25
2441.7 "6507_8-1"  90.7100 "Sandstone"                   "Shale"   -999.25    90.0000 10.00000      0.0 "f/m"          "m"        "Exposure_Upper_shoreface_Foreshore" -999.25
2441.8 "6507_8-1"  88.1700 "Sandstone"                   "Shale"   -999.25    90.0000 10.00000      0.0 "f/m"          "m"        "Exposure_Upper_shoreface_Foreshore" -999.25
2441.9 "6507_8-1"  86.6000 "Sandstone"                   "Shale"   -999.25    90.0000 10.00000      0.0 "f/m"          "m"        "Exposure_Upper_shoreface_Foreshore" -999.25
