~Version
VERS  .                                 3.0 : CWLS LAS ASCII Standard - Version 3.0
WRAP  . NO                                  : One line per depth step
DLM   . SPACE                               : Column data section delimiter
SOURCE. Converted to LAS by Log Studio 4.76 : GeoProvider

~Well
STRT.         2260.0 : Start depth
STOP.         2495.0 : Stop depth
STEP.              1 : Step
NULL.        -999.25 : No-value
COMP.                : Company
WELL. 6507/8-1       : Well
FLD .                : Field
LOC .                : Location
LATI.                : Latitude
LONG.                : Longitude
GDAT.                : Geodetic datum
CNTY.                : County
STAT.                : State
CTRY.                : Country
SRVC. GeoProvider AS : Service company
DATE.                : Date
API .                : API number
RUN .                : Run number

~Parameters
WellboreName.  : Wellbore name
RigName     .  : Rig name
StartDate   .  : Start date

~Curves
DEPTH.m            .  : null {F}Depth mMD
Hole_ID.-          .  : null {S}Hole ID
GR.API             .  : null {F}Gamma Ray
Lithology1.-       .  : null {S}Lithology 1
Lithology2.-       .  : null {S}Lithology 2
Lithology3.-       .  : null {S}Lithology 3
Lithology1.%       .  : null {F}Lithology 1 percentage
Lithology2.%       .  : null {F}Lithology 2 percentage
Lithology3.%       .  : null {F}Lithology 3 percentage
Grain_size_Top.-   .  : null {S}Grain size at the top 
Grain_size_Base.-  .  : null {S}Grain size at the bottom
Sub_Environment.-  .  : null {S}Sub Environment
Gross_Environment.-.  : null {S}Gross Environment

~Ascii
# ...
2264.7 "6507_8-1"  92.7000 "Sandstone"                   -999.25   -999.25   100.0000      0.0      0.0 "f"            "vf"       "Fluvial_channels_?"               -999.25
2264.8 "6507_8-1"  90.0600 "Sandstone"                   -999.25   -999.25   100.0000      0.0      0.0 "f"            "vf"       "Fluvial_channels_?"               -999.25
2264.9 "6507_8-1"  87.4200 "Sandstone"                   -999.25   -999.25   100.0000      0.0      0.0 "f"            "vf"       "Fluvial_channels_?"               -999.25
2265.0 "6507_8-1"  84.7800 "Sandstone"                   -999.25   -999.25   100.0000      0.0      0.0 "f"            "vf"       "Fluvial_channels_?"               -999.25
2265.1 "6507_8-1"  82.1400 "Sandstone"                   -999.25   -999.25   100.0000      0.0      0.0 "f"            "vf"       "Fluvial_channels_?"               -999.25
2265.2 "6507_8-1"  81.9300 "Sandstone"                   -999.25   -999.25   100.0000      0.0      0.0 "f"            "vf"       "Fluvial_channels_?"               -999.25
2265.3 "6507_8-1"  82.8000 "Sandstone"                   -999.25   -999.25   100.0000      0.0      0.0 "f"            "vf"       "Fluvial_channels_?"               -999.25
2265.4 "6507_8-1"  83.6700 "Sandstone"                   -999.25   -999.25   100.0000      0.0      0.0 "f"            "vf"       "Fluvial_channels_?"               -999.25
2265.5 "6507_8-1"  84.5400 "Sandstone"                   -999.25   -999.25   100.0000      0.0      0.0 "f"            "vf"       "Fluvial_channels_?"               -999.25
2265.6 "6507_8-1"  85.4100 "Sandstone"                   -999.25   -999.25   100.0000      0.0      0.0 "f"            "vf"       "Fluvial_channels_?"               -999.25
2265.7 "6507_8-1"  85.1700 "Sandstone"                   -999.25   -999.25   100.0000      0.0      0.0 "f"            "vf"       "Fluvial_channels_?"               -999.25
2265.8 "6507_8-1"  83.3100 "Sandstone"                   -999.25   -999.25   100.0000      0.0      0.0 "f"            "vf"       "Fluvial_channels_?"               -999.25
2265.9 "6507_8-1"  81.4600 "Sandstone"                   -999.25   -999.25   100.0000      0.0      0.0 "f"            "vf"       "Fluvial_channels_?"               -999.25
2266.0 "6507_8-1"  79.6000 "Sandstone"                   -999.25   -999.25   100.0000      0.0      0.0 "f"            "vf"       "Fluvial_channels_?"               -999.25
2266.1 "6507_8-1"  77.7500 "Sandstone"                   -999.25   -999.25   100.0000      0.0      0.0 "f"            "vf"       "Fluvial_channels_?"               -999.25
2266.2 "6507_8-1"  75.8900 "Sandstone"                   -999.25   -999.25   100.0000      0.0      0.0 "f"            "vf"       "Fluvial_channels_?"               -999.25
2266.3 "6507_8-1"  76.1500 "Sandstone"                   -999.25   -999.25   100.0000      0.0      0.0 "f"            "vf"       "Fluvial_channels_?"               -999.25
2266.4 "6507_8-1"  76.8400 "Sandstone"                   -999.25   -999.25   100.0000      0.0      0.0 "f"            "vf"       "Fluvial_channels_?"               -999.25
2266.5 "6507_8-1"  77.5400 -999.25                       -999.25   -999.25   100.0000      0.0      0.0 -999.25        -999.25    "Fluvial_channels_?"               -999.25
2266.6 "6507_8-1"  78.2300 -999.25                       -999.25   -999.25   100.0000      0.0      0.0 -999.25        -999.25    "Fluvial_channels_?"               -999.25
2266.7 "6507_8-1"  78.9200 -999.25                       -999.25   -999.25   100.0000      0.0      0.0 -999.25        -999.25    "Fluvial_channels_?"               -999.25
2266.8 "6507_8-1"  79.6900 -999.25                       -999.25   -999.25   100.0000      0.0      0.0 -999.25        -999.25    "Fluvial_channels_?"               -999.25
2266.9 "6507_8-1"  79.8000 -999.25                       -999.25   -999.25   100.0000      0.0      0.0 -999.25        -999.25    "Fluvial_channels_?"               -999.25
2267.0 "6507_8-1"  78.7900 -999.25                       -999.25   -999.25   100.0000      0.0      0.0 -999.25        -999.25    "Fluvial_channels_?"               -999.25
2267.1 "6507_8-1"  77.3700 -999.25                       -999.25   -999.25   100.0000      0.0      0.0 -999.25        -999.25    "Fluvial_channels_?"               -999.25
2267.2 "6507_8-1"  75.0700 -999.25                       -999.25   -999.25   100.0000      0.0      0.0 -999.25        -999.25    "Fluvial_channels_?"               -999.25
2267.3 "6507_8-1"  72.7600 "Matrix-supported conglomerate" -999.25   -999.25   100.0000      0.0      0.0 "m"            "c"        "Fluvial_channels_?"               -999.25
2267.4 "6507_8-1"  70.4600 "Matrix-supported conglomerate" -999.25   -999.25   100.0000      0.0      0.0 "m"            "c"        "Fluvial_channels_?"               -999.25
2267.5 "6507_8-1"  68.1500 "Matrix-supported conglomerate" -999.25   -999.25   100.0000      0.0      0.0 "m"            "c"        "Fluvial_channels_?"               -999.25
2267.6 "6507_8-1"  66.9500 "Sandstone"                   -999.25   -999.25   100.0000      0.0      0.0 "silt"         "m"        "Fluvial_channels_?"               -999.25
2267.7 "6507_8-1"  67.9700 "Sandstone"                   -999.25   -999.25   100.0000      0.0      0.0 "silt"         "m"        "Fluvial_channels_?"               -999.25
2267.8 "6507_8-1"  69.0000 "Sandstone"                   -999.25   -999.25   100.0000      0.0      0.0 "silt"         "m"        "Fluvial_channels_?"               -999.25
2267.9 "6507_8-1"  70.0200 "Sandstone"                   -999.25   -999.25   100.0000      0.0      0.0 "silt"         "m"        "Fluvial_channels_?"               -999.25
2268.0 "6507_8-1"  70.4500 "Sandstone"                   -999.25   -999.25   100.0000      0.0      0.0 "silt"         "m"        "Fluvial_channels_?"               -999.25
2268.1 "6507_8-1"  70.3200 "Sandstone"                   -999.25   -999.25   100.0000      0.0      0.0 "silt"         "m"        "Fluvial_channels_?"               -999.25
2268.2 "6507_8-1"  70.1900 "Sandstone"                   -999.25   -999.25   100.0000      0.0      0.0 "silt"         "m"        "Fluvial_channels_?"               -999.25
2268.3 "6507_8-1"  70.0600 "Sandstone"                   -999.25   -999.25   100.0000      0.0      0.0 "silt"         "m"        "Fluvial_channels_?"               -999.25
2268.4 "6507_8-1"  72.0300 "Sandstone"                   -999.25   -999.25   100.0000      0.0      0.0 "silt"         "m"        "Fluvial_channels_?"               -999.25
2268.5 "6507_8-1"  74.0100 "Sandstone"                   -999.25   -999.25   100.0000      0.0      0.0 "vf"           "clay"     "Fluvial_channels_?"               -999.25
2268.6 "6507_8-1"  75.9900 "Sandstone"                   -999.25   -999.25   100.0000      0.0      0.0 "vf"           "clay"     "Fluvial_channels_?"               -999.25
2268.7 "6507_8-1"  77.9700 "Sandstone"                   -999.25   -999.25   100.0000      0.0      0.0 "vf"           "clay"     "Fluvial_channels_?"               -999.25
2268.8 "6507_8-1"  79.9400 "Sandstone"                   -999.25   -999.25   100.0000      0.0      0.0 "vf"           "clay"     "Fluvial_channels_?"               -999.25
2268.9 "6507_8-1"  79.0000 "Sandstone"                   -999.25   -999.25   100.0000      0.0      0.0 "vf"           "clay"     "Fluvial_channels_?"               -999.25
2269.0 "6507_8-1"  77.5400 "Sandstone"                   -999.25   -999.25   100.0000      0.0      0.0 "vf"           "clay"     "Fluvial_channels_?"               -999.25
2269.1 "6507_8-1"  75.6100 "Sandstone"                   -999.25   -999.25   100.0000      0.0      0.0 "vf"           "clay"     "Fluvial_channels_?"               -999.25
2269.2 "6507_8-1"  73.6900 "Sandstone"                   -999.25   -999.25   100.0000      0.0      0.0 "vf"           "clay"     "Fluvial_channels_?"               -999.25
2269.3 "6507_8-1"  72.5600 "Sandstone"                   -999.25   -999.25   100.0000      0.0      0.0 "vf"           "clay"     "Fluvial_channels_?"               -999.25
