~Version
VERS  .                                 3.0 : CWLS LAS ASCII Standard - Version 3.0
WRAP  . NO                                  : One line per depth step
DLM   . SPACE                               : Column data section delimiter
SOURCE. Converted to LAS by Log Studio 4.76 : GeoProvider

~Well
STRT.         2260.0 : Start depth
STOP.         2495.0 : Stop depth
STEP.              1 : Step
NULL.        -999.25 : No-value
COMP.                : Company
WELL. 6507/8-1       : Well
FLD .                : Field
LOC .                : Location
LATI.                : Latitude
LONG.                : Longitude
GDAT.                : Geodetic datum
CNTY.                : County
STAT.                : State
CTRY.                : Country
SRVC. GeoProvider AS : Service company
DATE.                : Date
API .                : API number
RUN .                : Run number

~Parameters
WellboreName.  : Wellbore name
RigName     .  : Rig name
StartDate   .  : Start date

~Curves
DEPTH.m            .  : null {F}Depth mMD
Hole_ID.-          .  : null {S}Hole ID
GR.API             .  : null {F}Gamma Ray
Lithology1.-       .  : null {S}Lithology 1
Lithology2.-       .  : null {S}Lithology 2
Lithology3.-       .  : null {S}Lithology 3
Lithology1.%       .  : null {F}Lithology 1 percentage
Lithology2.%       .  : null {F}Lithology 2 percentage
Lithology3.%       .  : null {F}Lithology 3 percentage
Grain_size_Top.-   .  : null {S}Grain size at the top 
Grain_size_Base.-  .  : null {S}Grain size at the bottom
Sub_Environment.-  .  : null {S}Sub Environment
Gross_Environment.-.  : null {S}Gross Environment

~Ascii
# ...
2446.6 "6507_8-1"  91.9700 "Sandstone"                   "Shale"   -999.25    80.0000 20.00000      0.0 "silt/vf"      "f/m"      "Exposure_Upper_shoreface_Foreshore" -999.25
2446.7 "6507_8-1"  92.8900 "Sandstone"                   "Shale"   -999.25    80.0000 20.00000      0.0 "silt/vf"      "f/m"      "Exposure_Upper_shoreface_Foreshore" -999.25
2446.8 "6507_8-1"  93.8000 "Sandstone"                   "Shale"   -999.25    80.0000 20.00000      0.0 "silt/vf"      "f/m"      "Exposure_Upper_shoreface_Foreshore" -999.25
2446.9 "6507_8-1"  94.8900 "Sandstone"                   "Shale"   -999.25    80.0000 20.00000      0.0 "silt/vf"      "f/m"      "Exposure_Upper_shoreface_Foreshore" -999.25
2447.0 "6507_8-1"  96.1700 "Sandstone"                   "Limestone" "Shale"    81.0000  8.00000 11.00000 "vf/f"         "vf"       "Lower_-_upper_shoreface"          -999.25
2447.1 "6507_8-1"  97.4400 "Sandstone"                   "Limestone" "Shale"    81.0000  8.00000 11.00000 "vf/f"         "vf"       "Lower_-_upper_shoreface"          -999.25
2447.2 "6507_8-1"  98.7100 "Sandstone"                   "Limestone" "Shale"    81.0000  8.00000 11.00000 "vf/f"         "vf"       "Lower_-_upper_shoreface"          -999.25
2447.3 "6507_8-1"  99.9800 "Sandstone"                   "Limestone" "Shale"    81.0000  8.00000 11.00000 "vf/f"         "vf"       "Lower_-_upper_shoreface"          -999.25
2447.4 "6507_8-1" 101.2600 "Sandstone"                   "Limestone" "Shale"    81.0000  8.00000 11.00000 "vf/f"         "vf"       "Lower_-_upper_shoreface"          -999.25
2447.5 "6507_8-1" 102.5300 "Sandstone"                   "Limestone" "Shale"    81.0000  8.00000 11.00000 "vf/f"         "vf"       "Lower_-_upper_shoreface"          -999.25
2447.6 "6507_8-1" 103.8000 "Sandstone"                   "Limestone" "Shale"    81.0000  8.00000 11.00000 "vf/f"         "vf"       "Lower_-_upper_shoreface"          -999.25
2447.7 "6507_8-1" 103.4500 "Sandstone"                   "Limestone" "Shale"    81.0000  8.00000 11.00000 "vf/f"         "vf"       "Lower_-_upper_shoreface"          -999.25
2447.8 "6507_8-1" 101.2800 "Sandstone"                   "Limestone" "Shale"    81.0000  8.00000 11.00000 "vf/f"         "vf"       "Lower_-_upper_shoreface"          -999.25
2447.9 "6507_8-1"  98.8300 "Sandstone"                   "Limestone" "Shale"    81.0000  8.00000 11.00000 "vf/f"         "vf"       "Lower_-_upper_shoreface"          -999.25
2448.0 "6507_8-1"  96.3700 "Sandstone"                   "Limestone" "Shale"    81.0000  8.00000 11.00000 "vf/f"         "vf"       "Lower_-_upper_shoreface"          -999.25
2448.1 "6507_8-1"  94.5800 "Sandstone"                   "Limestone" "Shale"    81.0000  8.00000 11.00000 "vf/f"         "vf"       "Lower_-_upper_shoreface"          -999.25
2448.2 "6507_8-1"  95.0500 "Sandstone"                   "Limestone" "Shale"    81.0000  8.00000 11.00000 "vf/f"         "vf"       "Lower_-_upper_shoreface"          -999.25
2448.3 "6507_8-1"  95.5200 "Sandstone"                   "Limestone" "Shale"    81.0000  8.00000 11.00000 "vf/f"         "vf"       "Lower_-_upper_shoreface"          -999.25
2448.4 "6507_8-1"  95.9900 "Sandstone"                   "Limestone" "Shale"    77.0000 15.00000  8.00000 "f"            "f"        "Lower_-_upper_shoreface"          -999.25
2448.5 "6507_8-1"  96.4600 "Sandstone"                   "Limestone" "Shale"    77.0000 15.00000  8.00000 "f"            "f"        "Lower_-_upper_shoreface"          -999.25
2448.6 "6507_8-1"  96.4400 "Sandstone"                   "Limestone" "Shale"    77.0000 15.00000  8.00000 "f"            "f"        "Lower_-_upper_shoreface"          -999.25
2448.7 "6507_8-1"  95.7500 "Sandstone"                   "Limestone" "Shale"    77.0000 15.00000  8.00000 "f"            "f"        "Lower_-_upper_shoreface"          -999.25
2448.8 "6507_8-1"  95.0600 "Sandstone"                   "Limestone" "Shale"    77.0000 15.00000  8.00000 "f"            "f"        "Lower_-_upper_shoreface"          -999.25
2448.9 "6507_8-1"  94.3600 "Sandstone"                   "Limestone" "Shale"    77.0000 15.00000  8.00000 "f"            "f"        "Lower_-_upper_shoreface"          -999.25
2449.0 "6507_8-1"  93.9200 "Sandstone"                   "Limestone" "Shale"    77.0000 15.00000  8.00000 "f"            "f"        "Lower_-_upper_shoreface"          -999.25
2449.1 "6507_8-1"  93.9700 "Sandstone"                   "Limestone" "Shale"    77.0000 15.00000  8.00000 "f"            "f"        "Lower_-_upper_shoreface"          -999.25
2449.2 "6507_8-1"  94.0100 "Sandstone"                   "Limestone" "Shale"    77.0000 15.00000  8.00000 "f"            "f"        "Lower_-_upper_shoreface"          -999.25
2449.3 "6507_8-1"  94.0600 "Sandstone"                   "Limestone" "Shale"    77.0000 15.00000  8.00000 "f"            "f"        "Lower_-_upper_shoreface"          -999.25
2449.4 "6507_8-1"  93.7000 "Sandstone"                   "Limestone" "Shale"    77.0000 15.00000  8.00000 "f"            "f"        "Lower_-_upper_shoreface"          -999.25
2449.5 "6507_8-1"  92.1300 "Sandstone"                   "Limestone" "Shale"    77.0000 15.00000  8.00000 "f"            "f"        "Lower_-_upper_shoreface"          -999.25
2449.6 "6507_8-1"  90.9000 "Sandstone"                   "Limestone" "Shale"    77.0000 15.00000  8.00000 "f"            "f"        "Lower_-_upper_shoreface"          -999.25
2449.7 "6507_8-1"  90.3400 "Sandstone"                   "Limestone" "Shale"    77.0000 15.00000  8.00000 "f"            "f"        "Lower_-_upper_shoreface"          -999.25
2449.8 "6507_8-1"  89.9700 "Sandstone"                   "Limestone" "Shale"    77.0000 15.00000  8.00000 "f"            "f"        "Lower_-_upper_shoreface"          -999.25
2449.9 "6507_8-1"  89.7100 "Sandstone"                   "Limestone" "Shale"    77.0000 15.00000  8.00000 "f"            "f"        "Lower_-_upper_shoreface"          -999.25
2450.0 "6507_8-1"  88.3100 "Sandstone"                   "Limestone" "Shale"    77.0000 15.00000  8.00000 "f"            "f"        "Lower_-_upper_shoreface"          -999.25
2450.1 "6507_8-1"  85.7000 "Sandstone"                   "Limestone" "Shale"    77.0000 15.00000  8.00000 "f"            "f"        "Lower_-_upper_shoreface"          -999.25
2450.2 "6507_8-1"  83.0900 "Sandstone"                   "Limestone" "Shale"    77.0000 15.00000  8.00000 "f"            "f"        "Lower_-_upper_shoreface"          -999.25
2450.3 "6507_8-1"  80.4700 "Sandstone"                   "Limestone" "Shale"    77.0000 15.00000  8.00000 "f"            "f"        "Lower_-_upper_shoreface"          -999.25
2450.4 "6507_8-1"  77.8600 "Sandstone"                   "Shale"   -999.25    97.0000  3.00000      0.0 "silt/vf"      "f/m"      "Lower_-_upper_shoreface"          -999.25
2450.5 "6507_8-1"  77.5900 "Sandstone"                   "Shale"   -999.25    97.0000  3.00000      0.0 "silt/vf"      "f/m"      "Lower_-_upper_shoreface"          -999.25
2450.6 "6507_8-1"  80.3000 "Sandstone"                   "Shale"   -999.25    97.0000  3.00000      0.0 "silt/vf"      "f/m"      "Lower_-_upper_shoreface"          -999.25
2450.7 "6507_8-1"  83.0100 "Sandstone"                   "Shale"   -999.25    97.0000  3.00000      0.0 "silt/vf"      "f/m"      "Lower_-_upper_shoreface"          -999.25
2450.8 "6507_8-1"  86.1100 "Sandstone"                   "Shale"   -999.25    77.0000 23.00000      0.0 "vf"           "f/m"      "Lower_-_upper_shoreface"          -999.25
2450.9 "6507_8-1"  90.0200 "Sandstone"                   "Shale"   -999.25    77.0000 23.00000      0.0 "vf"           "f/m"      "Lower_-_upper_shoreface"          -999.25
2451.0 "6507_8-1"  91.8800 "Sandstone"                   "Shale"   -999.25    77.0000 23.00000      0.0 "vf"           "f/m"      "Lower_-_upper_shoreface"          -999.25
2451.1 "6507_8-1"  92.5600 "Sandstone"                   "Shale"   -999.25    77.0000 23.00000      0.0 "vf"           "f/m"      "Lower_-_upper_shoreface"          -999.25
