~Version
VERS  .                                 3.0 : CWLS LAS ASCII Standard - Version 3.0
WRAP  . NO                                  : One line per depth step
DLM   . SPACE                               : Column data section delimiter
SOURCE. Converted to LAS by Log Studio 4.76 : GeoProvider

~Well
STRT.         2260.0 : Start depth
STOP.         2495.0 : Stop depth
STEP.              1 : Step
NULL.        -999.25 : No-value
COMP.                : Company
WELL. 6507/8-1       : Well
FLD .                : Field
LOC .                : Location
LATI.                : Latitude
LONG.                : Longitude
GDAT.                : Geodetic datum
CNTY.                : County
STAT.                : State
CTRY.                : Country
SRVC. GeoProvider AS : Service company
DATE.                : Date
API .                : API number
RUN .                : Run number

~Parameters
WellboreName.  : Wellbore name
RigName     .  : Rig name
StartDate   .  : Start date

~Curves
DEPTH.m            .  : null {F}Depth mMD
Hole_ID.-          .  : null {S}Hole ID
GR.API             .  : null {F}Gamma Ray
Lithology1.-       .  : null {S}Lithology 1
Lithology2.-       .  : null {S}Lithology 2
Lithology3.-       .  : null {S}Lithology 3
Lithology1.%       .  : null {F}Lithology 1 percentage
Lithology2.%       .  : null {F}Lithology 2 percentage
Lithology3.%       .  : null {F}Lithology 3 percentage
Grain_size_Top.-   .  : null {S}Grain size at the top 
Grain_size_Base.-  .  : null {S}Grain size at the bottom
Sub_Environment.-  .  : null {S}Sub Environment
Gross_Environment.-.  : null {S}Gross Environment

~Ascii
# ...
2339.4 "6507_8-1" 102.9200 "Sandstone"                   "Siltstone" "Mudstone"  15.0000 70.00000 15.00000 "clay"         "silt/vf"  "Offshore_marine"                  -999.25
2339.5 "6507_8-1" 103.7000 "Sandstone"                   "Siltstone" "Mudstone"  15.0000 70.00000 15.00000 "clay"         "silt/vf"  "Offshore_marine"                  -999.25
2339.6 "6507_8-1" 104.4800 "Sandstone"                   "Siltstone" "Mudstone"  15.0000 70.00000 15.00000 "clay"         "silt/vf"  "Offshore_marine"                  -999.25
2339.7 "6507_8-1" 105.2200 "Sandstone"                   "Siltstone" "Mudstone"  15.0000 70.00000 15.00000 "clay"         "silt/vf"  "Offshore_marine"                  -999.25
2339.8 "6507_8-1" 105.4200 "Sandstone"                   "Siltstone" "Mudstone"  15.0000 70.00000 15.00000 "clay"         "silt/vf"  "Offshore_marine"                  -999.25
2339.9 "6507_8-1" 105.6300 "Sandstone"                   "Siltstone" "Mudstone"  15.0000 70.00000 15.00000 "clay"         "silt/vf"  "Offshore_marine"                  -999.25
2340.0 "6507_8-1" 105.8400 "Sandstone"                   "Siltstone" "Mudstone"  15.0000 70.00000 15.00000 "clay"         "silt/vf"  "Offshore_marine"                  -999.25
2340.1 "6507_8-1" 106.0400 "Sandstone"                   "Siltstone" "Mudstone"  15.0000 70.00000 15.00000 "clay"         "silt/vf"  "Offshore_marine"                  -999.25
2340.2 "6507_8-1" 106.2200 "Sandstone"                   "Siltstone" "Mudstone"  15.0000 70.00000 15.00000 "clay"         "silt/vf"  "Offshore_marine"                  -999.25
2340.3 "6507_8-1" 106.3800 "Sandstone"                   "Siltstone" "Mudstone"  15.0000 70.00000 15.00000 "clay"         "silt/vf"  "Offshore_marine"                  -999.25
2340.4 "6507_8-1" 106.4200 "Sandstone"                   "Siltstone" "Mudstone"  15.0000 70.00000 15.00000 "clay"         "silt/vf"  "Offshore_marine"                  -999.25
2340.5 "6507_8-1" 105.5700 "Sandstone"                   "Siltstone" "Mudstone"  15.0000 70.00000 15.00000 "clay"         "silt/vf"  "Offshore_marine"                  -999.25
2340.6 "6507_8-1" 104.7300 "Sandstone"                   "Siltstone" "Mudstone"  15.0000 70.00000 15.00000 "clay"         "silt/vf"  "Offshore_marine"                  -999.25
2340.7 "6507_8-1" 103.8900 "Sandstone"                   "Siltstone" "Mudstone"  15.0000 70.00000 15.00000 "clay"         "silt/vf"  "Offshore_marine"                  -999.25
2340.8 "6507_8-1" 103.0400 "Sandstone"                   "Siltstone" "Mudstone"  15.0000 70.00000 15.00000 "clay"         "silt/vf"  "Offshore_marine"                  -999.25
2340.9 "6507_8-1" 102.2000 "Sandstone"                   "Siltstone" "Mudstone"  15.0000 70.00000 15.00000 "clay"         "silt/vf"  "Offshore_marine"                  -999.25
2341.0 "6507_8-1" 101.3600 "Sandstone"                   "Siltstone" "Mudstone"  15.0000 70.00000 15.00000 "clay"         "silt/vf"  "Offshore_marine"                  -999.25
2341.1 "6507_8-1" 100.8400 "Sandstone"                   "Siltstone" "Mudstone"  15.0000 70.00000 15.00000 "clay"         "silt/vf"  "Offshore_marine"                  -999.25
2341.2 "6507_8-1" 101.1800 "Sandstone"                   "Siltstone" "Mudstone"  15.0000 70.00000 15.00000 "clay"         "silt/vf"  "Offshore_marine"                  -999.25
2341.3 "6507_8-1" 101.9300 "Sandstone"                   "Siltstone" "Mudstone"  15.0000 70.00000 15.00000 "clay"         "silt/vf"  "Offshore_marine"                  -999.25
2341.4 "6507_8-1" 102.6700 "Sandstone"                   "Siltstone" "Mudstone"  15.0000 70.00000 15.00000 "clay"         "silt/vf"  "Offshore_marine"                  -999.25
2341.5 "6507_8-1" 103.4200 "Sandstone"                   "Siltstone" "Mudstone"  15.0000 70.00000 15.00000 "clay"         "silt/vf"  "Offshore_marine"                  -999.25
2341.6 "6507_8-1" 104.1700 "Sandstone"                   "Siltstone" "Mudstone"  15.0000 70.00000 15.00000 "clay"         "silt/vf"  "Offshore_marine"                  -999.25
2341.7 "6507_8-1" 104.1000 "Sandstone"                   "Siltstone" "Mudstone"  15.0000 70.00000 15.00000 "clay"         "silt/vf"  "Offshore_marine"                  -999.25
2341.8 "6507_8-1" 103.5400 "Sandstone"                   "Siltstone" "Mudstone"  15.0000 70.00000 15.00000 "clay"         "silt/vf"  "Offshore_marine"                  -999.25
2341.9 "6507_8-1" 105.4200 "Sandstone"                   "Siltstone" "Mudstone"  15.0000 70.00000 15.00000 "clay"         "silt/vf"  "Offshore_marine"                  -999.25
2342.0 "6507_8-1" 107.4400 "Sandstone"                   "Siltstone" "Mudstone"  15.0000 70.00000 15.00000 "clay"         "silt/vf"  "Offshore_marine"                  -999.25
2342.1 "6507_8-1" 109.4700 "Sandstone"                   "Siltstone" "Mudstone"  15.0000 70.00000 15.00000 "clay"         "silt/vf"  "Offshore_marine"                  -999.25
2342.2 "6507_8-1" 111.5000 "Sandstone"                   "Siltstone" "Mudstone"  15.0000 70.00000 15.00000 "clay"         "silt/vf"  "Offshore_marine"                  -999.25
2342.3 "6507_8-1" 112.3300 "Sandstone"                   "Siltstone" "Mudstone"  15.0000 70.00000 15.00000 "clay"         "silt/vf"  "Offshore_marine"                  -999.25
2342.4 "6507_8-1" 112.9500 "Sandstone"                   "Siltstone" "Mudstone"  15.0000 70.00000 15.00000 "clay"         "silt/vf"  "Offshore_marine"                  -999.25
2342.5 "6507_8-1" 113.5800 "Sandstone"                   "Siltstone" "Mudstone"  15.0000 70.00000 15.00000 "clay"         "silt/vf"  "Offshore_marine"                  -999.25
2342.6 "6507_8-1" 114.0300 "Sandstone"                   "Siltstone" "Mudstone"  15.0000 70.00000 15.00000 "clay"         "silt/vf"  "Offshore_marine"                  -999.25
2342.7 "6507_8-1" 113.9700 "Sandstone"                   "Siltstone" "Mudstone"  15.0000 70.00000 15.00000 "clay"         "silt/vf"  "Offshore_marine"                  -999.25
2342.8 "6507_8-1" 113.9000 "Sandstone"                   "Siltstone" "Mudstone"  15.0000 70.00000 15.00000 "clay"         "silt/vf"  "Offshore_marine"                  -999.25
2342.9 "6507_8-1" 113.7100 "Sandstone"                   "Siltstone" "Mudstone"  15.0000 70.00000 15.00000 "clay"         "silt/vf"  "Offshore_marine"                  -999.25
2343.0 "6507_8-1" 113.3200 "Sandstone"                   "Siltstone" "Mudstone"  15.0000 70.00000 15.00000 "clay"         "silt/vf"  "Offshore_marine"                  -999.25
2343.1 "6507_8-1" 112.9300 "Sandstone"                   "Siltstone" "Mudstone"  15.0000 70.00000 15.00000 "clay"         "silt/vf"  "Offshore_marine"                  -999.25
2343.2 "6507_8-1" 112.5400 "Sandstone"                   "Siltstone" "Mudstone"  15.0000 70.00000 15.00000 "clay"         "silt/vf"  "Offshore_marine"                  -999.25
2343.3 "6507_8-1" 112.1500 "Sandstone"                   "Siltstone" "Mudstone"  15.0000 70.00000 15.00000 "clay"         "silt/vf"  "Offshore_marine"                  -999.25
2343.4 "6507_8-1" 112.0900 "Sandstone"                   "Siltstone" "Mudstone"  15.0000 70.00000 15.00000 "clay"         "silt/vf"  "Offshore_marine"                  -999.25
2343.5 "6507_8-1" 112.3000 "Sandstone"                   "Siltstone" "Mudstone"  15.0000 70.00000 15.00000 "clay"         "silt/vf"  "Offshore_marine"                  -999.25
2343.6 "6507_8-1" 112.5100 "Sandstone"                   "Siltstone" "Mudstone"  15.0000 70.00000 15.00000 "clay"         "silt/vf"  "Offshore_marine"                  -999.25
2343.7 "6507_8-1" 112.7100 "Sandstone"                   "Siltstone" "Mudstone"  15.0000 70.00000 15.00000 "clay"         "silt/vf"  "Offshore_marine"                  -999.25
2343.8 "6507_8-1" 112.9200 "Sandstone"                   "Siltstone" "Mudstone"  15.0000 70.00000 15.00000 "clay"         "silt/vf"  "Offshore_marine"                  -999.25
2343.9 "6507_8-1" 112.6600 -999.25                       -999.25   -999.25    -999.25  -999.25  -999.25 -999.25        -999.25    -999.25                            -999.25
