~Version
VERS  .                                 3.0 : CWLS LAS ASCII Standard - Version 3.0
WRAP  . NO                                  : One line per depth step
DLM   . SPACE                               : Column data section delimiter
SOURCE. Converted to LAS by Log Studio 4.76 : GeoProvider

~Well
STRT.         2260.0 : Start depth
STOP.         2495.0 : Stop depth
STEP.              1 : Step
NULL.        -999.25 : No-value
COMP.                : Company
WELL. 6507/8-1       : Well
FLD .                : Field
LOC .                : Location
LATI.                : Latitude
LONG.                : Longitude
GDAT.                : Geodetic datum
CNTY.                : County
STAT.                : State
CTRY.                : Country
SRVC. GeoProvider AS : Service company
DATE.                : Date
API .                : API number
RUN .                : Run number

~Parameters
WellboreName.  : Wellbore name
RigName     .  : Rig name
StartDate   .  : Start date

~Curves
DEPTH.m            .  : null {F}Depth mMD
Hole_ID.-          .  : null {S}Hole ID
GR.API             .  : null {F}Gamma Ray
Lithology1.-       .  : null {S}Lithology 1
Lithology2.-       .  : null {S}Lithology 2
Lithology3.-       .  : null {S}Lithology 3
Lithology1.%       .  : null {F}Lithology 1 percentage
Lithology2.%       .  : null {F}Lithology 2 percentage
Lithology3.%       .  : null {F}Lithology 3 percentage
Grain_size_Top.-   .  : null {S}Grain size at the top 
Grain_size_Base.-  .  : null {S}Grain size at the bottom
Sub_Environment.-  .  : null {S}Sub Environment
Gross_Environment.-.  : null {S}Gross Environment

~Ascii
# ...
2330.2 "6507_8-1"  90.9000 "Sandstone"                   "Limestone" "Mudstone"  75.0000  5.00000 20.00000 "vf"           "silt/vf"  "Offshore_marine"                  -999.25
2330.3 "6507_8-1"  91.5100 "Sandstone"                   "Limestone" "Mudstone"  75.0000  5.00000 20.00000 "vf"           "silt/vf"  "Offshore_marine"                  -999.25
2330.4 "6507_8-1"  91.7000 "Sandstone"                   "Limestone" "Mudstone"  75.0000  5.00000 20.00000 "vf"           "silt/vf"  "Offshore_marine"                  -999.25
2330.5 "6507_8-1"  91.8900 "Sandstone"                   "Limestone" "Mudstone"  75.0000  5.00000 20.00000 "vf"           "silt/vf"  "Offshore_marine"                  -999.25
2330.6 "6507_8-1"  92.0800 "Sandstone"                   "Limestone" "Mudstone"  75.0000  5.00000 20.00000 "vf"           "silt/vf"  "Offshore_marine"                  -999.25
2330.7 "6507_8-1"  92.2600 "Sandstone"                   "Limestone" "Mudstone"  75.0000  5.00000 20.00000 "vf"           "silt/vf"  "Offshore_marine"                  -999.25
2330.8 "6507_8-1"  94.1200 "Sandstone"                   "Limestone" "Mudstone"  75.0000  5.00000 20.00000 "vf"           "silt/vf"  "Offshore_marine"                  -999.25
2330.9 "6507_8-1"  95.3100 "Sandstone"                   "Limestone" "Mudstone"  75.0000  5.00000 20.00000 "vf"           "silt/vf"  "Offshore_marine"                  -999.25
2331.0 "6507_8-1"  96.0500 "Sandstone"                   "Limestone" "Mudstone"  75.0000  5.00000 20.00000 "vf"           "silt/vf"  "Offshore_marine"                  -999.25
2331.1 "6507_8-1"  96.7800 "Sandstone"                   "Limestone" "Mudstone"  75.0000  5.00000 20.00000 "vf"           "silt/vf"  "Offshore_marine"                  -999.25
2331.2 "6507_8-1"  97.4100 "Sandstone"                   "Limestone" "Mudstone"  75.0000  5.00000 20.00000 "vf"           "silt/vf"  "Offshore_marine"                  -999.25
2331.3 "6507_8-1"  98.0000 "Sandstone"                   "Limestone" "Mudstone"  75.0000  5.00000 20.00000 "vf"           "silt/vf"  "Offshore_marine"                  -999.25
2331.4 "6507_8-1"  98.5800 "Sandstone"                   "Limestone" "Mudstone"  75.0000  5.00000 20.00000 "vf"           "silt/vf"  "Offshore_marine"                  -999.25
2331.5 "6507_8-1"  99.1800 "Sandstone"                   "Limestone" "Mudstone"  75.0000  5.00000 20.00000 "vf"           "silt/vf"  "Offshore_marine"                  -999.25
2331.6 "6507_8-1"  99.8300 "Sandstone"                   "Limestone" "Mudstone"  75.0000  5.00000 20.00000 "vf"           "silt/vf"  "Offshore_marine"                  -999.25
2331.7 "6507_8-1" 100.3400 "Sandstone"                   "Limestone" "Mudstone"  75.0000  5.00000 20.00000 "vf"           "silt/vf"  "Offshore_marine"                  -999.25
2331.8 "6507_8-1" 100.4200 "Sandstone"                   "Limestone" "Mudstone"  75.0000  5.00000 20.00000 "vf"           "silt/vf"  "Offshore_marine"                  -999.25
2331.9 "6507_8-1"  99.1100 "Sandstone"                   "Limestone" "Mudstone"  75.0000  5.00000 20.00000 "vf"           "silt/vf"  "Offshore_marine"                  -999.25
2332.0 "6507_8-1"  97.7900 "Sandstone"                   "Limestone" "Mudstone"  75.0000  5.00000 20.00000 "vf"           "silt/vf"  "Offshore_marine"                  -999.25
2332.1 "6507_8-1"  96.4700 "Sandstone"                   "Limestone" "Mudstone"  75.0000  5.00000 20.00000 "vf"           "silt/vf"  "Offshore_marine"                  -999.25
2332.2 "6507_8-1"  95.4700 "Sandstone"                   "Limestone" "Mudstone"  75.0000  5.00000 20.00000 "vf"           "silt/vf"  "Offshore_marine"                  -999.25
2332.3 "6507_8-1"  94.5900 "Sandstone"                   "Limestone" "Mudstone"  75.0000  5.00000 20.00000 "vf"           "silt/vf"  "Offshore_marine"                  -999.25
2332.4 "6507_8-1"  93.8200 "Sandstone"                   "Limestone" "Mudstone"  75.0000  5.00000 20.00000 "vf"           "silt/vf"  "Offshore_marine"                  -999.25
2332.5 "6507_8-1"  93.8200 "Sandstone"                   "Limestone" "Mudstone"  75.0000  5.00000 20.00000 "vf"           "silt/vf"  "Offshore_marine"                  -999.25
2332.6 "6507_8-1"  93.8200 "Sandstone"                   "Limestone" "Mudstone"  75.0000  5.00000 20.00000 "vf"           "silt/vf"  "Offshore_marine"                  -999.25
2332.7 "6507_8-1"  93.5000 "Sandstone"                   "Limestone" "Mudstone"  75.0000  5.00000 20.00000 "vf"           "silt/vf"  "Offshore_marine"                  -999.25
2332.8 "6507_8-1"  92.5400 "Sandstone"                   "Limestone" "Mudstone"  75.0000  5.00000 20.00000 "vf"           "silt/vf"  "Offshore_marine"                  -999.25
2332.9 "6507_8-1"  91.5900 "Sandstone"                   "Limestone" "Mudstone"  75.0000  5.00000 20.00000 "vf"           "silt/vf"  "Offshore_marine"                  -999.25
2333.0 "6507_8-1"  90.6300 "Sandstone"                   "Limestone" "Mudstone"  75.0000  5.00000 20.00000 "vf"           "silt/vf"  "Offshore_marine"                  -999.25
2333.1 "6507_8-1"  89.6800 "Sandstone"                   "Limestone" "Mudstone"  75.0000  5.00000 20.00000 "vf"           "silt/vf"  "Offshore_marine"                  -999.25
2333.2 "6507_8-1"  88.7200 "Sandstone"                   "Limestone" "Mudstone"  75.0000  5.00000 20.00000 "vf"           "silt/vf"  "Offshore_marine"                  -999.25
2333.3 "6507_8-1"  87.7700 "Sandstone"                   "Limestone" "Mudstone"  75.0000  5.00000 20.00000 "vf"           "silt/vf"  "Offshore_marine"                  -999.25
2333.4 "6507_8-1"  86.8100 "Sandstone"                   "Limestone" "Mudstone"  75.0000  5.00000 20.00000 "vf"           "silt/vf"  "Offshore_marine"                  -999.25
2333.5 "6507_8-1"  85.8500 "Sandstone"                   "Limestone" "Mudstone"  75.0000  5.00000 20.00000 "vf"           "silt/vf"  "Offshore_marine"                  -999.25
2333.6 "6507_8-1"  86.3400 "Sandstone"                   "Limestone" "Mudstone"  75.0000  5.00000 20.00000 "vf"           "silt/vf"  "Offshore_marine"                  -999.25
2333.7 "6507_8-1"  87.9100 "Sandstone"                   "Limestone" "Mudstone"  75.0000  5.00000 20.00000 "vf"           "silt/vf"  "Offshore_marine"                  -999.25
2333.8 "6507_8-1"  89.4700 "Sandstone"                   "Limestone" "Mudstone"  75.0000  5.00000 20.00000 "vf"           "silt/vf"  "Offshore_marine"                  -999.25
2333.9 "6507_8-1"  91.0400 "Sandstone"                   "Limestone" "Mudstone"  75.0000  5.00000 20.00000 "vf"           "silt/vf"  "Offshore_marine"                  -999.25
2334.0 "6507_8-1"  92.1800 "Sandstone"                   "Limestone" "Mudstone"  75.0000  5.00000 20.00000 "vf"           "silt/vf"  "Offshore_marine"                  -999.25
2334.1 "6507_8-1"  92.7700 "Sandstone"                   "Limestone" "Mudstone"  75.0000  5.00000 20.00000 "vf"           "silt/vf"  "Offshore_marine"                  -999.25
2334.2 "6507_8-1"  92.9300 "Sandstone"                   "Limestone" "Mudstone"  75.0000  5.00000 20.00000 "vf"           "silt/vf"  "Offshore_marine"                  -999.25
2334.3 "6507_8-1"  93.1000 "Sandstone"                   "Limestone" "Mudstone"  75.0000  5.00000 20.00000 "vf"           "silt/vf"  "Offshore_marine"                  -999.25
2334.4 "6507_8-1"  93.2600 "Sandstone"                   "Limestone" "Mudstone"  75.0000  5.00000 20.00000 "vf"           "silt/vf"  "Offshore_marine"                  -999.25
2334.5 "6507_8-1"  93.4300 "Sandstone"                   "Limestone" "Mudstone"  75.0000  5.00000 20.00000 "vf"           "silt/vf"  "Offshore_marine"                  -999.25
2334.6 "6507_8-1"  93.5900 "Sandstone"                   "Limestone" "Mudstone"  75.0000  5.00000 20.00000 "vf"           "silt/vf"  "Offshore_marine"                  -999.25
2334.7 "6507_8-1"  93.7500 "Sandstone"                   "Limestone" "Mudstone"  75.0000  5.00000 20.00000 "vf"           "silt/vf"  "Offshore_marine"                  -999.25
