~Version
VERS  .                                 3.0 : CWLS LAS ASCII Standard - Version 3.0
WRAP  . NO                                  : One line per depth step
DLM   . SPACE                               : Column data section delimiter
SOURCE. Converted to LAS by Log Studio 4.76 : GeoProvider

~Well
STRT.         2260.0 : Start depth
STOP.         2495.0 : Stop depth
STEP.              1 : Step
NULL.        -999.25 : No-value
COMP.                : Company
WELL. 6507/8-1       : Well
FLD .                : Field
LOC .                : Location
LATI.                : Latitude
LONG.                : Longitude
GDAT.                : Geodetic datum
CNTY.                : County
STAT.                : State
CTRY.                : Country
SRVC. GeoProvider AS : Service company
DATE.                : Date
API .                : API number
RUN .                : Run number

~Parameters
WellboreName.  : Wellbore name
RigName     .  : Rig name
StartDate   .  : Start date

~Curves
DEPTH.m            .  : null {F}Depth mMD
Hole_ID.-          .  : null {S}Hole ID
GR.API             .  : null {F}Gamma Ray
Lithology1.-       .  : null {S}Lithology 1
Lithology2.-       .  : null {S}Lithology 2
Lithology3.-       .  : null {S}Lithology 3
Lithology1.%       .  : null {F}Lithology 1 percentage
Lithology2.%       .  : null {F}Lithology 2 percentage
Lithology3.%       .  : null {F}Lithology 3 percentage
Grain_size_Top.-   .  : null {S}Grain size at the top 
Grain_size_Base.-  .  : null {S}Grain size at the bottom
Sub_Environment.-  .  : null {S}Sub Environment
Gross_Environment.-.  : null {S}Gross Environment

~Ascii
# ...
2423.3 "6507_8-1"  83.2500 "Sandstone"                   -999.25   -999.25   100.0000      0.0      0.0 "c"            "c"        -999.25                            -999.25
2423.4 "6507_8-1"  82.9900 "Sandstone"                   -999.25   -999.25   100.0000      0.0      0.0 "c"            "c"        -999.25                            -999.25
2423.5 "6507_8-1"  80.5000 "Sandstone"                   -999.25   -999.25   100.0000      0.0      0.0 "c"            "c"        -999.25                            -999.25
2423.6 "6507_8-1"  77.9700 "Sandstone"                   -999.25   -999.25   100.0000      0.0      0.0 "c"            "c"        -999.25                            -999.25
2423.7 "6507_8-1"  75.4400 "Sandstone"                   -999.25   -999.25   100.0000      0.0      0.0 "c/vc"         "c/vc"     -999.25                            -999.25
2423.8 "6507_8-1"  72.9100 "Sandstone"                   -999.25   -999.25   100.0000      0.0      0.0 "c/vc"         "c/vc"     -999.25                            -999.25
2423.9 "6507_8-1"  70.3900 "Sandstone"                   -999.25   -999.25   100.0000      0.0      0.0 "c/vc"         "c/vc"     -999.25                            -999.25
2424.0 "6507_8-1"  69.2300 "Sandstone"                   -999.25   -999.25   100.0000      0.0      0.0 "c/vc"         "c/vc"     -999.25                            -999.25
2424.1 "6507_8-1"  68.6600 "Sandstone"                   "Shale"   -999.25    82.0000 18.00000      0.0 "f/m"          "f/m"      -999.25                            -999.25
2424.2 "6507_8-1"  68.1000 "Sandstone"                   "Shale"   -999.25    82.0000 18.00000      0.0 "f/m"          "f/m"      -999.25                            -999.25
2424.3 "6507_8-1"  67.5400 "Sandstone"                   "Shale"   -999.25    82.0000 18.00000      0.0 "f/m"          "f/m"      -999.25                            -999.25
2424.4 "6507_8-1"  66.9700 "Sandstone"                   "Shale"   -999.25    82.0000 18.00000      0.0 "f/m"          "f/m"      -999.25                            -999.25
2424.5 "6507_8-1"  66.4100 "Sandstone"                   "Shale"   -999.25    82.0000 18.00000      0.0 "f/m"          "f/m"      -999.25                            -999.25
2424.6 "6507_8-1"  67.9600 "Sandstone"                   "Shale"   -999.25    82.0000 18.00000      0.0 "f/m"          "f/m"      -999.25                            -999.25
2424.7 "6507_8-1"  70.7800 "Sandstone"                   "Shale"   -999.25    82.0000 18.00000      0.0 "f/m"          "f/m"      -999.25                            -999.25
2424.8 "6507_8-1"  73.9100 "Sandstone"                   -999.25   -999.25   100.0000      0.0      0.0 "m/c"          "m/c"      -999.25                            -999.25
2424.9 "6507_8-1"  75.7400 "Sandstone"                   -999.25   -999.25   100.0000      0.0      0.0 "m/c"          "m/c"      -999.25                            -999.25
2425.0 "6507_8-1"  76.5800 "Sandstone"                   -999.25   -999.25   100.0000      0.0      0.0 "m/c"          "m/c"      -999.25                            -999.25
2425.1 "6507_8-1"  77.4100 "Sandstone"                   -999.25   -999.25   100.0000      0.0      0.0 "m/c"          "m/c"      -999.25                            -999.25
2425.2 "6507_8-1"  78.2500 "Sandstone"                   "Shale"   -999.25    93.0000  7.00000      0.0 "f/m"          "m"        -999.25                            -999.25
2425.3 "6507_8-1"  78.6600 "Sandstone"                   "Shale"   -999.25    93.0000  7.00000      0.0 "f/m"          "m"        -999.25                            -999.25
2425.4 "6507_8-1"  79.0500 "Sandstone"                   "Shale"   -999.25    93.0000  7.00000      0.0 "f/m"          "m"        -999.25                            -999.25
2425.5 "6507_8-1"  79.4400 "Sandstone"                   "Shale"   -999.25    93.0000  7.00000      0.0 "f/m"          "m"        -999.25                            -999.25
2425.6 "6507_8-1"  80.3000 "Sandstone"                   "Shale"   -999.25    93.0000  7.00000      0.0 "f/m"          "m"        -999.25                            -999.25
2425.7 "6507_8-1"  81.4800 "Sandstone"                   "Shale"   -999.25    93.0000  7.00000      0.0 "f/m"          "m"        -999.25                            -999.25
2425.8 "6507_8-1"  82.6500 "Sandstone"                   "Shale"   -999.25    93.0000  7.00000      0.0 "f/m"          "m"        -999.25                            -999.25
2425.9 "6507_8-1"  83.8300 "Sandstone"                   -999.25   -999.25   100.0000      0.0      0.0 "m"            "m"        -999.25                            -999.25
2426.0 "6507_8-1"  85.0000 "Sandstone"                   -999.25   -999.25   100.0000      0.0      0.0 "m"            "m"        -999.25                            -999.25
2426.1 "6507_8-1"  85.6200 "Sandstone"                   -999.25   -999.25   100.0000      0.0      0.0 "m"            "m"        -999.25                            -999.25
2426.2 "6507_8-1"  84.9900 "Sandstone"                   -999.25   -999.25   100.0000      0.0      0.0 "m"            "m"        -999.25                            -999.25
2426.3 "6507_8-1"  84.3700 "Sandstone"                   -999.25   -999.25   100.0000      0.0      0.0 "f"            "vf"       -999.25                            -999.25
2426.4 "6507_8-1"  83.7500 "Sandstone"                   -999.25   -999.25   100.0000      0.0      0.0 "f"            "vf"       -999.25                            -999.25
2426.5 "6507_8-1"  83.1300 "Sandstone"                   -999.25   -999.25   100.0000      0.0      0.0 "f"            "vf"       -999.25                            -999.25
2426.6 "6507_8-1"  82.5000 "Sandstone"                   -999.25   -999.25   100.0000      0.0      0.0 "f"            "vf"       -999.25                            -999.25
2426.7 "6507_8-1"  81.8800 "Sandstone"                   -999.25   -999.25   100.0000      0.0      0.0 "f"            "vf"       -999.25                            -999.25
2426.8 "6507_8-1"  81.2600 "Sandstone"                   -999.25   -999.25   100.0000      0.0      0.0 "f"            "vf"       -999.25                            -999.25
2426.9 "6507_8-1"  80.7300 "Sandstone"                   -999.25   -999.25   100.0000      0.0      0.0 "f"            "vf"       -999.25                            -999.25
2427.0 "6507_8-1"  80.7300 "Sandstone"                   -999.25   -999.25   100.0000      0.0      0.0 "f"            "vf"       -999.25                            -999.25
2427.1 "6507_8-1"  80.7300 "Sandstone"                   -999.25   -999.25   100.0000      0.0      0.0 "f"            "vf"       -999.25                            -999.25
2427.2 "6507_8-1"  81.9000 "Sandstone"                   -999.25   -999.25   100.0000      0.0      0.0 "f"            "vf"       -999.25                            -999.25
2427.3 "6507_8-1"  83.1000 "Sandstone"                   -999.25   -999.25   100.0000      0.0      0.0 "granule/pebble" "granule"  "Erosion"                          -999.25
2427.4 "6507_8-1"  84.2900 "Sandstone"                   -999.25   -999.25   100.0000      0.0      0.0 "granule/pebble" "granule"  "Erosion"                          -999.25
2427.5 "6507_8-1"  85.4900 "Sandstone"                   -999.25   -999.25   100.0000      0.0      0.0 "granule/pebble" "granule"  "Erosion"                          -999.25
2427.6 "6507_8-1"  86.1500 "Sandstone"                   -999.25   -999.25   100.0000      0.0      0.0 "granule/pebble" "granule"  "Erosion"                          -999.25
2427.7 "6507_8-1"  86.0500 "Sandstone"                   -999.25   -999.25   100.0000      0.0      0.0 "granule/pebble" "granule"  "Erosion"                          -999.25
2427.8 "6507_8-1"  85.9500 "Sandstone"                   "Shale"   -999.25    60.0000 40.00000      0.0 "vf/f"         "vf/f"     "Mixed_tidal_flat"                 -999.25
2427.9 "6507_8-1"  85.8500 "Sandstone"                   "Shale"   -999.25    60.0000 40.00000      0.0 "vf/f"         "vf/f"     "Mixed_tidal_flat"                 -999.25
