~Version
VERS  .                                 3.0 : CWLS LAS ASCII Standard - Version 3.0
WRAP  . NO                                  : One line per depth step
DLM   . SPACE                               : Column data section delimiter
SOURCE. Converted to LAS by Log Studio 4.76 : GeoProvider

~Well
STRT.         2260.0 : Start depth
STOP.         2495.0 : Stop depth
STEP.              1 : Step
NULL.        -999.25 : No-value
COMP.                : Company
WELL. 6507/8-1       : Well
FLD .                : Field
LOC .                : Location
LATI.                : Latitude
LONG.                : Longitude
GDAT.                : Geodetic datum
CNTY.                : County
STAT.                : State
CTRY.                : Country
SRVC. GeoProvider AS : Service company
DATE.                : Date
API .                : API number
RUN .                : Run number

~Parameters
WellboreName.  : Wellbore name
RigName     .  : Rig name
StartDate   .  : Start date

~Curves
DEPTH.m            .  : null {F}Depth mMD
Hole_ID.-          .  : null {S}Hole ID
GR.API             .  : null {F}Gamma Ray
Lithology1.-       .  : null {S}Lithology 1
Lithology2.-       .  : null {S}Lithology 2
Lithology3.-       .  : null {S}Lithology 3
Lithology1.%       .  : null {F}Lithology 1 percentage
Lithology2.%       .  : null {F}Lithology 2 percentage
Lithology3.%       .  : null {F}Lithology 3 percentage
Grain_size_Top.-   .  : null {S}Grain size at the top 
Grain_size_Base.-  .  : null {S}Grain size at the bottom
Sub_Environment.-  .  : null {S}Sub Environment
Gross_Environment.-.  : null {S}Gross Environment

~Ascii
# ...
2297.6 "6507_8-1" 173.4500 "Sandstone"                   "Limestone" -999.25    93.0000  7.00000      0.0 "vf/f"         "f"        "Upper/lower_shoreface"            -999.25
2297.7 "6507_8-1" 174.2100 "Sandstone"                   "Limestone" -999.25    93.0000  7.00000      0.0 "vf/f"         "f"        "Upper/lower_shoreface"            -999.25
2297.8 "6507_8-1" 180.0400 "Sandstone"                   "Limestone" -999.25    93.0000  7.00000      0.0 "vf/f"         "f"        "Upper/lower_shoreface"            -999.25
2297.9 "6507_8-1" 185.8700 "Sandstone"                   "Limestone" -999.25    93.0000  7.00000      0.0 "vf/f"         "f"        "Upper/lower_shoreface"            -999.25
2298.0 "6507_8-1" 191.3700 "Sandstone"                   "Limestone" -999.25    93.0000  7.00000      0.0 "vf/f"         "f"        "Upper/lower_shoreface"            -999.25
2298.1 "6507_8-1" 196.5900 "Sandstone"                   "Limestone" -999.25    93.0000  7.00000      0.0 "vf/f"         "f"        "Upper/lower_shoreface"            -999.25
2298.2 "6507_8-1" 201.8100 "Sandstone"                   "Limestone" -999.25    93.0000  7.00000      0.0 "vf/f"         "f"        "Upper/lower_shoreface"            -999.25
2298.3 "6507_8-1" 201.8400 "Sandstone"                   "Limestone" -999.25    93.0000  7.00000      0.0 "vf/f"         "f"        "Upper/lower_shoreface"            -999.25
2298.4 "6507_8-1" 201.3900 "Sandstone"                   "Limestone" -999.25    93.0000  7.00000      0.0 "vf/f"         "f"        "Upper/lower_shoreface"            -999.25
2298.5 "6507_8-1" 193.2700 "Sandstone"                   "Limestone" -999.25    93.0000  7.00000      0.0 "vf/f"         "f"        "Upper/lower_shoreface"            -999.25
2298.6 "6507_8-1" 183.9100 "Sandstone"                   "Limestone" -999.25    93.0000  7.00000      0.0 "vf/f"         "f"        "Upper/lower_shoreface"            -999.25
2298.7 "6507_8-1" 174.5500 "Sandstone"                   "Limestone" -999.25    93.0000  7.00000      0.0 "vf/f"         "f"        "Upper/lower_shoreface"            -999.25
2298.8 "6507_8-1" 165.1900 "Sandstone"                   "Limestone" -999.25    93.0000  7.00000      0.0 "vf/f"         "f"        "Upper/lower_shoreface"            -999.25
2298.9 "6507_8-1" 155.8300 "Sandstone"                   "Limestone" -999.25    93.0000  7.00000      0.0 "vf/f"         "f"        "Upper/lower_shoreface"            -999.25
2299.0 "6507_8-1" 147.4200 "Sandstone"                   "Limestone" -999.25    93.0000  7.00000      0.0 "vf/f"         "f"        "Upper/lower_shoreface"            -999.25
2299.1 "6507_8-1" 143.5300 "Sandstone"                   "Limestone" -999.25    93.0000  7.00000      0.0 "vf/f"         "f"        "Upper/lower_shoreface"            -999.25
2299.2 "6507_8-1" 142.7400 "Sandstone"                   "Limestone" -999.25    93.0000  7.00000      0.0 "vf/f"         "f"        "Upper/lower_shoreface"            -999.25
2299.3 "6507_8-1" 141.9600 "Sandstone"                   "Limestone" -999.25    93.0000  7.00000      0.0 "vf/f"         "f"        "Upper/lower_shoreface"            -999.25
2299.4 "6507_8-1" 142.2200 "Sandstone"                   "Limestone" -999.25    93.0000  7.00000      0.0 "vf/f"         "f"        "Upper/lower_shoreface"            -999.25
2299.5 "6507_8-1" 142.8100 "Sandstone"                   "Limestone" -999.25    93.0000  7.00000      0.0 "vf/f"         "f"        "Upper/lower_shoreface"            -999.25
2299.6 "6507_8-1" 143.4000 "Sandstone"                   "Limestone" -999.25    93.0000  7.00000      0.0 "vf/f"         "f"        "Upper/lower_shoreface"            -999.25
2299.7 "6507_8-1" 143.9900 "Sandstone"                   "Limestone" -999.25    93.0000  7.00000      0.0 "vf/f"         "f"        "Upper/lower_shoreface"            -999.25
2299.8 "6507_8-1" 144.2900 "Sandstone"                   "Limestone" -999.25    93.0000  7.00000      0.0 "vf/f"         "f"        "Upper/lower_shoreface"            -999.25
2299.9 "6507_8-1" 140.6800 "Sandstone"                   "Limestone" -999.25    93.0000  7.00000      0.0 "vf/f"         "f"        "Upper/lower_shoreface"            -999.25
2300.0 "6507_8-1" 137.0600 "Sandstone"                   "Limestone" -999.25    93.0000  7.00000      0.0 "vf/f"         "f"        "Upper/lower_shoreface"            -999.25
2300.1 "6507_8-1" 133.4500 "Sandstone"                   "Limestone" -999.25    93.0000  7.00000      0.0 "vf/f"         "f"        "Upper/lower_shoreface"            -999.25
2300.2 "6507_8-1" 130.7500 "Sandstone"                   "Limestone" -999.25    93.0000  7.00000      0.0 "vf/f"         "f"        "Upper/lower_shoreface"            -999.25
2300.3 "6507_8-1" 130.8000 "Sandstone"                   "Limestone" -999.25    93.0000  7.00000      0.0 "vf/f"         "f"        "Upper/lower_shoreface"            -999.25
2300.4 "6507_8-1" 130.8500 "Sandstone"                   "Limestone" -999.25    93.0000  7.00000      0.0 "vf/f"         "f"        "Upper/lower_shoreface"            -999.25
2300.5 "6507_8-1" 130.9100 "Sandstone"                   "Limestone" -999.25    93.0000  7.00000      0.0 "vf/f"         "f"        "Upper/lower_shoreface"            -999.25
2300.6 "6507_8-1" 130.9600 "Sandstone"                   "Limestone" -999.25    93.0000  7.00000      0.0 "vf/f"         "f"        "Upper/lower_shoreface"            -999.25
2300.7 "6507_8-1" 134.0100 "Sandstone"                   "Limestone" -999.25    93.0000  7.00000      0.0 "vf/f"         "f"        "Upper/lower_shoreface"            -999.25
2300.8 "6507_8-1" 137.5900 "Sandstone"                   "Limestone" -999.25    93.0000  7.00000      0.0 "vf/f"         "f"        "Upper/lower_shoreface"            -999.25
2300.9 "6507_8-1" 140.6600 "Sandstone"                   -999.25   -999.25   100.0000      0.0      0.0 "vf/f"         "silt/vf"  "Upper/lower_shoreface"            -999.25
2301.0 "6507_8-1" 143.6000 "Sandstone"                   -999.25   -999.25   100.0000      0.0      0.0 "vf/f"         "silt/vf"  "Upper/lower_shoreface"            -999.25
2301.1 "6507_8-1" 145.5400 "Sandstone"                   -999.25   -999.25   100.0000      0.0      0.0 "vf/f"         "silt/vf"  "Upper/lower_shoreface"            -999.25
2301.2 "6507_8-1" 146.2400 "Sandstone"                   -999.25   -999.25   100.0000      0.0      0.0 "vf/f"         "silt/vf"  "Upper/lower_shoreface"            -999.25
2301.3 "6507_8-1" 146.9500 "Sandstone"                   -999.25   -999.25   100.0000      0.0      0.0 "vf/f"         "silt/vf"  "Upper/lower_shoreface"            -999.25
2301.4 "6507_8-1" 148.6300 "Sandstone"                   -999.25   -999.25   100.0000      0.0      0.0 "vf/f"         "silt/vf"  "Upper/lower_shoreface"            -999.25
2301.5 "6507_8-1" 151.2400 "Sandstone"                   -999.25   -999.25   100.0000      0.0      0.0 "vf/f"         "silt/vf"  "Upper/lower_shoreface"            -999.25
2301.6 "6507_8-1" 153.8500 "Sandstone"                   -999.25   -999.25   100.0000      0.0      0.0 "vf/f"         "silt/vf"  "Upper/lower_shoreface"            -999.25
2301.7 "6507_8-1" 156.4600 "Sandstone"                   -999.25   -999.25   100.0000      0.0      0.0 "vf/f"         "silt/vf"  "Upper/lower_shoreface"            -999.25
2301.8 "6507_8-1" 159.0700 "Sandstone"                   -999.25   -999.25   100.0000      0.0      0.0 "vf/f"         "silt/vf"  "Upper/lower_shoreface"            -999.25
2301.9 "6507_8-1" 162.0400 "Sandstone"                   -999.25   -999.25   100.0000      0.0      0.0 "vf/f"         "silt/vf"  "Upper/lower_shoreface"            -999.25
2302.0 "6507_8-1" 166.3900 "Sandstone"                   -999.25   -999.25   100.0000      0.0      0.0 "vf/f"         "silt/vf"  "Upper/lower_shoreface"            -999.25
2302.1 "6507_8-1" 162.3900 "Sandstone"                   -999.25   -999.25   100.0000      0.0      0.0 "vf/f"         "silt/vf"  "Upper/lower_shoreface"            -999.25
