~Version
VERS  .                                 3.0 : CWLS LAS ASCII Standard - Version 3.0
WRAP  . NO                                  : One line per depth step
DLM   . SPACE                               : Column data section delimiter
SOURCE. Converted to LAS by Log Studio 4.76 : GeoProvider

~Well
STRT.         2260.0 : Start depth
STOP.         2495.0 : Stop depth
STEP.              1 : Step
NULL.        -999.25 : No-value
COMP.                : Company
WELL. 6507/8-1       : Well
FLD .                : Field
LOC .                : Location
LATI.                : Latitude
LONG.                : Longitude
GDAT.                : Geodetic datum
CNTY.                : County
STAT.                : State
CTRY.                : Country
SRVC. GeoProvider AS : Service company
DATE.                : Date
API .                : API number
RUN .                : Run number

~Parameters
WellboreName.  : Wellbore name
RigName     .  : Rig name
StartDate   .  : Start date

~Curves
DEPTH.m            .  : null {F}Depth mMD
Hole_ID.-          .  : null {S}Hole ID
GR.API             .  : null {F}Gamma Ray
Lithology1.-       .  : null {S}Lithology 1
Lithology2.-       .  : null {S}Lithology 2
Lithology3.-       .  : null {S}Lithology 3
Lithology1.%       .  : null {F}Lithology 1 percentage
Lithology2.%       .  : null {F}Lithology 2 percentage
Lithology3.%       .  : null {F}Lithology 3 percentage
Grain_size_Top.-   .  : null {S}Grain size at the top 
Grain_size_Base.-  .  : null {S}Grain size at the bottom
Sub_Environment.-  .  : null {S}Sub Environment
Gross_Environment.-.  : null {S}Gross Environment

~Ascii
# ...
2404.6 "6507_8-1"  84.1600 -999.25                       -999.25   -999.25   100.0000      0.0      0.0 -999.25        -999.25    "Tidalflat_-_Tidal_sandbar_complex" -999.25
2404.7 "6507_8-1"  85.7600 "Sandstone"                   -999.25   -999.25   100.0000      0.0      0.0 "m/c"          "m/c"      "Tidalflat_-_Tidal_sandbar_complex" -999.25
2404.8 "6507_8-1"  87.3700 "Sandstone"                   -999.25   -999.25   100.0000      0.0      0.0 "m/c"          "m/c"      "Tidalflat_-_Tidal_sandbar_complex" -999.25
2404.9 "6507_8-1"  88.9700 "Sandstone"                   -999.25   -999.25   100.0000      0.0      0.0 "m/c"          "m/c"      "Tidalflat_-_Tidal_sandbar_complex" -999.25
2405.0 "6507_8-1"  90.5300 "Sandstone"                   -999.25   -999.25   100.0000      0.0      0.0 "m/c"          "m/c"      "Tidalflat_-_Tidal_sandbar_complex" -999.25
2405.1 "6507_8-1"  91.9800 "Sandstone"                   -999.25   -999.25   100.0000      0.0      0.0 "m/c"          "m/c"      "Tidalflat_-_Tidal_sandbar_complex" -999.25
2405.2 "6507_8-1"  93.4200 "Sandstone"                   -999.25   -999.25   100.0000      0.0      0.0 "m/c"          "f/m"      "Tidalflat_-_Tidal_sandbar_complex" -999.25
2405.3 "6507_8-1"  94.6200 "Sandstone"                   -999.25   -999.25   100.0000      0.0      0.0 "m/c"          "f/m"      "Tidalflat_-_Tidal_sandbar_complex" -999.25
2405.4 "6507_8-1"  94.3600 "Sandstone"                   -999.25   -999.25   100.0000      0.0      0.0 "m/c"          "f/m"      "Tidalflat_-_Tidal_sandbar_complex" -999.25
2405.5 "6507_8-1"  94.1000 "Sandstone"                   -999.25   -999.25   100.0000      0.0      0.0 "m/c"          "f/m"      "Tidalflat_-_Tidal_sandbar_complex" -999.25
2405.6 "6507_8-1"  92.8300 "Sandstone"                   -999.25   -999.25   100.0000      0.0      0.0 "m/c"          "f/m"      "Tidalflat_-_Tidal_sandbar_complex" -999.25
2405.7 "6507_8-1"  91.5500 "Sandstone"                   -999.25   -999.25   100.0000      0.0      0.0 "m/c"          "f/m"      "Tidalflat_-_Tidal_sandbar_complex" -999.25
2405.8 "6507_8-1"  90.2700 "Sandstone"                   -999.25   -999.25   100.0000      0.0      0.0 "m/c"          "f/m"      "Tidalflat_-_Tidal_sandbar_complex" -999.25
2405.9 "6507_8-1"  88.9900 "Sandstone"                   -999.25   -999.25   100.0000      0.0      0.0 "m/c"          "f/m"      "Tidalflat_-_Tidal_sandbar_complex" -999.25
2406.0 "6507_8-1"  87.7100 "Sandstone"                   -999.25   -999.25   100.0000      0.0      0.0 "m/c"          "f/m"      "Tidalflat_-_Tidal_sandbar_complex" -999.25
2406.1 "6507_8-1"  86.4300 "Sandstone"                   -999.25   -999.25   100.0000      0.0      0.0 "m/c"          "f/m"      "Tidalflat_-_Tidal_sandbar_complex" -999.25
2406.2 "6507_8-1"  85.1500 "Sandstone"                   "Limestone" "Shale"    82.0000 10.00000  8.00000 "m/c"          "m"        "Tidalflat_-_Tidal_sandbar_complex" -999.25
2406.3 "6507_8-1"  83.8700 "Sandstone"                   "Limestone" "Shale"    82.0000 10.00000  8.00000 "m/c"          "m"        "Tidalflat_-_Tidal_sandbar_complex" -999.25
2406.4 "6507_8-1"  82.5900 "Sandstone"                   "Limestone" "Shale"    82.0000 10.00000  8.00000 "m/c"          "m"        "Tidalflat_-_Tidal_sandbar_complex" -999.25
2406.5 "6507_8-1"  81.8200 "Sandstone"                   "Limestone" "Shale"    82.0000 10.00000  8.00000 "m/c"          "m"        "Tidalflat_-_Tidal_sandbar_complex" -999.25
2406.6 "6507_8-1"  84.3700 "Sandstone"                   "Limestone" "Shale"    82.0000 10.00000  8.00000 "m/c"          "m"        "Tidalflat_-_Tidal_sandbar_complex" -999.25
2406.7 "6507_8-1"  86.5200 "Sandstone"                   "Limestone" "Shale"    82.0000 10.00000  8.00000 "m/c"          "m"        "Tidalflat_-_Tidal_sandbar_complex" -999.25
2406.8 "6507_8-1"  87.2000 "Sandstone"                   "Limestone" "Shale"    82.0000 10.00000  8.00000 "m/c"          "m"        "Tidalflat_-_Tidal_sandbar_complex" -999.25
2406.9 "6507_8-1"  87.8700 "Sandstone"                   "Limestone" "Shale"    82.0000 10.00000  8.00000 "m/c"          "m"        "Tidalflat_-_Tidal_sandbar_complex" -999.25
2407.0 "6507_8-1"  88.5500 "Sandstone"                   "Limestone" "Shale"    82.0000 10.00000  8.00000 "m/c"          "m"        "Tidalflat_-_Tidal_sandbar_complex" -999.25
2407.1 "6507_8-1"  89.2300 "Sandstone"                   "Limestone" "Shale"    82.0000 10.00000  8.00000 "m/c"          "m"        "Tidalflat_-_Tidal_sandbar_complex" -999.25
2407.2 "6507_8-1"  89.9000 "Sandstone"                   "Limestone" "Shale"    82.0000 10.00000  8.00000 "m/c"          "m"        "Tidalflat_-_Tidal_sandbar_complex" -999.25
2407.3 "6507_8-1"  91.9700 "Sandstone"                   "Shale"   -999.25    95.0000  5.00000      0.0 "vf/f"         "m"        "Tidalflat_-_Tidal_sandbar_complex" -999.25
2407.4 "6507_8-1"  94.1500 "Sandstone"                   "Shale"   -999.25    95.0000  5.00000      0.0 "vf/f"         "m"        "Tidalflat_-_Tidal_sandbar_complex" -999.25
2407.5 "6507_8-1"  96.3400 "Sandstone"                   "Shale"   -999.25    95.0000  5.00000      0.0 "vf/f"         "m"        "Tidalflat_-_Tidal_sandbar_complex" -999.25
2407.6 "6507_8-1"  96.6900 "Sandstone"                   "Shale"   -999.25    95.0000  5.00000      0.0 "vf/f"         "m"        "Tidalflat_-_Tidal_sandbar_complex" -999.25
2407.7 "6507_8-1"  95.6200 "Sandstone"                   "Shale"   -999.25    95.0000  5.00000      0.0 "vf/f"         "m"        "Tidalflat_-_Tidal_sandbar_complex" -999.25
2407.8 "6507_8-1"  94.5500 "Sandstone"                   "Shale"   -999.25    95.0000  5.00000      0.0 "vf/f"         "m"        "Tidalflat_-_Tidal_sandbar_complex" -999.25
2407.9 "6507_8-1"  93.4700 "Sandstone"                   "Shale"   -999.25    95.0000  5.00000      0.0 "vf/f"         "m"        "Tidalflat_-_Tidal_sandbar_complex" -999.25
2408.0 "6507_8-1"  92.4000 "Sandstone"                   "Shale"   -999.25    95.0000  5.00000      0.0 "vf/f"         "m"        "Tidalflat_-_Tidal_sandbar_complex" -999.25
2408.1 "6507_8-1"  93.7300 "Sandstone"                   -999.25   -999.25   100.0000      0.0      0.0 "c"            "f"        "Foreshore"                        -999.25
2408.2 "6507_8-1"  95.0700 "Sandstone"                   -999.25   -999.25   100.0000      0.0      0.0 "c"            "f"        "Foreshore"                        -999.25
2408.3 "6507_8-1"  96.4000 "Sandstone"                   -999.25   -999.25   100.0000      0.0      0.0 "c"            "f"        "Foreshore"                        -999.25
2408.4 "6507_8-1"  97.7400 -999.25                       -999.25   -999.25    -999.25  -999.25  -999.25 -999.25        -999.25    "Foreshore"                        -999.25
2408.5 "6507_8-1"  96.2500 -999.25                       -999.25   -999.25    -999.25  -999.25  -999.25 -999.25        -999.25    "Foreshore"                        -999.25
2408.6 "6507_8-1"  94.4900 -999.25                       -999.25   -999.25    -999.25  -999.25  -999.25 -999.25        -999.25    "Foreshore"                        -999.25
2408.7 "6507_8-1"  92.6500 -999.25                       -999.25   -999.25    -999.25  -999.25  -999.25 -999.25        -999.25    "Foreshore"                        -999.25
2408.8 "6507_8-1"  88.4200 -999.25                       -999.25   -999.25    -999.25  -999.25  -999.25 -999.25        -999.25    "Foreshore"                        -999.25
2408.9 "6507_8-1"  84.1900 -999.25                       -999.25   -999.25    -999.25  -999.25  -999.25 -999.25        -999.25    "Foreshore"                        -999.25
2409.0 "6507_8-1"  79.9600 "Sandstone"                   -999.25   -999.25   100.0000      0.0      0.0 "c/vc"         "c"        "Foreshore"                        -999.25
2409.1 "6507_8-1"  76.9100 "Sandstone"                   -999.25   -999.25   100.0000      0.0      0.0 "c/vc"         "c"        "Foreshore"                        -999.25
