~Version
VERS  .                                 3.0 : CWLS LAS ASCII Standard - Version 3.0
WRAP  . NO                                  : One line per depth step
DLM   . SPACE                               : Column data section delimiter
SOURCE. Converted to LAS by Log Studio 4.76 : GeoProvider

~Well
STRT.         2260.0 : Start depth
STOP.         2495.0 : Stop depth
STEP.              1 : Step
NULL.        -999.25 : No-value
COMP.                : Company
WELL. 6507/8-1       : Well
FLD .                : Field
LOC .                : Location
LATI.                : Latitude
LONG.                : Longitude
GDAT.                : Geodetic datum
CNTY.                : County
STAT.                : State
CTRY.                : Country
SRVC. GeoProvider AS : Service company
DATE.                : Date
API .                : API number
RUN .                : Run number

~Parameters
WellboreName.  : Wellbore name
RigName     .  : Rig name
StartDate   .  : Start date

~Curves
DEPTH.m            .  : null {F}Depth mMD
Hole_ID.-          .  : null {S}Hole ID
GR.API             .  : null {F}Gamma Ray
Lithology1.-       .  : null {S}Lithology 1
Lithology2.-       .  : null {S}Lithology 2
Lithology3.-       .  : null {S}Lithology 3
Lithology1.%       .  : null {F}Lithology 1 percentage
Lithology2.%       .  : null {F}Lithology 2 percentage
Lithology3.%       .  : null {F}Lithology 3 percentage
Grain_size_Top.-   .  : null {S}Grain size at the top 
Grain_size_Base.-  .  : null {S}Grain size at the bottom
Sub_Environment.-  .  : null {S}Sub Environment
Gross_Environment.-.  : null {S}Gross Environment

~Ascii
# ...
2316.3 "6507_8-1"  76.6600 "Sandstone"                   "Limestone" -999.25    80.0000 20.00000      0.0 "m/c"          "vf/f"     "Upper_and_lower_shoreface"        -999.25
2316.4 "6507_8-1"  75.5500 "Sandstone"                   "Limestone" -999.25    80.0000 20.00000      0.0 "m/c"          "vf/f"     "Upper_and_lower_shoreface"        -999.25
2316.5 "6507_8-1"  74.4500 "Sandstone"                   "Limestone" -999.25    80.0000 20.00000      0.0 "m/c"          "vf/f"     "Upper_and_lower_shoreface"        -999.25
2316.6 "6507_8-1"  75.5100 "Sandstone"                   "Limestone" -999.25    80.0000 20.00000      0.0 "m/c"          "vf/f"     "Upper_and_lower_shoreface"        -999.25
2316.7 "6507_8-1"  77.2000 "Sandstone"                   "Limestone" -999.25    80.0000 20.00000      0.0 "m/c"          "vf/f"     "Upper_and_lower_shoreface"        -999.25
2316.8 "6507_8-1"  78.2400 "Sandstone"                   "Limestone" -999.25    80.0000 20.00000      0.0 "m/c"          "vf/f"     "Upper_and_lower_shoreface"        -999.25
2316.9 "6507_8-1"  78.9800 "Sandstone"                   "Limestone" -999.25    80.0000 20.00000      0.0 "m/c"          "vf/f"     "Upper_and_lower_shoreface"        -999.25
2317.0 "6507_8-1"  78.7800 "Sandstone"                   "Limestone" -999.25    80.0000 20.00000      0.0 "m/c"          "vf/f"     "Upper_and_lower_shoreface"        -999.25
2317.1 "6507_8-1"  78.5900 "Sandstone"                   "Limestone" -999.25    80.0000 20.00000      0.0 "m/c"          "vf/f"     "Upper_and_lower_shoreface"        -999.25
2317.2 "6507_8-1"  78.3900 "Sandstone"                   "Limestone" -999.25    80.0000 20.00000      0.0 "m/c"          "vf/f"     "Upper_and_lower_shoreface"        -999.25
2317.3 "6507_8-1"  79.1400 "Sandstone"                   "Limestone" -999.25    80.0000 20.00000      0.0 "m/c"          "vf/f"     "Upper_and_lower_shoreface"        -999.25
2317.4 "6507_8-1"  80.2500 "Sandstone"                   "Limestone" -999.25    80.0000 20.00000      0.0 "m/c"          "vf/f"     "Upper_and_lower_shoreface"        -999.25
2317.5 "6507_8-1"  81.3600 "Sandstone"                   "Limestone" -999.25    80.0000 20.00000      0.0 "m/c"          "vf/f"     "Upper_and_lower_shoreface"        -999.25
2317.6 "6507_8-1"  85.3400 "Sandstone"                   "Limestone" -999.25    80.0000 20.00000      0.0 "m/c"          "vf/f"     "Upper_and_lower_shoreface"        -999.25
2317.7 "6507_8-1" 100.4400 "Sandstone"                   "Limestone" -999.25    80.0000 20.00000      0.0 "m/c"          "vf/f"     "Paleosol"                         -999.25
2317.8 "6507_8-1" 115.5400 "Sandstone"                   -999.25   -999.25   100.0000      0.0      0.0 "c/vc"         "vf/f"     "Paleosol"                         -999.25
2317.9 "6507_8-1" 130.6400 "Sandstone"                   -999.25   -999.25   100.0000      0.0      0.0 "c/vc"         "vf/f"     "Paleosol"                         -999.25
2318.0 "6507_8-1" 130.6400 "Sandstone"                   -999.25   -999.25   100.0000      0.0      0.0 "c/vc"         "vf/f"     "Paleosol"                         -999.25
2318.1 "6507_8-1" 130.6400 "Sandstone"                   -999.25   -999.25   100.0000      0.0      0.0 "c/vc"         "vf/f"     "Paleosol"                         -999.25
2318.2 "6507_8-1" 130.6400 "Sandstone"                   -999.25   -999.25   100.0000      0.0      0.0 "c/vc"         "vf/f"     "Paleosol"                         -999.25
2318.3 "6507_8-1" 130.6400 "Sandstone"                   -999.25   -999.25   100.0000      0.0      0.0 "c/vc"         "vf/f"     "Paleosol"                         -999.25
2318.4 "6507_8-1" 130.6400 "Sandstone"                   -999.25   -999.25   100.0000      0.0      0.0 "c/vc"         "vf/f"     "Paleosol"                         -999.25
2318.5 "6507_8-1" 124.7400 "Sandstone"                   -999.25   -999.25   100.0000      0.0      0.0 "c/vc"         "vf/f"     "Paleosol"                         -999.25
2318.6 "6507_8-1" 118.1700 "Sandstone"                   -999.25   -999.25   100.0000      0.0      0.0 "m/c"          "m/c"      "Paleosol"                         -999.25
2318.7 "6507_8-1" 111.5900 "Sandstone"                   -999.25   -999.25   100.0000      0.0      0.0 "m/c"          "m/c"      "Paleosol"                         -999.25
2318.8 "6507_8-1" 105.0200 "Sandstone"                   -999.25   -999.25   100.0000      0.0      0.0 "m/c"          "m/c"      "Paleosol"                         -999.25
2318.9 "6507_8-1"  98.4500 "Sandstone"                   -999.25   -999.25   100.0000      0.0      0.0 "m/c"          "m/c"      "Paleosol"                         -999.25
2319.0 "6507_8-1"  93.7500 "Sandstone"                   -999.25   -999.25   100.0000      0.0      0.0 "m/c"          "m/c"      "Paleosol"                         -999.25
2319.1 "6507_8-1"  89.8300 "Sandstone"                   "Limestone" -999.25    90.0000 10.00000      0.0 "m"            "m/c"      "Upper_shoreface"                  -999.25
2319.2 "6507_8-1"  85.9100 "Sandstone"                   "Limestone" -999.25    90.0000 10.00000      0.0 "m"            "m/c"      "Upper_shoreface"                  -999.25
2319.3 "6507_8-1"  81.9900 "Sandstone"                   "Limestone" -999.25    90.0000 10.00000      0.0 "m"            "m/c"      "Upper_shoreface"                  -999.25
2319.4 "6507_8-1"  80.4100 "Sandstone"                   "Limestone" -999.25    90.0000 10.00000      0.0 "m"            "m/c"      "Upper_shoreface"                  -999.25
2319.5 "6507_8-1"  80.4100 "Sandstone"                   "Limestone" -999.25    90.0000 10.00000      0.0 "m"            "m/c"      "Upper_shoreface"                  -999.25
2319.6 "6507_8-1"  80.8600 "Sandstone"                   "Limestone" -999.25    90.0000 10.00000      0.0 "m"            "m/c"      "Upper_shoreface"                  -999.25
2319.7 "6507_8-1"  81.4100 "Sandstone"                   "Limestone" -999.25    90.0000 10.00000      0.0 "m"            "m/c"      "Upper_shoreface"                  -999.25
2319.8 "6507_8-1"  81.9600 "Sandstone"                   "Limestone" -999.25    90.0000 10.00000      0.0 "m"            "m/c"      "Upper_shoreface"                  -999.25
2319.9 "6507_8-1"  83.8400 "Sandstone"                   "Limestone" -999.25    90.0000 10.00000      0.0 "m"            "m/c"      "Upper_shoreface"                  -999.25
2320.0 "6507_8-1"  85.8600 "Sandstone"                   "Limestone" -999.25    90.0000 10.00000      0.0 "m"            "m/c"      "Upper_shoreface"                  -999.25
2320.1 "6507_8-1"  87.8800 -999.25                       -999.25   -999.25    -999.25  -999.25  -999.25 -999.25        -999.25    "Upper_shoreface"                  -999.25
2320.2 "6507_8-1"  90.0300 -999.25                       -999.25   -999.25    -999.25  -999.25  -999.25 -999.25        -999.25    "Upper_shoreface"                  -999.25
2320.3 "6507_8-1"  92.3800 -999.25                       -999.25   -999.25    -999.25  -999.25  -999.25 -999.25        -999.25    "Upper_shoreface"                  -999.25
2320.4 "6507_8-1"  93.7600 -999.25                       -999.25   -999.25    -999.25  -999.25  -999.25 -999.25        -999.25    "Upper_shoreface"                  -999.25
2320.5 "6507_8-1"  95.0400 "Sandstone"                   -999.25   -999.25   100.0000      0.0      0.0 "vf/f"         "vf/f"     "Upper_shoreface"                  -999.25
2320.6 "6507_8-1"  96.3200 "Sandstone"                   -999.25   -999.25   100.0000      0.0      0.0 "vf/f"         "vf/f"     "Upper_shoreface"                  -999.25
2320.7 "6507_8-1" 106.3700 "Sandstone"                   -999.25   -999.25   100.0000      0.0      0.0 "vf/f"         "vf/f"     "Upper_shoreface"                  -999.25
2320.8 "6507_8-1" 111.0700 "Sandstone"                   -999.25   -999.25   100.0000      0.0      0.0 "vf/f"         "vf/f"     "Upper_shoreface"                  -999.25
