~Version
VERS  .                                 3.0 : CWLS LAS ASCII Standard - Version 3.0
WRAP  . NO                                  : One line per depth step
DLM   . SPACE                               : Column data section delimiter
SOURCE. Converted to LAS by Log Studio 4.76 : GeoProvider

~Well
STRT.         2260.0 : Start depth
STOP.         2495.0 : Stop depth
STEP.              1 : Step
NULL.        -999.25 : No-value
COMP.                : Company
WELL. 6507/8-1       : Well
FLD .                : Field
LOC .                : Location
LATI.                : Latitude
LONG.                : Longitude
GDAT.                : Geodetic datum
CNTY.                : County
STAT.                : State
CTRY.                : Country
SRVC. GeoProvider AS : Service company
DATE.                : Date
API .                : API number
RUN .                : Run number

~Parameters
WellboreName.  : Wellbore name
RigName     .  : Rig name
StartDate   .  : Start date

~Curves
DEPTH.m            .  : null {F}Depth mMD
Hole_ID.-          .  : null {S}Hole ID
GR.API             .  : null {F}Gamma Ray
Lithology1.-       .  : null {S}Lithology 1
Lithology2.-       .  : null {S}Lithology 2
Lithology3.-       .  : null {S}Lithology 3
Lithology1.%       .  : null {F}Lithology 1 percentage
Lithology2.%       .  : null {F}Lithology 2 percentage
Lithology3.%       .  : null {F}Lithology 3 percentage
Grain_size_Top.-   .  : null {S}Grain size at the top 
Grain_size_Base.-  .  : null {S}Grain size at the bottom
Sub_Environment.-  .  : null {S}Sub Environment
Gross_Environment.-.  : null {S}Gross Environment

~Ascii
# ...
2306.9 "6507_8-1"  81.7500 "Sandstone"                   -999.25   -999.25   100.0000      0.0      0.0 "vf/f"         "m/c"      "?Tidal_sandwave"                  -999.25
2307.0 "6507_8-1"  83.9600 "Sandstone"                   -999.25   -999.25   100.0000      0.0      0.0 "f/m"          "vf/f"     "?Tidal_sandwave"                  -999.25
2307.1 "6507_8-1"  86.1600 "Sandstone"                   -999.25   -999.25   100.0000      0.0      0.0 "f/m"          "vf/f"     "?Tidal_sandwave"                  -999.25
2307.2 "6507_8-1"  86.7100 "Sandstone"                   -999.25   -999.25   100.0000      0.0      0.0 "f/m"          "vf/f"     "?Tidal_sandwave"                  -999.25
2307.3 "6507_8-1"  85.4000 "Sandstone"                   -999.25   -999.25   100.0000      0.0      0.0 "f/m"          "vf/f"     "?Tidal_sandwave"                  -999.25
2307.4 "6507_8-1"  84.1000 "Sandstone"                   -999.25   -999.25   100.0000      0.0      0.0 "f/m"          "vf/f"     "?Tidal_sandwave"                  -999.25
2307.5 "6507_8-1"  82.7900 "Sandstone"                   -999.25   -999.25   100.0000      0.0      0.0 "f/m"          "vf/f"     "?Tidal_sandwave"                  -999.25
2307.6 "6507_8-1"  82.7700 "Sandstone"                   -999.25   -999.25   100.0000      0.0      0.0 "f/m"          "vf/f"     "?Tidal_sandwave"                  -999.25
2307.7 "6507_8-1"  83.6600 "Sandstone"                   -999.25   -999.25   100.0000      0.0      0.0 "f/m"          "vf/f"     "?Tidal_sandwave"                  -999.25
2307.8 "6507_8-1"  87.4000 "Sandstone"                   -999.25   -999.25   100.0000      0.0      0.0 "f/m"          "vf/f"     "?Tidal_sandwave"                  -999.25
2307.9 "6507_8-1"  93.6600 "Sandstone"                   -999.25   -999.25   100.0000      0.0      0.0 "f/m"          "vf/f"     "?Tidal_sandwave"                  -999.25
2308.0 "6507_8-1"  99.9300 "Sandstone"                   -999.25   -999.25   100.0000      0.0      0.0 "f/m"          "vf/f"     "?Tidal_sandwave"                  -999.25
2308.1 "6507_8-1" 103.9100 "Sandstone"                   -999.25   -999.25   100.0000      0.0      0.0 "f/m"          "vf/f"     "?Tidal_sandwave"                  -999.25
2308.2 "6507_8-1" 102.5400 "Sandstone"                   -999.25   -999.25   100.0000      0.0      0.0 "f/m"          "vf/f"     "?Tidal_sandwave"                  -999.25
2308.3 "6507_8-1" 101.1700 "Sandstone"                   -999.25   -999.25   100.0000      0.0      0.0 "f/m"          "vf/f"     "?Tidal_sandwave"                  -999.25
2308.4 "6507_8-1"  99.8000 "Sandstone"                   -999.25   -999.25   100.0000      0.0      0.0 "f/m"          "vf/f"     "?Tidal_sandwave"                  -999.25
2308.5 "6507_8-1"  98.4300 "Sandstone"                   -999.25   -999.25   100.0000      0.0      0.0 "f/m"          "vf/f"     "?Tidal_sandwave"                  -999.25
2308.6 "6507_8-1"  97.0600 "Sandstone"                   -999.25   -999.25   100.0000      0.0      0.0 "f/m"          "vf/f"     "?Tidal_sandwave"                  -999.25
2308.7 "6507_8-1"  95.3000 "Sandstone"                   -999.25   -999.25   100.0000      0.0      0.0 "f/m"          "vf/f"     "?Tidal_sandwave"                  -999.25
2308.8 "6507_8-1"  93.0200 "Sandstone"                   -999.25   -999.25   100.0000      0.0      0.0 "f/m"          "vf/f"     "?Tidal_sandwave"                  -999.25
2308.9 "6507_8-1"  90.7400 "Sandstone"                   -999.25   -999.25   100.0000      0.0      0.0 "f/m"          "vf/f"     "?Tidal_sandwave"                  -999.25
2309.0 "6507_8-1"  88.9200 "Sandstone"                   -999.25   -999.25   100.0000      0.0      0.0 "f/m"          "vf/f"     "?Tidal_sandwave"                  -999.25
2309.1 "6507_8-1"  88.9200 "Sandstone"                   -999.25   -999.25   100.0000      0.0      0.0 "f/m"          "vf/f"     "?Tidal_sandwave"                  -999.25
2309.2 "6507_8-1"  88.9200 "Sandstone"                   -999.25   -999.25   100.0000      0.0      0.0 "f/m"          "vf/f"     "Upper_and_lower_shoreface"        -999.25
2309.3 "6507_8-1"  89.8100 "Sandstone"                   -999.25   -999.25   100.0000      0.0      0.0 "f/m"          "vf/f"     "Upper_and_lower_shoreface"        -999.25
2309.4 "6507_8-1"  90.8500 "Sandstone"                   -999.25   -999.25   100.0000      0.0      0.0 "f/m"          "vf/f"     "Upper_and_lower_shoreface"        -999.25
2309.5 "6507_8-1"  91.9000 "Sandstone"                   -999.25   -999.25   100.0000      0.0      0.0 "f/m"          "vf/f"     "Upper_and_lower_shoreface"        -999.25
2309.6 "6507_8-1"  98.7300 "Sandstone"                   -999.25   -999.25   100.0000      0.0      0.0 "f/m"          "vf/f"     "Upper_and_lower_shoreface"        -999.25
2309.7 "6507_8-1" 114.5900 "Sandstone"                   -999.25   -999.25   100.0000      0.0      0.0 "f/m"          "vf/f"     "Upper_and_lower_shoreface"        -999.25
2309.8 "6507_8-1" 117.0100 "Sandstone"                   -999.25   -999.25   100.0000      0.0      0.0 "f/m"          "vf/f"     "Upper_and_lower_shoreface"        -999.25
2309.9 "6507_8-1" 119.4300 "Sandstone"                   -999.25   -999.25   100.0000      0.0      0.0 "f/m"          "vf/f"     "Upper_and_lower_shoreface"        -999.25
2310.0 "6507_8-1" 121.8500 "Sandstone"                   -999.25   -999.25   100.0000      0.0      0.0 "f/m"          "vf/f"     "Upper_and_lower_shoreface"        -999.25
2310.1 "6507_8-1" 122.5700 "Sandstone"                   -999.25   -999.25   100.0000      0.0      0.0 "f/m"          "vf/f"     "Upper_and_lower_shoreface"        -999.25
2310.2 "6507_8-1" 119.7600 "Sandstone"                   -999.25   -999.25   100.0000      0.0      0.0 "f/m"          "vf/f"     "Upper_and_lower_shoreface"        -999.25
2310.3 "6507_8-1" 115.8500 "Sandstone"                   -999.25   -999.25   100.0000      0.0      0.0 "f/m"          "vf/f"     "Upper_and_lower_shoreface"        -999.25
2310.4 "6507_8-1" 111.2900 "Sandstone"                   -999.25   -999.25   100.0000      0.0      0.0 "f/m"          "vf/f"     "Upper_and_lower_shoreface"        -999.25
2310.5 "6507_8-1" 105.8100 "Sandstone"                   -999.25   -999.25   100.0000      0.0      0.0 "f/m"          "vf/f"     "Upper_and_lower_shoreface"        -999.25
2310.6 "6507_8-1" 100.6600 "Sandstone"                   -999.25   -999.25   100.0000      0.0      0.0 "f/m"          "vf/f"     "Upper_and_lower_shoreface"        -999.25
2310.7 "6507_8-1"  98.5800 "Sandstone"                   -999.25   -999.25   100.0000      0.0      0.0 "f/m"          "vf/f"     "Upper_and_lower_shoreface"        -999.25
2310.8 "6507_8-1"  97.3800 "Sandstone"                   -999.25   -999.25   100.0000      0.0      0.0 "f/m"          "vf/f"     "Upper_and_lower_shoreface"        -999.25
2310.9 "6507_8-1"  96.1900 "Sandstone"                   -999.25   -999.25   100.0000      0.0      0.0 "f/m"          "vf/f"     "Upper_and_lower_shoreface"        -999.25
2311.0 "6507_8-1"  94.9900 "Sandstone"                   -999.25   -999.25   100.0000      0.0      0.0 "f/m"          "vf/f"     "Upper_and_lower_shoreface"        -999.25
2311.1 "6507_8-1"  93.8000 "Sandstone"                   -999.25   -999.25   100.0000      0.0      0.0 "f/m"          "vf/f"     "Upper_and_lower_shoreface"        -999.25
2311.2 "6507_8-1"  92.6300 "Sandstone"                   -999.25   -999.25   100.0000      0.0      0.0 "f/m"          "vf/f"     "Upper_and_lower_shoreface"        -999.25
2311.3 "6507_8-1"  91.5800 "Sandstone"                   -999.25   -999.25   100.0000      0.0      0.0 "f/m"          "vf/f"     "Upper_and_lower_shoreface"        -999.25
2311.4 "6507_8-1"  90.5400 "Sandstone"                   -999.25   -999.25   100.0000      0.0      0.0 "f/m"          "vf/f"     "Upper_and_lower_shoreface"        -999.25
2311.5 "6507_8-1"  89.4900 "Sandstone"                   -999.25   -999.25   100.0000      0.0      0.0 "f/m"          "vf/f"     "Upper_and_lower_shoreface"        -999.25
