~Version
VERS  .                                 3.0 : CWLS LAS ASCII Standard - Version 3.0
WRAP  . NO                                  : One line per depth step
DLM   . SPACE                               : Column data section delimiter
SOURCE. Converted to LAS by Log Studio 4.76 : GeoProvider

~Well
STRT.         2260.0 : Start depth
STOP.         2495.0 : Stop depth
STEP.              1 : Step
NULL.        -999.25 : No-value
COMP.                : Company
WELL. 6507/8-1       : Well
FLD .                : Field
LOC .                : Location
LATI.                : Latitude
LONG.                : Longitude
GDAT.                : Geodetic datum
CNTY.                : County
STAT.                : State
CTRY.                : Country
SRVC. GeoProvider AS : Service company
DATE.                : Date
API .                : API number
RUN .                : Run number

~Parameters
WellboreName.  : Wellbore name
RigName     .  : Rig name
StartDate   .  : Start date

~Curves
DEPTH.m            .  : null {F}Depth mMD
Hole_ID.-          .  : null {S}Hole ID
GR.API             .  : null {F}Gamma Ray
Lithology1.-       .  : null {S}Lithology 1
Lithology2.-       .  : null {S}Lithology 2
Lithology3.-       .  : null {S}Lithology 3
Lithology1.%       .  : null {F}Lithology 1 percentage
Lithology2.%       .  : null {F}Lithology 2 percentage
Lithology3.%       .  : null {F}Lithology 3 percentage
Grain_size_Top.-   .  : null {S}Grain size at the top 
Grain_size_Base.-  .  : null {S}Grain size at the bottom
Sub_Environment.-  .  : null {S}Sub Environment
Gross_Environment.-.  : null {S}Gross Environment

~Ascii
# ...
2469.7 "6507_8-1"  90.1300 "Sandstone"                   -999.25   -999.25   100.0000      0.0      0.0 "m"            "m/c"      "Tidal_sandflat"                   -999.25
2469.8 "6507_8-1"  90.9100 "Sandstone"                   -999.25   -999.25   100.0000      0.0      0.0 "m"            "m/c"      "Tidal_sandflat"                   -999.25
2469.9 "6507_8-1"  90.6500 "Sandstone"                   -999.25   -999.25   100.0000      0.0      0.0 "m"            "m/c"      "Tidal_sandflat"                   -999.25
2470.0 "6507_8-1"  90.1000 "Sandstone"                   -999.25   -999.25   100.0000      0.0      0.0 "m"            "m/c"      "Tidal_sandflat"                   -999.25
2470.1 "6507_8-1"  89.5600 "Sandstone"                   -999.25   -999.25   100.0000      0.0      0.0 "m"            "m/c"      "Tidal_sandflat"                   -999.25
2470.2 "6507_8-1"  89.0100 "Sandstone"                   -999.25   -999.25   100.0000      0.0      0.0 "m"            "m/c"      "Tidal_sandflat"                   -999.25
2470.3 "6507_8-1"  88.4600 "Sandstone"                   -999.25   -999.25   100.0000      0.0      0.0 "m"            "m/c"      "Tidal_sandflat"                   -999.25
2470.4 "6507_8-1"  87.9100 "Sandstone"                   -999.25   -999.25   100.0000      0.0      0.0 "m"            "m/c"      "Tidal_sandflat"                   -999.25
2470.5 "6507_8-1"  87.3600 "Sandstone"                   -999.25   -999.25   100.0000      0.0      0.0 "f/m"          "m"        "Tidal_sandflat"                   -999.25
2470.6 "6507_8-1"  86.8100 "Sandstone"                   -999.25   -999.25   100.0000      0.0      0.0 "f/m"          "m"        "Tidal_sandflat"                   -999.25
2470.7 "6507_8-1"  86.2700 "Sandstone"                   -999.25   -999.25   100.0000      0.0      0.0 "f/m"          "m"        "Tidal_sandflat"                   -999.25
2470.8 "6507_8-1"  86.0500 "Sandstone"                   -999.25   -999.25   100.0000      0.0      0.0 "f/m"          "m"        "Tidal_sandflat"                   -999.25
2470.9 "6507_8-1"  87.4800 "Sandstone"                   -999.25   -999.25   100.0000      0.0      0.0 "f/m"          "m"        "Tidal_sandflat"                   -999.25
2471.0 "6507_8-1"  88.9000 "Sandstone"                   -999.25   -999.25   100.0000      0.0      0.0 "f/m"          "m"        "Tidal_sandflat"                   -999.25
2471.1 "6507_8-1"  89.4100 "Sandstone"                   -999.25   -999.25   100.0000      0.0      0.0 "f/m"          "m"        "Tidal_sandflat"                   -999.25
2471.2 "6507_8-1"  89.1000 "Sandstone"                   -999.25   -999.25   100.0000      0.0      0.0 "f/m"          "m"        "Tidal_sandflat"                   -999.25
2471.3 "6507_8-1"  88.7800 "Sandstone"                   -999.25   -999.25   100.0000      0.0      0.0 "f/m"          "m"        "Tidal_sandflat"                   -999.25
2471.4 "6507_8-1"  88.4700 "Sandstone"                   -999.25   -999.25   100.0000      0.0      0.0 "f/m"          "m"        "Tidal_sandflat"                   -999.25
2471.5 "6507_8-1"  88.1600 "Sandstone"                   -999.25   -999.25   100.0000      0.0      0.0 "f/m"          "m"        "Tidal_sandflat"                   -999.25
2471.6 "6507_8-1"  89.2000 "Sandstone"                   -999.25   -999.25   100.0000      0.0      0.0 "f/m"          "m"        "Tidal_sandflat"                   -999.25
2471.7 "6507_8-1"  90.7700 "Sandstone"                   -999.25   -999.25   100.0000      0.0      0.0 "f/m"          "m"        "Tidal_sandflat"                   -999.25
2471.8 "6507_8-1"  92.3300 "Sandstone"                   -999.25   -999.25   100.0000      0.0      0.0 "f/m"          "m"        "Tidal_sandflat"                   -999.25
2471.9 "6507_8-1"  93.9000 "Sandstone"                   -999.25   -999.25   100.0000      0.0      0.0 "f/m"          "m"        "Tidal_sandflat"                   -999.25
2472.0 "6507_8-1"  95.4700 "Sandstone"                   -999.25   -999.25   100.0000      0.0      0.0 "f/m"          "m"        "Tidal_sandflat"                   -999.25
2472.1 "6507_8-1"  96.3000 "Sandstone"                   -999.25   -999.25   100.0000      0.0      0.0 "f/m"          "m"        "Tidal_sandflat"                   -999.25
2472.2 "6507_8-1"  94.1100 "Sandstone"                   -999.25   -999.25   100.0000      0.0      0.0 "f/m"          "m"        "Tidal_sandflat"                   -999.25
2472.3 "6507_8-1"  91.9300 "Sandstone"                   -999.25   -999.25   100.0000      0.0      0.0 "f/m"          "m"        "Tidal_sandflat"                   -999.25
2472.4 "6507_8-1"  89.7400 "Sandstone"                   -999.25   -999.25   100.0000      0.0      0.0 "f/m"          "m"        "Tidal_sandflat"                   -999.25
2472.5 "6507_8-1"  87.5500 "Sandstone"                   -999.25   -999.25   100.0000      0.0      0.0 "f/m"          "m"        "Tidal_sandflat"                   -999.25
2472.6 "6507_8-1"  85.3600 "Sandstone"                   -999.25   -999.25   100.0000      0.0      0.0 "f/m"          "m"        "Tidal_sandflat"                   -999.25
2472.7 "6507_8-1"  84.1200 "Sandstone"                   -999.25   -999.25   100.0000      0.0      0.0 "f/m"          "m"        "Tidal_sandflat"                   -999.25
2472.8 "6507_8-1"  84.1200 "Sandstone"                   -999.25   -999.25   100.0000      0.0      0.0 "f/m"          "m"        "Tidal_sandflat"                   -999.25
2472.9 "6507_8-1"  86.7300 "Sandstone"                   -999.25   -999.25   100.0000      0.0      0.0 "f/m"          "m"        "Tidal_sandflat"                   -999.25
2473.0 "6507_8-1"  89.3900 "Sandstone"                   -999.25   -999.25   100.0000      0.0      0.0 "f/m"          "m"        "Tidal_sandflat"                   -999.25
2473.1 "6507_8-1"  92.0400 "Sandstone"                   -999.25   -999.25   100.0000      0.0      0.0 "f/m"          "m"        "Tidal_sandflat"                   -999.25
2473.2 "6507_8-1"  92.4000 "Sandstone"                   -999.25   -999.25   100.0000      0.0      0.0 "f/m"          "m"        "Tidal_sandflat"                   -999.25
2473.3 "6507_8-1"  92.4000 "Sandstone"                   -999.25   -999.25   100.0000      0.0      0.0 "f/m"          "m"        "Tidal_sandflat"                   -999.25
2473.4 "6507_8-1"  92.4000 "Sandstone"                   -999.25   -999.25   100.0000      0.0      0.0 "f/m"          "m"        "Tidal_sandflat"                   -999.25
2473.5 "6507_8-1"  92.4000 "Sandstone"                   -999.25   -999.25   100.0000      0.0      0.0 "f/m"          "m"        "Tidal_sandflat"                   -999.25
2473.6 "6507_8-1"  92.4000 "Sandstone"                   -999.25   -999.25   100.0000      0.0      0.0 "f/m"          "m"        "Tidal_sandflat"                   -999.25
2473.7 "6507_8-1"  93.2200 "Sandstone"                   -999.25   -999.25   100.0000      0.0      0.0 "c/vc"         "f/m"      "Tidal_channel"                    -999.25
2473.8 "6507_8-1"  94.6500 "Sandstone"                   -999.25   -999.25   100.0000      0.0      0.0 "c/vc"         "f/m"      "Tidal_channel"                    -999.25
2473.9 "6507_8-1"  96.0700 "Sandstone"                   -999.25   -999.25   100.0000      0.0      0.0 "c/vc"         "f/m"      "Tidal_channel"                    -999.25
2474.0 "6507_8-1"  94.8800 "Sandstone"                   -999.25   -999.25   100.0000      0.0      0.0 "c/vc"         "f/m"      "Tidal_channel"                    -999.25
2474.1 "6507_8-1"  93.5100 "Sandstone"                   -999.25   -999.25   100.0000      0.0      0.0 "c/vc"         "f/m"      "Tidal_channel"                    -999.25
2474.2 "6507_8-1"  92.1400 "Sandstone"                   -999.25   -999.25   100.0000      0.0      0.0 "c/vc"         "f/m"      "Tidal_channel"                    -999.25
2474.3 "6507_8-1"  90.6900 "Sandstone"                   -999.25   -999.25   100.0000      0.0      0.0 "c/vc"         "f/m"      "Tidal_channel"                    -999.25
