~Version
VERS  .                                 3.0 : CWLS LAS ASCII Standard - Version 3.0
WRAP  . NO                                  : One line per depth step
DLM   . SPACE                               : Column data section delimiter
SOURCE. Converted to LAS by Log Studio 4.76 : GeoProvider

~Well
STRT.         2260.0 : Start depth
STOP.         2495.0 : Stop depth
STEP.              1 : Step
NULL.        -999.25 : No-value
COMP.                : Company
WELL. 6507/8-1       : Well
FLD .                : Field
LOC .                : Location
LATI.                : Latitude
LONG.                : Longitude
GDAT.                : Geodetic datum
CNTY.                : County
STAT.                : State
CTRY.                : Country
SRVC. GeoProvider AS : Service company
DATE.                : Date
API .                : API number
RUN .                : Run number

~Parameters
WellboreName.  : Wellbore name
RigName     .  : Rig name
StartDate   .  : Start date

~Curves
DEPTH.m            .  : null {F}Depth mMD
Hole_ID.-          .  : null {S}Hole ID
GR.API             .  : null {F}Gamma Ray
Lithology1.-       .  : null {S}Lithology 1
Lithology2.-       .  : null {S}Lithology 2
Lithology3.-       .  : null {S}Lithology 3
Lithology1.%       .  : null {F}Lithology 1 percentage
Lithology2.%       .  : null {F}Lithology 2 percentage
Lithology3.%       .  : null {F}Lithology 3 percentage
Grain_size_Top.-   .  : null {S}Grain size at the top 
Grain_size_Base.-  .  : null {S}Grain size at the bottom
Sub_Environment.-  .  : null {S}Sub Environment
Gross_Environment.-.  : null {S}Gross Environment

~Ascii
# ...
2460.4 "6507_8-1"  96.4800 "Sandstone"                   "Limestone" -999.25    88.0000 12.00000      0.0 "vf/f"         "vf/f"     "Lower_-_upper_shoreface"          -999.25
2460.5 "6507_8-1"  97.7700 "Sandstone"                   "Limestone" -999.25    88.0000 12.00000      0.0 "vf/f"         "vf/f"     "Lower_-_upper_shoreface"          -999.25
2460.6 "6507_8-1"  99.0600 "Sandstone"                   "Limestone" -999.25    88.0000 12.00000      0.0 "vf/f"         "vf/f"     "Lower_-_upper_shoreface"          -999.25
2460.7 "6507_8-1"  99.6000 "Sandstone"                   "Limestone" -999.25    88.0000 12.00000      0.0 "vf/f"         "vf/f"     "Lower_-_upper_shoreface"          -999.25
2460.8 "6507_8-1"  98.6000 "Sandstone"                   "Limestone" -999.25    88.0000 12.00000      0.0 "vf/f"         "vf/f"     "Lower_-_upper_shoreface"          -999.25
2460.9 "6507_8-1"  97.5900 "Sandstone"                   "Limestone" -999.25    88.0000 12.00000      0.0 "vf/f"         "vf/f"     "Lower_-_upper_shoreface"          -999.25
2461.0 "6507_8-1"  96.5800 "Sandstone"                   "Limestone" -999.25    88.0000 12.00000      0.0 "vf/f"         "vf/f"     "Lower_-_upper_shoreface"          -999.25
2461.1 "6507_8-1"  95.0400 "Sandstone"                   "Limestone" -999.25    88.0000 12.00000      0.0 "vf/f"         "vf/f"     "Lower_-_upper_shoreface"          -999.25
2461.2 "6507_8-1"  93.4700 "Sandstone"                   "Limestone" -999.25    88.0000 12.00000      0.0 "vf/f"         "vf/f"     "Lower_-_upper_shoreface"          -999.25
2461.3 "6507_8-1"  91.9000 "Sandstone"                   "Limestone" -999.25    88.0000 12.00000      0.0 "vf/f"         "vf/f"     "Lower_-_upper_shoreface"          -999.25
2461.4 "6507_8-1"  90.3400 "Sandstone"                   "Limestone" -999.25    90.0000 10.00000      0.0 "vc/granule"   "c/vc"     "Lower_-_upper_shoreface"          -999.25
2461.5 "6507_8-1"  88.7700 "Sandstone"                   "Limestone" -999.25    90.0000 10.00000      0.0 "vc/granule"   "c/vc"     "Lower_-_upper_shoreface"          -999.25
2461.6 "6507_8-1"  87.2000 "Sandstone"                   "Limestone" -999.25    90.0000 10.00000      0.0 "vc/granule"   "c/vc"     "Lower_-_upper_shoreface"          -999.25
2461.7 "6507_8-1"  85.6300 "Sandstone"                   "Limestone" -999.25    90.0000 10.00000      0.0 "vc/granule"   "c/vc"     "Lower_-_upper_shoreface"          -999.25
2461.8 "6507_8-1"  85.6600 "Sandstone"                   "Limestone" -999.25    90.0000 10.00000      0.0 "vc/granule"   "c/vc"     "Lower_-_upper_shoreface"          -999.25
2461.9 "6507_8-1"  85.7000 "Sandstone"                   "Limestone" -999.25    90.0000 10.00000      0.0 "vc/granule"   "c/vc"     "Lower_-_upper_shoreface"          -999.25
2462.0 "6507_8-1"  85.7500 "Sandstone"                   "Limestone" -999.25    90.0000 10.00000      0.0 "vc/granule"   "c/vc"     "Lower_-_upper_shoreface"          -999.25
2462.1 "6507_8-1"  85.7900 "Sandstone"                   "Limestone" -999.25    90.0000 10.00000      0.0 "vc/granule"   "c/vc"     "Lower_-_upper_shoreface"          -999.25
2462.2 "6507_8-1"  85.5800 "Sandstone"                   "Limestone" -999.25    90.0000 10.00000      0.0 "vc/granule"   "c/vc"     "Lower_-_upper_shoreface"          -999.25
2462.3 "6507_8-1"  85.0500 "Sandstone"                   "Limestone" -999.25    90.0000 10.00000      0.0 "vc/granule"   "c/vc"     "Lower_-_upper_shoreface"          -999.25
2462.4 "6507_8-1"  84.5100 "Sandstone"                   "Limestone" -999.25    90.0000 10.00000      0.0 "vc/granule"   "c/vc"     "Lower_-_upper_shoreface"          -999.25
2462.5 "6507_8-1"  83.9700 "Sandstone"                   "Limestone" -999.25    90.0000 10.00000      0.0 "vc/granule"   "c/vc"     "Lower_-_upper_shoreface"          -999.25
2462.6 "6507_8-1"  83.4400 "Sandstone"                   "Shale"   -999.25    98.0000  2.00000      0.0 "silt/vf"      "m/c"      "Lower_-_upper_shoreface"          -999.25
2462.7 "6507_8-1"  83.6000 "Sandstone"                   "Shale"   -999.25    98.0000  2.00000      0.0 "silt/vf"      "m/c"      "Lower_-_upper_shoreface"          -999.25
2462.8 "6507_8-1"  83.8800 "Sandstone"                   "Shale"   -999.25    98.0000  2.00000      0.0 "silt/vf"      "m/c"      "Lower_-_upper_shoreface"          -999.25
2462.9 "6507_8-1"  84.1500 "Sandstone"                   "Shale"   -999.25    98.0000  2.00000      0.0 "silt/vf"      "m/c"      "Lower_-_upper_shoreface"          -999.25
2463.0 "6507_8-1"  84.4300 "Sandstone"                   "Shale"   -999.25    98.0000  2.00000      0.0 "silt/vf"      "m/c"      "Lower_-_upper_shoreface"          -999.25
2463.1 "6507_8-1"  86.0700 "Sandstone"                   "Shale"   -999.25    98.0000  2.00000      0.0 "silt/vf"      "m/c"      "Lower_-_upper_shoreface"          -999.25
2463.2 "6507_8-1"  88.1000 "Sandstone"                   "Shale"   -999.25    98.0000  2.00000      0.0 "silt/vf"      "m/c"      "Lower_-_upper_shoreface"          -999.25
2463.3 "6507_8-1"  90.1300 "Sandstone"                   "Shale"   -999.25    98.0000  2.00000      0.0 "silt/vf"      "m/c"      "Lower_-_upper_shoreface"          -999.25
2463.4 "6507_8-1"  92.1500 "Sandstone"                   "Shale"   -999.25    98.0000  2.00000      0.0 "silt/vf"      "m/c"      "Lower_-_upper_shoreface"          -999.25
2463.5 "6507_8-1"  93.5300 "Sandstone"                   "Shale"   -999.25    98.0000  2.00000      0.0 "silt/vf"      "m/c"      "Lower_-_upper_shoreface"          -999.25
2463.6 "6507_8-1"  94.6100 "Sandstone"                   "Shale"   -999.25    55.0000 45.00000      0.0 "f/m"          "silt/vf"  "Lower_-_upper_shoreface"          -999.25
2463.7 "6507_8-1"  95.7000 "Sandstone"                   "Shale"   -999.25    55.0000 45.00000      0.0 "f/m"          "silt/vf"  "Lower_-_upper_shoreface"          -999.25
2463.8 "6507_8-1"  98.5900 "Sandstone"                   "Shale"   -999.25    55.0000 45.00000      0.0 "f/m"          "silt/vf"  "Lower_-_upper_shoreface"          -999.25
2463.9 "6507_8-1" 102.8600 "Sandstone"                   "Shale"   -999.25    55.0000 45.00000      0.0 "f/m"          "silt/vf"  "Lower_-_upper_shoreface"          -999.25
2464.0 "6507_8-1" 107.1200 "Sandstone"                   "Shale"   -999.25    55.0000 45.00000      0.0 "f/m"          "silt/vf"  "Lower_-_upper_shoreface"          -999.25
2464.1 "6507_8-1" 111.3900 "Sandstone"                   "Shale"   -999.25    55.0000 45.00000      0.0 "f/m"          "silt/vf"  "Lower_-_upper_shoreface"          -999.25
2464.2 "6507_8-1" 114.8300 "Sandstone"                   "Shale"   -999.25    55.0000 45.00000      0.0 "f/m"          "silt/vf"  "Lower_-_upper_shoreface"          -999.25
2464.3 "6507_8-1" 115.7100 "Sandstone"                   "Shale"   -999.25    62.0000 38.00000      0.0 "silt/vf"      "silt/vf"  "Lower_-_upper_shoreface"          -999.25
2464.4 "6507_8-1" 115.6500 "Sandstone"                   "Shale"   -999.25    62.0000 38.00000      0.0 "silt/vf"      "silt/vf"  "Lower_-_upper_shoreface"          -999.25
2464.5 "6507_8-1" 113.2300 "Sandstone"                   "Shale"   -999.25    62.0000 38.00000      0.0 "silt/vf"      "silt/vf"  "Lower_-_upper_shoreface"          -999.25
2464.6 "6507_8-1" 108.0400 "Sandstone"                   "Shale"   -999.25    62.0000 38.00000      0.0 "silt/vf"      "silt/vf"  "Lower_-_upper_shoreface"          -999.25
2464.7 "6507_8-1" 102.8500 "Sandstone"                   "Shale"   -999.25    80.0000 20.00000      0.0 "silt/vf"      "m/c"      "Lower_-_upper_shoreface"          -999.25
2464.8 "6507_8-1"  97.6600 "Sandstone"                   "Shale"   -999.25    80.0000 20.00000      0.0 "silt/vf"      "m/c"      "Lower_-_upper_shoreface"          -999.25
2464.9 "6507_8-1"  93.4700 "Sandstone"                   "Shale"   -999.25    85.0000 15.00000      0.0 "m/c"          "silt/vf"  "Erosion"                          -999.25
