~Version
VERS  .                                 3.0 : CWLS LAS ASCII Standard - Version 3.0
WRAP  . NO                                  : One line per depth step
DLM   . SPACE                               : Column data section delimiter
SOURCE. Converted to LAS by Log Studio 4.76 : GeoProvider

~Well
STRT.         2260.0 : Start depth
STOP.         2495.0 : Stop depth
STEP.              1 : Step
NULL.        -999.25 : No-value
COMP.                : Company
WELL. 6507/8-1       : Well
FLD .                : Field
LOC .                : Location
LATI.                : Latitude
LONG.                : Longitude
GDAT.                : Geodetic datum
CNTY.                : County
STAT.                : State
CTRY.                : Country
SRVC. GeoProvider AS : Service company
DATE.                : Date
API .                : API number
RUN .                : Run number

~Parameters
WellboreName.  : Wellbore name
RigName     .  : Rig name
StartDate   .  : Start date

~Curves
DEPTH.m            .  : null {F}Depth mMD
Hole_ID.-          .  : null {S}Hole ID
GR.API             .  : null {F}Gamma Ray
Lithology1.-       .  : null {S}Lithology 1
Lithology2.-       .  : null {S}Lithology 2
Lithology3.-       .  : null {S}Lithology 3
Lithology1.%       .  : null {F}Lithology 1 percentage
Lithology2.%       .  : null {F}Lithology 2 percentage
Lithology3.%       .  : null {F}Lithology 3 percentage
Grain_size_Top.-   .  : null {S}Grain size at the top 
Grain_size_Base.-  .  : null {S}Grain size at the bottom
Sub_Environment.-  .  : null {S}Sub Environment
Gross_Environment.-.  : null {S}Gross Environment

~Ascii
# ...
2488.4 "6507_8-1" 116.3900 "Sandstone"                   -999.25   -999.25   100.0000      0.0      0.0 "f"            "f/m"      "Upper_/_lower_shoreface"          -999.25
2488.5 "6507_8-1" 117.9600 "Sandstone"                   "Shale"   "Limestone"  79.0000 13.00000  8.00000 "f"            "f/m"      "Upper_/_lower_shoreface"          -999.25
2488.6 "6507_8-1" 118.0700 "Sandstone"                   "Shale"   "Limestone"  79.0000 13.00000  8.00000 "f"            "f/m"      "Upper_/_lower_shoreface"          -999.25
2488.7 "6507_8-1" 117.2500 "Sandstone"                   "Shale"   "Limestone"  79.0000 13.00000  8.00000 "f"            "f/m"      "Upper_/_lower_shoreface"          -999.25
2488.8 "6507_8-1" 116.4400 "Sandstone"                   "Shale"   "Limestone"  79.0000 13.00000  8.00000 "f"            "f/m"      "Upper_/_lower_shoreface"          -999.25
2488.9 "6507_8-1" 115.6200 "Sandstone"                   "Shale"   "Limestone"  79.0000 13.00000  8.00000 "f"            "f/m"      "Upper_/_lower_shoreface"          -999.25
2489.0 "6507_8-1" 114.8000 "Sandstone"                   "Shale"   "Limestone"  79.0000 13.00000  8.00000 "f"            "f/m"      "Upper_/_lower_shoreface"          -999.25
2489.1 "6507_8-1" 113.9900 "Sandstone"                   "Shale"   "Limestone"  79.0000 13.00000  8.00000 "f"            "f/m"      "Upper_/_lower_shoreface"          -999.25
2489.2 "6507_8-1" 115.1200 "Sandstone"                   "Shale"   "Limestone"  79.0000 13.00000  8.00000 "f"            "f/m"      "Upper_/_lower_shoreface"          -999.25
2489.3 "6507_8-1" 116.6200 "Sandstone"                   "Shale"   "Limestone"  79.0000 13.00000  8.00000 "f"            "f/m"      "Upper_/_lower_shoreface"          -999.25
2489.4 "6507_8-1" 118.1100 "Sandstone"                   "Shale"   "Limestone"  79.0000 13.00000  8.00000 "f"            "f/m"      "Upper_/_lower_shoreface"          -999.25
2489.5 "6507_8-1" 119.6100 "Sandstone"                   "Shale"   "Limestone"  79.0000 13.00000  8.00000 "f"            "f/m"      "Upper_/_lower_shoreface"          -999.25
2489.6 "6507_8-1" 121.1000 "Sandstone"                   "Shale"   "Limestone"  79.0000 13.00000  8.00000 "f"            "f/m"      "Upper_/_lower_shoreface"          -999.25
2489.7 "6507_8-1" 121.0500 "Sandstone"                   "Shale"   "Limestone"  79.0000 13.00000  8.00000 "f"            "f/m"      "Upper_/_lower_shoreface"          -999.25
2489.8 "6507_8-1" 119.7700 "Sandstone"                   "Shale"   "Limestone"  79.0000 13.00000  8.00000 "f"            "f/m"      "Upper_/_lower_shoreface"          -999.25
2489.9 "6507_8-1" 118.4900 "Sandstone"                   "Shale"   "Limestone"  79.0000 13.00000  8.00000 "f"            "f/m"      "Upper_/_lower_shoreface"          -999.25
2490.0 "6507_8-1" 117.2000 "Sandstone"                   "Shale"   "Limestone"  79.0000 13.00000  8.00000 "f"            "f/m"      "Upper_/_lower_shoreface"          -999.25
2490.1 "6507_8-1" 115.9200 "Sandstone"                   "Shale"   "Limestone"  79.0000 13.00000  8.00000 "f"            "f/m"      "Upper_/_lower_shoreface"          -999.25
2490.2 "6507_8-1" 115.8200 "Sandstone"                   "Shale"   "Limestone"  79.0000 13.00000  8.00000 "f"            "f/m"      "Upper_/_lower_shoreface"          -999.25
2490.3 "6507_8-1" 118.8600 "Sandstone"                   "Shale"   "Limestone"  79.0000 13.00000  8.00000 "f"            "f/m"      "Upper_/_lower_shoreface"          -999.25
2490.4 "6507_8-1" 121.9100 "Sandstone"                   "Shale"   "Limestone"  79.0000 13.00000  8.00000 "f"            "f/m"      "Upper_/_lower_shoreface"          -999.25
2490.5 "6507_8-1" 124.9600 "Sandstone"                   "Shale"   "Limestone"  79.0000 13.00000  8.00000 "f"            "f/m"      "Upper_/_lower_shoreface"          -999.25
2490.6 "6507_8-1" 128.0100 "Sandstone"                   "Shale"   -999.25    98.0000  2.00000      0.0 "m/c"          "f"        "Upper_/_lower_shoreface"          -999.25
2490.7 "6507_8-1" 127.1600 "Sandstone"                   "Shale"   -999.25    98.0000  2.00000      0.0 "m/c"          "f"        "Upper_/_lower_shoreface"          -999.25
2490.8 "6507_8-1" 126.0900 "Sandstone"                   "Shale"   -999.25    98.0000  2.00000      0.0 "m/c"          "f"        "Upper_/_lower_shoreface"          -999.25
2490.9 "6507_8-1" 125.0300 "Sandstone"                   "Shale"   -999.25    98.0000  2.00000      0.0 "m/c"          "f"        "Upper_/_lower_shoreface"          -999.25
2491.0 "6507_8-1" 123.9600 "Sandstone"                   "Shale"   -999.25    98.0000  2.00000      0.0 "m/c"          "f"        "Upper_/_lower_shoreface"          -999.25
2491.1 "6507_8-1" 122.9000 "Sandstone"                   "Shale"   -999.25    98.0000  2.00000      0.0 "m/c"          "f"        "Upper_/_lower_shoreface"          -999.25
2491.2 "6507_8-1" 121.8300 "Sandstone"                   "Shale"   -999.25    98.0000  2.00000      0.0 "m/c"          "f"        "Upper_/_lower_shoreface"          -999.25
2491.3 "6507_8-1" 119.2100 "Sandstone"                   "Shale"   -999.25    98.0000  2.00000      0.0 "m/c"          "f"        "Upper_/_lower_shoreface"          -999.25
2491.4 "6507_8-1" 116.5000 "Sandstone"                   "Shale"   -999.25    98.0000  2.00000      0.0 "m/c"          "f"        "Upper_/_lower_shoreface"          -999.25
2491.5 "6507_8-1" 113.7900 "Sandstone"                   "Shale"   -999.25    98.0000  2.00000      0.0 "m/c"          "f"        "Upper_/_lower_shoreface"          -999.25
2491.6 "6507_8-1" 111.0700 "Sandstone"                   "Limestone" -999.25    70.0000 30.00000      0.0 "f/m"          "f/m"      "Upper_/_lower_shoreface"          -999.25
2491.7 "6507_8-1" 108.3600 "Sandstone"                   "Limestone" -999.25    70.0000 30.00000      0.0 "f/m"          "f/m"      "Upper_/_lower_shoreface"          -999.25
2491.8 "6507_8-1" 105.6400 "Sandstone"                   "Limestone" -999.25    70.0000 30.00000      0.0 "f/m"          "f/m"      "Upper_/_lower_shoreface"          -999.25
2491.9 "6507_8-1" 103.7100 "Sandstone"                   "Limestone" -999.25    70.0000 30.00000      0.0 "f/m"          "f/m"      "Upper_/_lower_shoreface"          -999.25
2492.0 "6507_8-1" 104.6900 "Sandstone"                   "Limestone" -999.25    70.0000 30.00000      0.0 "f/m"          "f/m"      "Upper_/_lower_shoreface"          -999.25
2492.1 "6507_8-1" 105.6700 "Sandstone"                   "Limestone" -999.25    70.0000 30.00000      0.0 "f/m"          "f/m"      "Upper_/_lower_shoreface"          -999.25
2492.2 "6507_8-1" 106.6500 "Sandstone"                   "Limestone" -999.25    70.0000 30.00000      0.0 "f/m"          "f/m"      "Upper_/_lower_shoreface"          -999.25
2492.3 "6507_8-1" 107.6300 "Sandstone"                   "Limestone" -999.25    70.0000 30.00000      0.0 "f/m"          "f/m"      "Upper_/_lower_shoreface"          -999.25
2492.4 "6507_8-1" 107.2600 "Sandstone"                   "Limestone" -999.25    70.0000 30.00000      0.0 "f/m"          "f/m"      "Upper_/_lower_shoreface"          -999.25
2492.5 "6507_8-1" 104.9300 "Sandstone"                   "Limestone" -999.25    70.0000 30.00000      0.0 "f/m"          "f/m"      "Upper_/_lower_shoreface"          -999.25
2492.6 "6507_8-1" 102.6000 "Sandstone"                   "Limestone" -999.25    70.0000 30.00000      0.0 "f/m"          "f/m"      "Upper_/_lower_shoreface"          -999.25
2492.7 "6507_8-1" 100.2700 "Sandstone"                   "Shale"   -999.25    65.0000 35.00000      0.0 "silt/vf"      "vf/f"     "Upper_/_lower_shoreface"          -999.25
2492.8 "6507_8-1"  97.9400 "Sandstone"                   "Shale"   -999.25    65.0000 35.00000      0.0 "silt/vf"      "vf/f"     "Upper_/_lower_shoreface"          -999.25
2492.9 "6507_8-1"  95.6100 "Sandstone"                   "Shale"   -999.25    65.0000 35.00000      0.0 "silt/vf"      "vf/f"     "Upper_/_lower_shoreface"          -999.25
