~Version
VERS  .                                 3.0 : CWLS LAS ASCII Standard - Version 3.0
WRAP  . NO                                  : One line per depth step
DLM   . SPACE                               : Column data section delimiter
SOURCE. Converted to LAS by Log Studio 4.76 : GeoProvider

~Well
STRT.         2129.0 : Start depth
STOP.         2460.3 : Stop depth
STEP.              1 : Step
NULL.        -999.25 : No-value
COMP.                : Company
WELL. 6507/7-6       : Well
FLD .                : Field
LOC .                : Location
LATI.                : Latitude
LONG.                : Longitude
GDAT.                : Geodetic datum
CNTY.                : County
STAT.                : State
CTRY.                : Country
SRVC. GeoProvider AS : Service company
DATE.                : Date
API .                : API number
RUN .                : Run number

~Parameters
WellboreName.  : Wellbore name
RigName     .  : Rig name
StartDate   .  : Start date

~Curves
DEPTH.m            .  : null {F}Depth mMD
Hole_ID.-          .  : null {S}Hole ID
GR.API             .  : null {F}Gamma Ray
Lithology1.-       .  : null {S}Lithology 1
Lithology2.-       .  : null {S}Lithology 2
Lithology3.-       .  : null {S}Lithology 3
Lithology1.%       .  : null {F}Lithology 1 percentage
Lithology2.%       .  : null {F}Lithology 2 percentage
Lithology3.%       .  : null {F}Lithology 3 percentage
Grain_size_Top.-   .  : null {S}Grain size at the top 
Grain_size_Base.-  .  : null {S}Grain size at the bottom
Sub_Environment.-  .  : null {S}Sub Environment
Gross_Environment.-.  : null {S}Gross Environment

~Ascii
# ...
2319.7 "6507_7_6"  76.1700 "Sandstone" "Limestone" -999.25  90.0000 10.00000      0.0 "vf"       "c/vc"     "Foreshore/backshore_with_wave_reworked_tidal_channels"                                             "TIDAL_FLAT_AND_ESTUARY"                    
2319.8 "6507_7_6"  73.9300 "Sandstone" "Limestone" -999.25  90.0000 10.00000      0.0 "vf"       "c/vc"     "Foreshore/backshore_with_wave_reworked_tidal_channels"                                             "TIDAL_FLAT_AND_ESTUARY"                    
2319.9 "6507_7_6"  71.6400 "Sandstone" "Limestone" -999.25  90.0000 10.00000      0.0 "vf"       "c/vc"     "Foreshore/backshore_with_wave_reworked_tidal_channels"                                             "TIDAL_FLAT_AND_ESTUARY"                    
2320.0 "6507_7_6"  69.0700 "Sandstone" "Limestone" -999.25  90.0000 10.00000      0.0 "vf"       "c/vc"     "Foreshore/backshore_with_wave_reworked_tidal_channels"                                             "TIDAL_FLAT_AND_ESTUARY"                    
2320.1 "6507_7_6"  66.5000 "Sandstone" "Limestone" -999.25  90.0000 10.00000      0.0 "vf"       "c/vc"     "Foreshore/backshore_with_wave_reworked_tidal_channels"                                             "TIDAL_FLAT_AND_ESTUARY"                    
2320.2 "6507_7_6"  63.9300 "Sandstone" "Limestone" -999.25  90.0000 10.00000      0.0 "vf"       "c/vc"     "Foreshore/backshore_with_wave_reworked_tidal_channels"                                             "TIDAL_FLAT_AND_ESTUARY"                    
2320.3 "6507_7_6"  61.3500 "Sandstone" "Limestone" -999.25  90.0000 10.00000      0.0 "vf"       "c/vc"     "Foreshore/backshore_with_wave_reworked_tidal_channels"                                             "TIDAL_FLAT_AND_ESTUARY"                    
2320.4 "6507_7_6"  59.5100 "Sandstone" "Limestone" -999.25  90.0000 10.00000      0.0 "vf"       "c/vc"     "Foreshore/backshore_with_wave_reworked_tidal_channels"                                             "TIDAL_FLAT_AND_ESTUARY"                    
2320.5 "6507_7_6"  59.4600 "Sandstone" "Limestone" -999.25  90.0000 10.00000      0.0 "vf"       "c/vc"     "Foreshore/backshore_with_wave_reworked_tidal_channels"                                             "TIDAL_FLAT_AND_ESTUARY"                    
2320.6 "6507_7_6"  60.1100 "Sandstone" "Limestone" -999.25  90.0000 10.00000      0.0 "vf"       "c/vc"     "Foreshore/backshore_with_wave_reworked_tidal_channels"                                             "TIDAL_FLAT_AND_ESTUARY"                    
2320.7 "6507_7_6"  60.7600 "Sandstone" "Limestone" -999.25  90.0000 10.00000      0.0 "vf"       "c/vc"     "Foreshore/backshore_with_wave_reworked_tidal_channels"                                             "TIDAL_FLAT_AND_ESTUARY"                    
2320.8 "6507_7_6"  61.4100 "Sandstone" "Limestone" -999.25  90.0000 10.00000      0.0 "vf"       "c/vc"     "Foreshore/backshore_with_wave_reworked_tidal_channels"                                             "TIDAL_FLAT_AND_ESTUARY"                    
2320.9 "6507_7_6"  61.7100 "Sandstone" "Limestone" -999.25  90.0000 10.00000      0.0 "vf"       "c/vc"     "Foreshore/backshore_with_wave_reworked_tidal_channels"                                             "TIDAL_FLAT_AND_ESTUARY"                    
2321.0 "6507_7_6"  61.2000 "Sandstone" "Limestone" -999.25  90.0000 10.00000      0.0 "vf"       "c/vc"     "Foreshore/backshore_with_wave_reworked_tidal_channels"                                             "TIDAL_FLAT_AND_ESTUARY"                    
2321.1 "6507_7_6"  60.6900 "Sandstone" "Limestone" -999.25  90.0000 10.00000      0.0 "vf"       "c/vc"     "Foreshore/backshore_with_wave_reworked_tidal_channels"                                             "TIDAL_FLAT_AND_ESTUARY"                    
2321.2 "6507_7_6"  60.1800 "Sandstone" "Limestone" -999.25  90.0000 10.00000      0.0 "vf"       "c/vc"     "Foreshore/backshore_with_wave_reworked_tidal_channels"                                             "TIDAL_FLAT_AND_ESTUARY"                    
2321.3 "6507_7_6"  59.8300 "Sandstone" "Limestone" -999.25  90.0000 10.00000      0.0 "vf"       "c/vc"     "Foreshore/backshore_with_wave_reworked_tidal_channels"                                             "TIDAL_FLAT_AND_ESTUARY"                    
2321.4 "6507_7_6"  60.3900 "Sandstone" "Limestone" -999.25  90.0000 10.00000      0.0 "vf"       "c/vc"     "Foreshore/backshore_with_wave_reworked_tidal_channels"                                             "TIDAL_FLAT_AND_ESTUARY"                    
2321.5 "6507_7_6"  60.9600 "Sandstone" "Limestone" -999.25  90.0000 10.00000      0.0 "vf"       "c/vc"     "Foreshore/backshore_with_wave_reworked_tidal_channels"                                             "TIDAL_FLAT_AND_ESTUARY"                    
2321.6 "6507_7_6"  61.5200 "Sandstone" "Limestone" -999.25  90.0000 10.00000      0.0 "vf"       "c/vc"     "Foreshore/backshore_with_wave_reworked_tidal_channels"                                             "TIDAL_FLAT_AND_ESTUARY"                    
2321.7 "6507_7_6"  62.0900 "Sandstone" "Limestone" -999.25  90.0000 10.00000      0.0 "vf"       "c/vc"     "Foreshore/backshore_with_wave_reworked_tidal_channels"                                             "TIDAL_FLAT_AND_ESTUARY"                    
2321.8 "6507_7_6"  62.6500 "Sandstone" "Limestone" -999.25  90.0000 10.00000      0.0 "vf"       "c/vc"     "Foreshore/backshore_with_wave_reworked_tidal_channels"                                             "TIDAL_FLAT_AND_ESTUARY"                    
2321.9 "6507_7_6"  63.3800 "Sandstone" "Limestone" -999.25  90.0000 10.00000      0.0 "vf"       "c/vc"     "Foreshore/backshore_with_wave_reworked_tidal_channels"                                             "TIDAL_FLAT_AND_ESTUARY"                    
2322.0 "6507_7_6"  64.1600 "Sandstone" "Limestone" -999.25  90.0000 10.00000      0.0 "vf"       "c/vc"     "Foreshore/backshore_with_wave_reworked_tidal_channels"                                             "TIDAL_FLAT_AND_ESTUARY"                    
2322.1 "6507_7_6"  64.9300 "Sandstone" "Limestone" -999.25  90.0000 10.00000      0.0 "vf"       "c/vc"     "Foreshore/backshore_with_wave_reworked_tidal_channels"                                             "TIDAL_FLAT_AND_ESTUARY"                    
2322.2 "6507_7_6"  65.7000 "Sandstone" "Limestone" -999.25  90.0000 10.00000      0.0 "vf"       "c/vc"     "Foreshore/backshore_with_wave_reworked_tidal_channels"                                             "TIDAL_FLAT_AND_ESTUARY"                    
2322.3 "6507_7_6"  66.2000 "Sandstone" "Limestone" -999.25  90.0000 10.00000      0.0 "vf"       "c/vc"     "Foreshore/backshore_with_wave_reworked_tidal_channels"                                             "TIDAL_FLAT_AND_ESTUARY"                    
2322.4 "6507_7_6"  66.6600 "Sandstone" "Limestone" -999.25  90.0000 10.00000      0.0 "vf"       "c/vc"     "Foreshore/backshore_with_wave_reworked_tidal_channels"                                             "TIDAL_FLAT_AND_ESTUARY"                    
2322.5 "6507_7_6"  67.1200 "Sandstone" "Limestone" -999.25  90.0000 10.00000      0.0 "vf"       "c/vc"     "Foreshore/backshore_with_wave_reworked_tidal_channels"                                             "TIDAL_FLAT_AND_ESTUARY"                    
2322.6 "6507_7_6"  67.5800 "Sandstone" "Limestone" -999.25  90.0000 10.00000      0.0 "vf"       "c/vc"     "Foreshore/backshore_with_wave_reworked_tidal_channels"                                             "TIDAL_FLAT_AND_ESTUARY"                    
2322.7 "6507_7_6"  68.0300 "Sandstone" "Limestone" -999.25  90.0000 10.00000      0.0 "vf"       "c/vc"     "Foreshore/backshore_with_wave_reworked_tidal_channels"                                             "TIDAL_FLAT_AND_ESTUARY"                    
2322.8 "6507_7_6"  68.4900 "Sandstone" "Limestone" -999.25  90.0000 10.00000      0.0 "vf"       "c/vc"     "Foreshore/backshore_with_wave_reworked_tidal_channels"                                             "TIDAL_FLAT_AND_ESTUARY"                    
