~Version
VERS  .                                 3.0 : CWLS LAS ASCII Standard - Version 3.0
WRAP  . NO                                  : One line per depth step
DLM   . SPACE                               : Column data section delimiter
SOURCE. Converted to LAS by Log Studio 4.76 : GeoProvider

~Well
STRT.         2129.0 : Start depth
STOP.         2460.3 : Stop depth
STEP.              1 : Step
NULL.        -999.25 : No-value
COMP.                : Company
WELL. 6507/7-6       : Well
FLD .                : Field
LOC .                : Location
LATI.                : Latitude
LONG.                : Longitude
GDAT.                : Geodetic datum
CNTY.                : County
STAT.                : State
CTRY.                : Country
SRVC. GeoProvider AS : Service company
DATE.                : Date
API .                : API number
RUN .                : Run number

~Parameters
WellboreName.  : Wellbore name
RigName     .  : Rig name
StartDate   .  : Start date

~Curves
DEPTH.m            .  : null {F}Depth mMD
Hole_ID.-          .  : null {S}Hole ID
GR.API             .  : null {F}Gamma Ray
Lithology1.-       .  : null {S}Lithology 1
Lithology2.-       .  : null {S}Lithology 2
Lithology3.-       .  : null {S}Lithology 3
Lithology1.%       .  : null {F}Lithology 1 percentage
Lithology2.%       .  : null {F}Lithology 2 percentage
Lithology3.%       .  : null {F}Lithology 3 percentage
Grain_size_Top.-   .  : null {S}Grain size at the top 
Grain_size_Base.-  .  : null {S}Grain size at the bottom
Sub_Environment.-  .  : null {S}Sub Environment
Gross_Environment.-.  : null {S}Gross Environment

~Ascii
# ...
2377.3 "6507_7_6"  54.0900 "Sandstone" -999.25   -999.25 100.0000      0.0      0.0 "vc/granule" "m/c"      "Ribbon_channel"                                                                                    "LOWER_DELTA_PLAIN_WIYH_CUT-AND-FILL_RIBBONS"
2377.4 "6507_7_6"  50.9800 "Sandstone" -999.25   -999.25 100.0000      0.0      0.0 "vc/granule" "m/c"      "Ribbon_channel"                                                                                    "LOWER_DELTA_PLAIN_WIYH_CUT-AND-FILL_RIBBONS"
2377.5 "6507_7_6"  51.2600 "Sandstone" -999.25   -999.25 100.0000      0.0      0.0 "vc/granule" "m/c"      "Ribbon_channel"                                                                                    "LOWER_DELTA_PLAIN_WIYH_CUT-AND-FILL_RIBBONS"
2377.6 "6507_7_6"  54.4600 "Sandstone" -999.25   -999.25 100.0000      0.0      0.0 "vc/granule" "m/c"      "Ribbon_channel"                                                                                    "LOWER_DELTA_PLAIN_WIYH_CUT-AND-FILL_RIBBONS"
2377.7 "6507_7_6"  57.6500 "Sandstone" -999.25   -999.25 100.0000      0.0      0.0 "vc/granule" "m/c"      "Ribbon_channel"                                                                                    "LOWER_DELTA_PLAIN_WIYH_CUT-AND-FILL_RIBBONS"
2377.8 "6507_7_6"  61.2700 "Sandstone" -999.25   -999.25 100.0000      0.0      0.0 "vc/granule" "m/c"      "Ribbon_channel"                                                                                    "LOWER_DELTA_PLAIN_WIYH_CUT-AND-FILL_RIBBONS"
2377.9 "6507_7_6"  64.9400 "Coal"    -999.25   -999.25 100.0000      0.0      0.0 "vf"       "vf"       "Ribbon_channel"                                                                                    "LOWER_DELTA_PLAIN_WIYH_CUT-AND-FILL_RIBBONS"
2378.0 "6507_7_6"  68.0400 "Coal"    -999.25   -999.25 100.0000      0.0      0.0 "vf"       "vf"       "Flood_plain_with_crevasse_channels"                                                                "LOWER_DELTA_PLAIN_WIYH_CUT-AND-FILL_RIBBONS"
2378.1 "6507_7_6"  68.1900 "Coal"    -999.25   -999.25 100.0000      0.0      0.0 "vf"       "vf"       "Flood_plain_with_crevasse_channels"                                                                "LOWER_DELTA_PLAIN_WIYH_CUT-AND-FILL_RIBBONS"
2378.2 "6507_7_6"  68.3100 "Coal"    -999.25   -999.25 100.0000      0.0      0.0 "vf"       "vf"       "Flood_plain_with_crevasse_channels"                                                                "LOWER_DELTA_PLAIN_WIYH_CUT-AND-FILL_RIBBONS"
2378.3 "6507_7_6"  68.3100 "Sandstone" -999.25   -999.25 100.0000      0.0      0.0 "f"        "f"        "Flood_plain_with_crevasse_channels"                                                                "LOWER_DELTA_PLAIN_WIYH_CUT-AND-FILL_RIBBONS"
2378.4 "6507_7_6"  69.5100 "Sandstone" -999.25   -999.25 100.0000      0.0      0.0 "f"        "f"        "Flood_plain_with_crevasse_channels"                                                                "LOWER_DELTA_PLAIN_WIYH_CUT-AND-FILL_RIBBONS"
2378.5 "6507_7_6"  71.0600 "Sandstone" -999.25   -999.25 100.0000      0.0      0.0 "f"        "f"        "Flood_plain_with_crevasse_channels"                                                                "LOWER_DELTA_PLAIN_WIYH_CUT-AND-FILL_RIBBONS"
2378.6 "6507_7_6"  72.5500 "Coal"    -999.25   -999.25 100.0000      0.0      0.0 "vf"       "vf"       "Flood_plain_with_crevasse_channels"                                                                "LOWER_DELTA_PLAIN_WIYH_CUT-AND-FILL_RIBBONS"
2378.7 "6507_7_6"  72.5900 "Coal"    -999.25   -999.25 100.0000      0.0      0.0 "vf"       "vf"       "Flood_plain_with_crevasse_channels"                                                                "LOWER_DELTA_PLAIN_WIYH_CUT-AND-FILL_RIBBONS"
2378.8 "6507_7_6"  72.6400 "Coal"    -999.25   -999.25 100.0000      0.0      0.0 "vf"       "vf"       "Flood_plain_with_crevasse_channels"                                                                "LOWER_DELTA_PLAIN_WIYH_CUT-AND-FILL_RIBBONS"
2378.9 "6507_7_6"  75.0000 "Coal"    -999.25   -999.25 100.0000      0.0      0.0 "vf"       "vf"       "Flood_plain_with_crevasse_channels"                                                                "LOWER_DELTA_PLAIN_WIYH_CUT-AND-FILL_RIBBONS"
2379.0 "6507_7_6"  78.1200 "Coal"    -999.25   -999.25 100.0000      0.0      0.0 "f/m"      "f/m"      "Flood_plain_with_crevasse_channels"                                                                "LOWER_DELTA_PLAIN_WIYH_CUT-AND-FILL_RIBBONS"
2379.1 "6507_7_6"  81.2400 "Coal"    -999.25   -999.25 100.0000      0.0      0.0 "f/m"      "f/m"      "Flood_plain_with_crevasse_channels"                                                                "LOWER_DELTA_PLAIN_WIYH_CUT-AND-FILL_RIBBONS"
2379.2 "6507_7_6"  81.6400 "Coal"    -999.25   -999.25 100.0000      0.0      0.0 "f/m"      "f/m"      "Flood_plain_with_crevasse_channels"                                                                "LOWER_DELTA_PLAIN_WIYH_CUT-AND-FILL_RIBBONS"
2379.3 "6507_7_6"  77.8200 "Sandstone" -999.25   -999.25 100.0000      0.0      0.0 "vc"       "vf"       "Flood_plain_with_crevasse_channels"                                                                "LOWER_DELTA_PLAIN_WIYH_CUT-AND-FILL_RIBBONS"
2379.4 "6507_7_6"  73.7400 "Sandstone" -999.25   -999.25 100.0000      0.0      0.0 "vc"       "vf"       "Flood_plain_with_crevasse_channels"                                                                "LOWER_DELTA_PLAIN_WIYH_CUT-AND-FILL_RIBBONS"
2379.5 "6507_7_6"  68.3500 "Sandstone" -999.25   -999.25 100.0000      0.0      0.0 "vc"       "vf"       "Flood_plain_with_crevasse_channels"                                                                "LOWER_DELTA_PLAIN_WIYH_CUT-AND-FILL_RIBBONS"
2379.6 "6507_7_6"  58.1100 "Sandstone" -999.25   -999.25 100.0000      0.0      0.0 "vc"       "vf"       "Flood_plain_with_crevasse_channels"                                                                "LOWER_DELTA_PLAIN_WIYH_CUT-AND-FILL_RIBBONS"
2379.7 "6507_7_6"  47.8700 "Sandstone" -999.25   -999.25 100.0000      0.0      0.0 "vc"       "vf"       "Flood_plain_with_crevasse_channels"                                                                "LOWER_DELTA_PLAIN_WIYH_CUT-AND-FILL_RIBBONS"
2379.8 "6507_7_6"  46.0300 "Sandstone" -999.25   -999.25 100.0000      0.0      0.0 "vc"       "vf"       "Flood_plain_with_crevasse_channels"                                                                "LOWER_DELTA_PLAIN_WIYH_CUT-AND-FILL_RIBBONS"
2379.9 "6507_7_6"  46.6200 "Sandstone" -999.25   -999.25 100.0000      0.0      0.0 "vc"       "vf"       "Flood_plain_with_crevasse_channels"                                                                "LOWER_DELTA_PLAIN_WIYH_CUT-AND-FILL_RIBBONS"
2380.0 "6507_7_6"  47.5600 "Sandstone" -999.25   -999.25 100.0000      0.0      0.0 "vc"       "vf"       "Flood_plain_with_crevasse_channels"                                                                "LOWER_DELTA_PLAIN_WIYH_CUT-AND-FILL_RIBBONS"
2380.1 "6507_7_6"  48.7000 "Sandstone" -999.25   -999.25 100.0000      0.0      0.0 "vc"       "vf"       "Flood_plain_with_crevasse_channels"                                                                "LOWER_DELTA_PLAIN_WIYH_CUT-AND-FILL_RIBBONS"
2380.2 "6507_7_6"  49.8400 "Sandstone" -999.25   -999.25 100.0000      0.0      0.0 "vc"       "vf"       "Flood_plain_with_crevasse_channels"                                                                "LOWER_DELTA_PLAIN_WIYH_CUT-AND-FILL_RIBBONS"
2380.3 "6507_7_6"  50.9800 "Sandstone" -999.25   -999.25 100.0000      0.0      0.0 "vc"       "vf"       "Flood_plain_with_crevasse_channels"                                                                "LOWER_DELTA_PLAIN_WIYH_CUT-AND-FILL_RIBBONS"
2380.4 "6507_7_6"  51.9000 "Sandstone" -999.25   -999.25 100.0000      0.0      0.0 "vc"       "vf"       "Flood_plain_with_crevasse_channels"                                                                "LOWER_DELTA_PLAIN_WIYH_CUT-AND-FILL_RIBBONS"
