~Version
VERS  .                                 3.0 : CWLS LAS ASCII Standard - Version 3.0
WRAP  . NO                                  : One line per depth step
DLM   . SPACE                               : Column data section delimiter
SOURCE. Converted to LAS by Log Studio 4.76 : GeoProvider

~Well
STRT.         2129.0 : Start depth
STOP.         2460.3 : Stop depth
STEP.              1 : Step
NULL.        -999.25 : No-value
COMP.                : Company
WELL. 6507/7-6       : Well
FLD .                : Field
LOC .                : Location
LATI.                : Latitude
LONG.                : Longitude
GDAT.                : Geodetic datum
CNTY.                : County
STAT.                : State
CTRY.                : Country
SRVC. GeoProvider AS : Service company
DATE.                : Date
API .                : API number
RUN .                : Run number

~Parameters
WellboreName.  : Wellbore name
RigName     .  : Rig name
StartDate   .  : Start date

~Curves
DEPTH.m            .  : null {F}Depth mMD
Hole_ID.-          .  : null {S}Hole ID
GR.API             .  : null {F}Gamma Ray
Lithology1.-       .  : null {S}Lithology 1
Lithology2.-       .  : null {S}Lithology 2
Lithology3.-       .  : null {S}Lithology 3
Lithology1.%       .  : null {F}Lithology 1 percentage
Lithology2.%       .  : null {F}Lithology 2 percentage
Lithology3.%       .  : null {F}Lithology 3 percentage
Grain_size_Top.-   .  : null {S}Grain size at the top 
Grain_size_Base.-  .  : null {S}Grain size at the bottom
Sub_Environment.-  .  : null {S}Sub Environment
Gross_Environment.-.  : null {S}Gross Environment

~Ascii
# ...
2354.9 "6507_7_6"  76.3900 "Sandstone" -999.25   -999.25 100.0000      0.0      0.0 "c/vc"     "c/vc"     "Tidal_sandflat_with_tidal_channels"                                                                "TIDAL_FLAT_AND_ESTUARY"                    
2355.0 "6507_7_6"  75.5200 "Sandstone" -999.25   -999.25 100.0000      0.0      0.0 "c/vc"     "c/vc"     "Tidal_sandflat_with_tidal_channels"                                                                "TIDAL_FLAT_AND_ESTUARY"                    
2355.1 "6507_7_6"  74.6500 "Sandstone" -999.25   -999.25 100.0000      0.0      0.0 "c/vc"     "c/vc"     "Tidal_sandflat_with_tidal_channels"                                                                "TIDAL_FLAT_AND_ESTUARY"                    
2355.2 "6507_7_6"  73.7900 "Sandstone" -999.25   -999.25 100.0000      0.0      0.0 "c/vc"     "c/vc"     "Tidal_sandflat_with_tidal_channels"                                                                "TIDAL_FLAT_AND_ESTUARY"                    
2355.3 "6507_7_6"  72.9200 "Sandstone" -999.25   -999.25 100.0000      0.0      0.0 "c/vc"     "c/vc"     "Tidal_sandflat_with_tidal_channels"                                                                "TIDAL_FLAT_AND_ESTUARY"                    
2355.4 "6507_7_6"  72.0800 "Sandstone" -999.25   -999.25 100.0000      0.0      0.0 "c/vc"     "m"        "Tidal_sandflat_with_tidal_channels"                                                                "TIDAL_FLAT_AND_ESTUARY"                    
2355.5 "6507_7_6"  71.4900 "Sandstone" -999.25   -999.25 100.0000      0.0      0.0 "c/vc"     "m"        "Tidal_sandflat_with_tidal_channels"                                                                "TIDAL_FLAT_AND_ESTUARY"                    
2355.6 "6507_7_6"  70.9000 "Sandstone" -999.25   -999.25 100.0000      0.0      0.0 "c/vc"     "m"        "Tidal_sandflat_with_tidal_channels"                                                                "TIDAL_FLAT_AND_ESTUARY"                    
2355.7 "6507_7_6"  70.8400 "Sandstone" -999.25   -999.25 100.0000      0.0      0.0 "c/vc"     "m"        "Tidal_sandflat_with_tidal_channels"                                                                "TIDAL_FLAT_AND_ESTUARY"                    
2355.8 "6507_7_6"  71.7300 "Sandstone" -999.25   -999.25 100.0000      0.0      0.0 "c/vc"     "m"        "Tidal_creek"                                                                                       "TIDAL_FLAT_AND_ESTUARY"                    
2355.9 "6507_7_6"  73.2500 "Sandstone" -999.25   -999.25 100.0000      0.0      0.0 "c/vc"     "m"        "Tidal_creek"                                                                                       "TIDAL_FLAT_AND_ESTUARY"                    
2356.0 "6507_7_6"  74.7800 "Sandstone" -999.25   -999.25 100.0000      0.0      0.0 "c/vc"     "m"        "Tidal_creek"                                                                                       "TIDAL_FLAT_AND_ESTUARY"                    
2356.1 "6507_7_6"  76.3000 "Sandstone" -999.25   -999.25 100.0000      0.0      0.0 "c/vc"     "m"        "Tidal_creek"                                                                                       "TIDAL_FLAT_AND_ESTUARY"                    
2356.2 "6507_7_6"  77.3700 "Sandstone" -999.25   -999.25 100.0000      0.0      0.0 "c/vc"     "m"        "Tidal_creek"                                                                                       "TIDAL_FLAT_AND_ESTUARY"                    
2356.3 "6507_7_6"  78.3800 "Sandstone" -999.25   -999.25 100.0000      0.0      0.0 "c/vc"     "m"        "Tidal_creek"                                                                                       "TIDAL_FLAT_AND_ESTUARY"                    
2356.4 "6507_7_6"  78.8000 "Sandstone" -999.25   -999.25 100.0000      0.0      0.0 "c/vc"     "m"        "Tidal_creek"                                                                                       "TIDAL_FLAT_AND_ESTUARY"                    
2356.5 "6507_7_6"  78.7200 "Sandstone" -999.25   -999.25 100.0000      0.0      0.0 "c/vc"     "m"        "Tidal_creek"                                                                                       "TIDAL_FLAT_AND_ESTUARY"                    
2356.6 "6507_7_6"  77.5400 "Sandstone" -999.25   -999.25 100.0000      0.0      0.0 "c/vc"     "m"        "Tidal_creek"                                                                                       "TIDAL_FLAT_AND_ESTUARY"                    
2356.7 "6507_7_6"  76.3500 "Sandstone" -999.25   -999.25 100.0000      0.0      0.0 "c/vc"     "m"        "Tidal_creek"                                                                                       "TIDAL_FLAT_AND_ESTUARY"                    
2356.8 "6507_7_6"  75.1600 "Sandstone" -999.25   -999.25 100.0000      0.0      0.0 "c/vc"     "m"        "Tidal_creek"                                                                                       "TIDAL_FLAT_AND_ESTUARY"                    
2356.9 "6507_7_6"  73.9800 "Sandstone" -999.25   -999.25 100.0000      0.0      0.0 "c/vc"     "m"        "Shallow_subtidal_sand_bars"                                                                        "TIDAL_FLAT_AND_ESTUARY"                    
2357.0 "6507_7_6"  73.2000 "Sandstone" -999.25   -999.25 100.0000      0.0      0.0 "c/vc"     "m"        "Shallow_subtidal_sand_bars"                                                                        "TIDAL_FLAT_AND_ESTUARY"                    
2357.1 "6507_7_6"  73.0600 "Sandstone" -999.25   -999.25 100.0000      0.0      0.0 "m"        "m"        "Shallow_subtidal_sand_bars"                                                                        "TIDAL_FLAT_AND_ESTUARY"                    
2357.2 "6507_7_6"  74.1600 "Sandstone" -999.25   -999.25 100.0000      0.0      0.0 "m"        "m"        "Shallow_subtidal_sand_bars"                                                                        "TIDAL_FLAT_AND_ESTUARY"                    
2357.3 "6507_7_6"  75.2500 "Sandstone" -999.25   -999.25 100.0000      0.0      0.0 "m"        "m"        "Shallow_subtidal_sand_bars"                                                                        "TIDAL_FLAT_AND_ESTUARY"                    
2357.4 "6507_7_6"  76.3500 "Sandstone" -999.25   -999.25 100.0000      0.0      0.0 "vc/granule" "vc/granule" "Shallow_subtidal_sand_bars"                                                                        "TIDAL_FLAT_AND_ESTUARY"                    
2357.5 "6507_7_6"  77.4500 "Sandstone" -999.25   -999.25 100.0000      0.0      0.0 "vc/granule" "vc/granule" "Shallow_subtidal_sand_bars"                                                                        "TIDAL_FLAT_AND_ESTUARY"                    
2357.6 "6507_7_6"  77.9300 "Sandstone" -999.25   -999.25 100.0000      0.0      0.0 "vc"       "m"        "Shallow_subtidal_sand_bars"                                                                        "TIDAL_FLAT_AND_ESTUARY"                    
2357.7 "6507_7_6"  78.0300 "Sandstone" -999.25   -999.25 100.0000      0.0      0.0 "vc"       "m"        "Shallow_subtidal_sand_bars"                                                                        "TIDAL_FLAT_AND_ESTUARY"                    
2357.8 "6507_7_6"  77.5600 "Sandstone" -999.25   -999.25 100.0000      0.0      0.0 "vc"       "m"        "Shallow_subtidal_sand_bars"                                                                        "TIDAL_FLAT_AND_ESTUARY"                    
2357.9 "6507_7_6"  76.4800 "Sandstone" -999.25   -999.25 100.0000      0.0      0.0 "vc"       "m"        "Shallow_subtidal_sand_bars"                                                                        "TIDAL_FLAT_AND_ESTUARY"                    
2358.0 "6507_7_6"  74.6700 "Sandstone" -999.25   -999.25 100.0000      0.0      0.0 "vc"       "m"        "Shallow_subtidal_sand_bars"                                                                        "TIDAL_FLAT_AND_ESTUARY"                    
