~Version
VERS  .                                 3.0 : CWLS LAS ASCII Standard - Version 3.0
WRAP  . NO                                  : One line per depth step
DLM   . SPACE                               : Column data section delimiter
SOURCE. Converted to LAS by Log Studio 4.76 : GeoProvider

~Well
STRT.         2129.0 : Start depth
STOP.         2460.3 : Stop depth
STEP.              1 : Step
NULL.        -999.25 : No-value
COMP.                : Company
WELL. 6507/7-6       : Well
FLD .                : Field
LOC .                : Location
LATI.                : Latitude
LONG.                : Longitude
GDAT.                : Geodetic datum
CNTY.                : County
STAT.                : State
CTRY.                : Country
SRVC. GeoProvider AS : Service company
DATE.                : Date
API .                : API number
RUN .                : Run number

~Parameters
WellboreName.  : Wellbore name
RigName     .  : Rig name
StartDate   .  : Start date

~Curves
DEPTH.m            .  : null {F}Depth mMD
Hole_ID.-          .  : null {S}Hole ID
GR.API             .  : null {F}Gamma Ray
Lithology1.-       .  : null {S}Lithology 1
Lithology2.-       .  : null {S}Lithology 2
Lithology3.-       .  : null {S}Lithology 3
Lithology1.%       .  : null {F}Lithology 1 percentage
Lithology2.%       .  : null {F}Lithology 2 percentage
Lithology3.%       .  : null {F}Lithology 3 percentage
Grain_size_Top.-   .  : null {S}Grain size at the top 
Grain_size_Base.-  .  : null {S}Grain size at the bottom
Sub_Environment.-  .  : null {S}Sub Environment
Gross_Environment.-.  : null {S}Gross Environment

~Ascii
# ...
2151.8 "6507_7_6"  55.8900 "Sandstone" "Limestone" -999.25  85.0000 15.00000      0.0 "m"        "c"        "Tidal_influenced_shoreface-Mouth_bar_complex"                                                      "DELTA_FRONT"                               
2151.9 "6507_7_6"  52.3000 "Sandstone" "Limestone" -999.25  90.0000 10.00000      0.0 "c/vc"     "c"        "Tidal_influenced_shoreface-Mouth_bar_complex"                                                      "DELTA_FRONT"                               
2152.0 "6507_7_6"  48.7100 "Sandstone" "Limestone" -999.25  90.0000 10.00000      0.0 "c/vc"     "c"        "Tidal_influenced_shoreface-Mouth_bar_complex"                                                      "DELTA_FRONT"                               
2152.1 "6507_7_6"  48.6200 "Sandstone" "Limestone" -999.25  90.0000 10.00000      0.0 "c/vc"     "c"        "Tidal_influenced_shoreface-Mouth_bar_complex"                                                      "DELTA_FRONT"                               
2152.2 "6507_7_6"  50.3800 "Sandstone" "Limestone" -999.25  90.0000 10.00000      0.0 "c/vc"     "c"        "Tidal_influenced_shoreface-Mouth_bar_complex"                                                      "DELTA_FRONT"                               
2152.3 "6507_7_6"  53.7200 "Sandstone" "Limestone" -999.25  90.0000 10.00000      0.0 "c/vc"     "c"        "Tidal_influenced_shoreface-Mouth_bar_complex"                                                      "DELTA_FRONT"                               
2152.4 "6507_7_6"  57.4300 "Sandstone" "Limestone" -999.25  90.0000 10.00000      0.0 "c/vc"     "c"        "Tidal_influenced_shoreface-Mouth_bar_complex"                                                      "DELTA_FRONT"                               
2152.5 "6507_7_6"  60.2600 "Sandstone" "Limestone" -999.25  90.0000 10.00000      0.0 "c/vc"     "c"        "Tidal_influenced_shoreface-Mouth_bar_complex"                                                      "DELTA_FRONT"                               
2152.6 "6507_7_6"  61.4000 "Sandstone" "Limestone" -999.25  90.0000 10.00000      0.0 "c/vc"     "c"        "Tidal_influenced_shoreface-Mouth_bar_complex"                                                      "DELTA_FRONT"                               
2152.7 "6507_7_6"  61.8900 "Sandstone" "Limestone" -999.25  90.0000 10.00000      0.0 "c/vc"     "c"        "Tidal_influenced_shoreface-Mouth_bar_complex"                                                      "DELTA_FRONT"                               
2152.8 "6507_7_6"  61.4700 "Sandstone" "Limestone" -999.25  90.0000 10.00000      0.0 "c/vc"     "c"        "Tidal_influenced_shoreface-Mouth_bar_complex"                                                      "DELTA_FRONT"                               
2152.9 "6507_7_6"  60.9800 "Sandstone" "Limestone" -999.25  90.0000 10.00000      0.0 "c/vc"     "c"        "Tidal_influenced_shoreface-Mouth_bar_complex"                                                      "DELTA_FRONT"                               
2153.0 "6507_7_6"  60.3200 "Sandstone" "Limestone" -999.25  90.0000 10.00000      0.0 "c/vc"     "c"        "Tidal_influenced_shoreface-Mouth_bar_complex"                                                      "DELTA_FRONT"                               
2153.1 "6507_7_6"  59.6700 "Sandstone" "Limestone" -999.25  90.0000 10.00000      0.0 "c/vc"     "c"        "Tidal_influenced_shoreface-Mouth_bar_complex"                                                      "DELTA_FRONT"                               
2153.2 "6507_7_6"  59.0100 "Sandstone" "Limestone" -999.25  90.0000 10.00000      0.0 "c/vc"     "c"        "Tidal_influenced_shoreface-Mouth_bar_complex"                                                      "DELTA_FRONT"                               
2153.3 "6507_7_6"  58.3600 "Sandstone" "Limestone" -999.25  90.0000 10.00000      0.0 "c/vc"     "c"        "Tidal_influenced_shoreface-Mouth_bar_complex"                                                      "DELTA_FRONT"                               
2153.4 "6507_7_6"  57.7000 "Sandstone" "Limestone" -999.25  90.0000 10.00000      0.0 "c/vc"     "c"        "Tidal_influenced_shoreface-Mouth_bar_complex"                                                      "DELTA_FRONT"                               
2153.5 "6507_7_6"  57.2700 "Sandstone" "Limestone" -999.25  90.0000 10.00000      0.0 "c/vc"     "c"        "Tidal_influenced_shoreface-Mouth_bar_complex"                                                      "DELTA_FRONT"                               
2153.6 "6507_7_6"  57.3800 "Sandstone" "Limestone" -999.25  90.0000 10.00000      0.0 "c/vc"     "c"        "Tidal_influenced_shoreface-Mouth_bar_complex"                                                      "DELTA_FRONT"                               
2153.7 "6507_7_6"  58.6400 "Sandstone" "Limestone" -999.25  90.0000 10.00000      0.0 "c/vc"     "c"        "Tidal_influenced_shoreface-Mouth_bar_complex"                                                      "DELTA_FRONT"                               
2153.8 "6507_7_6"  60.6600 "Sandstone" "Limestone" -999.25  90.0000 10.00000      0.0 "c/vc"     "c"        "Tidal_influenced_shoreface-Mouth_bar_complex"                                                      "DELTA_FRONT"                               
2153.9 "6507_7_6"  63.0900 "Sandstone" "Limestone" -999.25  90.0000 10.00000      0.0 "c/vc"     "c"        "Tidal_influenced_shoreface-Mouth_bar_complex"                                                      "DELTA_FRONT"                               
2154.0 "6507_7_6"  65.4000 "Sandstone" "Limestone" -999.25  90.0000 10.00000      0.0 "c/vc"     "c"        "Tidal_influenced_shoreface-Mouth_bar_complex"                                                      "DELTA_FRONT"                               
2154.1 "6507_7_6"  67.6700 "Sandstone" "Limestone" -999.25  90.0000 10.00000      0.0 "c/vc"     "c"        "Tidal_influenced_shoreface-Mouth_bar_complex"                                                      "DELTA_FRONT"                               
2154.2 "6507_7_6"  68.5700 "Sandstone" "Limestone" -999.25  90.0000 10.00000      0.0 "c/vc"     "c"        "Tidal_influenced_shoreface-Mouth_bar_complex"                                                      "DELTA_FRONT"                               
2154.3 "6507_7_6"  69.1800 "Sandstone" "Limestone" -999.25  90.0000 10.00000      0.0 "c/vc"     "c"        "Tidal_influenced_shoreface-Mouth_bar_complex"                                                      "DELTA_FRONT"                               
2154.4 "6507_7_6"  69.7900 "Sandstone" "Limestone" -999.25  90.0000 10.00000      0.0 "c/vc"     "c"        "Tidal_influenced_shoreface-Mouth_bar_complex"                                                      "DELTA_FRONT"                               
2154.5 "6507_7_6"  71.0300 "Sandstone" "Limestone" -999.25  90.0000 10.00000      0.0 "c/vc"     "c"        "Tidal_influenced_shoreface-Mouth_bar_complex"                                                      "DELTA_FRONT"                               
2154.6 "6507_7_6"  72.1900 "Sandstone" "Limestone" -999.25  60.0000 40.00000      0.0 "vc"       "c/vc"     "Tidal_influenced_shoreface-Mouth_bar_complex"                                                      "DELTA_FRONT"                               
2154.7 "6507_7_6"  71.6800 "Sandstone" "Limestone" -999.25  60.0000 40.00000      0.0 "vc"       "c/vc"     "Tidal_influenced_shoreface-Mouth_bar_complex"                                                      "DELTA_FRONT"                               
2154.8 "6507_7_6"  68.6400 "Sandstone" "Limestone" -999.25  60.0000 40.00000      0.0 "vc"       "c/vc"     "Tidal_influenced_shoreface-Mouth_bar_complex"                                                      "DELTA_FRONT"                               
2154.9 "6507_7_6"  65.5800 "Sandstone" "Limestone" -999.25  60.0000 40.00000      0.0 "vc"       "c/vc"     "Tidal_influenced_shoreface-Mouth_bar_complex"                                                      "DELTA_FRONT"                               
