~Version
VERS  .                                 3.0 : CWLS LAS ASCII Standard - Version 3.0
WRAP  . NO                                  : One line per depth step
DLM   . SPACE                               : Column data section delimiter
SOURCE. Converted to LAS by Log Studio 4.76 : GeoProvider

~Well
STRT.         2129.0 : Start depth
STOP.         2460.3 : Stop depth
STEP.              1 : Step
NULL.        -999.25 : No-value
COMP.                : Company
WELL. 6507/7-6       : Well
FLD .                : Field
LOC .                : Location
LATI.                : Latitude
LONG.                : Longitude
GDAT.                : Geodetic datum
CNTY.                : County
STAT.                : State
CTRY.                : Country
SRVC. GeoProvider AS : Service company
DATE.                : Date
API .                : API number
RUN .                : Run number

~Parameters
WellboreName.  : Wellbore name
RigName     .  : Rig name
StartDate   .  : Start date

~Curves
DEPTH.m            .  : null {F}Depth mMD
Hole_ID.-          .  : null {S}Hole ID
GR.API             .  : null {F}Gamma Ray
Lithology1.-       .  : null {S}Lithology 1
Lithology2.-       .  : null {S}Lithology 2
Lithology3.-       .  : null {S}Lithology 3
Lithology1.%       .  : null {F}Lithology 1 percentage
Lithology2.%       .  : null {F}Lithology 2 percentage
Lithology3.%       .  : null {F}Lithology 3 percentage
Grain_size_Top.-   .  : null {S}Grain size at the top 
Grain_size_Base.-  .  : null {S}Grain size at the bottom
Sub_Environment.-  .  : null {S}Sub Environment
Gross_Environment.-.  : null {S}Gross Environment

~Ascii
# ...
2329.3 "6507_7_6"  84.9900 "Sandstone" -999.25   -999.25 100.0000      0.0      0.0 "m"        "vc"       "Tidal_sand_flat_and_subtidal_sand_bars"                                                            "TIDAL_FLAT_AND_ESTUARY"                    
2329.4 "6507_7_6"  85.4100 "Sandstone" -999.25   -999.25 100.0000      0.0      0.0 "m"        "vc"       "Tidal_sand_flat_and_subtidal_sand_bars"                                                            "TIDAL_FLAT_AND_ESTUARY"                    
2329.5 "6507_7_6"  85.8300 "Sandstone" -999.25   -999.25 100.0000      0.0      0.0 "m"        "vc"       "Tidal_sand_flat_and_subtidal_sand_bars"                                                            "TIDAL_FLAT_AND_ESTUARY"                    
2329.6 "6507_7_6"  86.2500 "Sandstone" -999.25   -999.25 100.0000      0.0      0.0 "m"        "vc"       "Tidal_sand_flat_and_subtidal_sand_bars"                                                            "TIDAL_FLAT_AND_ESTUARY"                    
2329.7 "6507_7_6"  84.6000 "Sandstone" -999.25   -999.25 100.0000      0.0      0.0 "m"        "vc"       "Tidal_sand_flat_and_subtidal_sand_bars"                                                            "TIDAL_FLAT_AND_ESTUARY"                    
2329.8 "6507_7_6"  82.9200 "Sandstone" -999.25   -999.25 100.0000      0.0      0.0 "m"        "vc"       "Tidal_sand_flat_and_subtidal_sand_bars"                                                            "TIDAL_FLAT_AND_ESTUARY"                    
2329.9 "6507_7_6"  81.2400 "Sandstone" -999.25   -999.25 100.0000      0.0      0.0 "m"        "vc"       "Tidal_sand_flat_and_subtidal_sand_bars"                                                            "TIDAL_FLAT_AND_ESTUARY"                    
2330.0 "6507_7_6"  81.6200 "Sandstone" -999.25   -999.25 100.0000      0.0      0.0 "m"        "vc"       "Tidal_sand_flat_and_subtidal_sand_bars"                                                            "TIDAL_FLAT_AND_ESTUARY"                    
2330.1 "6507_7_6"  84.0400 "Sandstone" -999.25   -999.25 100.0000      0.0      0.0 "m"        "vc"       "Tidal_sand_flat_and_subtidal_sand_bars"                                                            "TIDAL_FLAT_AND_ESTUARY"                    
2330.2 "6507_7_6"  85.0600 "Sandstone" -999.25   -999.25 100.0000      0.0      0.0 "m"        "vc"       "Tidal_sand_flat_and_subtidal_sand_bars"                                                            "TIDAL_FLAT_AND_ESTUARY"                    
2330.3 "6507_7_6"  83.7600 "Sandstone" -999.25   -999.25 100.0000      0.0      0.0 "m"        "vc"       "Tidal_sand_flat_and_subtidal_sand_bars"                                                            "TIDAL_FLAT_AND_ESTUARY"                    
2330.4 "6507_7_6"  82.4500 "Sandstone" -999.25   -999.25 100.0000      0.0      0.0 "m"        "vc"       "Tidal_sand_flat_and_subtidal_sand_bars"                                                            "TIDAL_FLAT_AND_ESTUARY"                    
2330.5 "6507_7_6"  81.1500 "Sandstone" -999.25   -999.25 100.0000      0.0      0.0 "m"        "vc"       "Tidal_sand_flat_and_subtidal_sand_bars"                                                            "TIDAL_FLAT_AND_ESTUARY"                    
2330.6 "6507_7_6"  79.8500 "Sandstone" -999.25   -999.25 100.0000      0.0      0.0 "m"        "vc"       "Tidal_sand_flat_and_subtidal_sand_bars"                                                            "TIDAL_FLAT_AND_ESTUARY"                    
2330.7 "6507_7_6"  78.5500 "Sandstone" -999.25   -999.25 100.0000      0.0      0.0 "m"        "vc"       "Tidal_sand_flat_intertidal"                                                                        "TIDAL_FLAT_AND_ESTUARY"                    
2330.8 "6507_7_6"  77.7400 "Sandstone" -999.25   -999.25 100.0000      0.0      0.0 "m"        "vc"       "Tidal_sand_flat_intertidal"                                                                        "TIDAL_FLAT_AND_ESTUARY"                    
2330.9 "6507_7_6"  78.4000 "Coal"    -999.25   -999.25 100.0000      0.0      0.0 -999.25    -999.25    "Tidal_sand_flat"                                                                                   "TIDAL_FLAT_AND_ESTUARY"                    
2331.0 "6507_7_6"  79.1500 "Coal"    -999.25   -999.25 100.0000      0.0      0.0 -999.25    -999.25    "Tidal_sand_flat"                                                                                   "TIDAL_FLAT_AND_ESTUARY"                    
2331.1 "6507_7_6"  79.8900 "Sandstone" "Limestone" "Coal"   87.0000  5.00000  8.00000 "f/m"      "c/vc"     "Tidal_sand_flat"                                                                                   "TIDAL_FLAT_AND_ESTUARY"                    
2331.2 "6507_7_6"  80.6400 "Sandstone" "Limestone" "Coal"   87.0000  5.00000  8.00000 "f/m"      "c/vc"     "Tidal_sand_flat"                                                                                   "TIDAL_FLAT_AND_ESTUARY"                    
2331.3 "6507_7_6"  80.9300 "Sandstone" "Limestone" "Coal"   87.0000  5.00000  8.00000 "f/m"      "c/vc"     "Tidal_sand_flat"                                                                                   "TIDAL_FLAT_AND_ESTUARY"                    
2331.4 "6507_7_6"  81.0900 "Sandstone" "Limestone" "Coal"   87.0000  5.00000  8.00000 "f/m"      "c/vc"     "Tidal_sand_flat"                                                                                   "TIDAL_FLAT_AND_ESTUARY"                    
2331.5 "6507_7_6"  80.1000 "Sandstone" "Limestone" "Coal"   87.0000  5.00000  8.00000 "f/m"      "c/vc"     "Tidal_sand_flat"                                                                                   "TIDAL_FLAT_AND_ESTUARY"                    
2331.6 "6507_7_6"  78.7000 "Sandstone" "Limestone" "Coal"   87.0000  5.00000  8.00000 "f/m"      "c/vc"     "Tidal_sand_flat"                                                                                   "TIDAL_FLAT_AND_ESTUARY"                    
2331.7 "6507_7_6"  76.8900 "Sandstone" "Limestone" "Coal"   87.0000  5.00000  8.00000 "f/m"      "c/vc"     "Tidal_sand_flat"                                                                                   "TIDAL_FLAT_AND_ESTUARY"                    
2331.8 "6507_7_6"  75.0900 "Sandstone" "Limestone" "Coal"   87.0000  5.00000  8.00000 "f/m"      "c/vc"     "Tidal_sand_flat"                                                                                   "TIDAL_FLAT_AND_ESTUARY"                    
2331.9 "6507_7_6"  73.2800 "Sandstone" "Limestone" "Coal"   87.0000  5.00000  8.00000 "f/m"      "c/vc"     "Tidal_sand_flat"                                                                                   "TIDAL_FLAT_AND_ESTUARY"                    
2332.0 "6507_7_6"  71.4700 "Sandstone" "Limestone" "Coal"   87.0000  5.00000  8.00000 "f/m"      "c/vc"     "Tidal_sand_flat"                                                                                   "TIDAL_FLAT_AND_ESTUARY"                    
2332.1 "6507_7_6"  69.6700 "Sandstone" "Limestone" "Coal"   87.0000  5.00000  8.00000 "f/m"      "c/vc"     "Tidal_sand_flat"                                                                                   "TIDAL_FLAT_AND_ESTUARY"                    
2332.2 "6507_7_6"  68.4200 "Sandstone" "Limestone" "Coal"   87.0000  5.00000  8.00000 "f/m"      "c/vc"     "Tidal_sand_flat"                                                                                   "TIDAL_FLAT_AND_ESTUARY"                    
2332.3 "6507_7_6"  68.6700 "Sandstone" "Limestone" "Coal"   87.0000  5.00000  8.00000 "f/m"      "c/vc"     "Tidal_sand_flat"                                                                                   "TIDAL_FLAT_AND_ESTUARY"                    
2332.4 "6507_7_6"  69.4800 "Sandstone" "Limestone" "Coal"   87.0000  5.00000  8.00000 "f/m"      "c/vc"     "Tidal_sand_flat"                                                                                   "TIDAL_FLAT_AND_ESTUARY"                    
