~Version
VERS  .                                 3.0 : CWLS LAS ASCII Standard - Version 3.0
WRAP  . NO                                  : One line per depth step
DLM   . SPACE                               : Column data section delimiter
SOURCE. Converted to LAS by Log Studio 4.76 : GeoProvider

~Well
STRT.         2129.0 : Start depth
STOP.         2460.3 : Stop depth
STEP.              1 : Step
NULL.        -999.25 : No-value
COMP.                : Company
WELL. 6507/7-6       : Well
FLD .                : Field
LOC .                : Location
LATI.                : Latitude
LONG.                : Longitude
GDAT.                : Geodetic datum
CNTY.                : County
STAT.                : State
CTRY.                : Country
SRVC. GeoProvider AS : Service company
DATE.                : Date
API .                : API number
RUN .                : Run number

~Parameters
WellboreName.  : Wellbore name
RigName     .  : Rig name
StartDate   .  : Start date

~Curves
DEPTH.m            .  : null {F}Depth mMD
Hole_ID.-          .  : null {S}Hole ID
GR.API             .  : null {F}Gamma Ray
Lithology1.-       .  : null {S}Lithology 1
Lithology2.-       .  : null {S}Lithology 2
Lithology3.-       .  : null {S}Lithology 3
Lithology1.%       .  : null {F}Lithology 1 percentage
Lithology2.%       .  : null {F}Lithology 2 percentage
Lithology3.%       .  : null {F}Lithology 3 percentage
Grain_size_Top.-   .  : null {S}Grain size at the top 
Grain_size_Base.-  .  : null {S}Grain size at the bottom
Sub_Environment.-  .  : null {S}Sub Environment
Gross_Environment.-.  : null {S}Gross Environment

~Ascii
# ...
2457.4 "6507_7_6"  39.8700 "Sandstone" "Coal"    -999.25  98.0000  2.00000      0.0 "granule"  "c/vc"     "Anstomosing_distributary_channel_complex_The_cnannel_floor_was_strongly_dominated_by_transvers_bars" "UPPER_DELTA_PLAIN_WITH_ANASTOMOSING_CHANNELS"
2457.5 "6507_7_6"  41.4900 "Sandstone" "Coal"    -999.25  98.0000  2.00000      0.0 "granule"  "c/vc"     "Anstomosing_distributary_channel_complex_The_cnannel_floor_was_strongly_dominated_by_transvers_bars" "UPPER_DELTA_PLAIN_WITH_ANASTOMOSING_CHANNELS"
2457.6 "6507_7_6"  42.9000 "Sandstone" "Coal"    -999.25  98.0000  2.00000      0.0 "granule"  "c/vc"     "Anstomosing_distributary_channel_complex_The_cnannel_floor_was_strongly_dominated_by_transvers_bars" "UPPER_DELTA_PLAIN_WITH_ANASTOMOSING_CHANNELS"
2457.7 "6507_7_6"  43.1400 "Sandstone" "Coal"    -999.25  98.0000  2.00000      0.0 "granule"  "c/vc"     "Anstomosing_distributary_channel_complex_The_cnannel_floor_was_strongly_dominated_by_transvers_bars" "UPPER_DELTA_PLAIN_WITH_ANASTOMOSING_CHANNELS"
2457.8 "6507_7_6"  42.0300 "Sandstone" "Coal"    -999.25  98.0000  2.00000      0.0 "granule"  "c/vc"     "Anstomosing_distributary_channel_complex_The_cnannel_floor_was_strongly_dominated_by_transvers_bars" "UPPER_DELTA_PLAIN_WITH_ANASTOMOSING_CHANNELS"
2457.9 "6507_7_6"  40.9300 "Sandstone" "Coal"    -999.25  98.0000  2.00000      0.0 "granule"  "c/vc"     "Anstomosing_distributary_channel_complex_The_cnannel_floor_was_strongly_dominated_by_transvers_bars" "UPPER_DELTA_PLAIN_WITH_ANASTOMOSING_CHANNELS"
2458.0 "6507_7_6"  39.3900 "Sandstone" "Coal"    -999.25  98.0000  2.00000      0.0 "granule"  "c/vc"     "Anstomosing_distributary_channel_complex_The_cnannel_floor_was_strongly_dominated_by_transvers_bars" "UPPER_DELTA_PLAIN_WITH_ANASTOMOSING_CHANNELS"
2458.1 "6507_7_6"  37.7200 "Sandstone" "Coal"    -999.25  98.0000  2.00000      0.0 "granule"  "c/vc"     "Anstomosing_distributary_channel_complex_The_cnannel_floor_was_strongly_dominated_by_transvers_bars" "UPPER_DELTA_PLAIN_WITH_ANASTOMOSING_CHANNELS"
2458.2 "6507_7_6"  37.1000 "Sandstone" "Coal"    -999.25  98.0000  2.00000      0.0 "granule"  "c/vc"     "Anstomosing_distributary_channel_complex_The_cnannel_floor_was_strongly_dominated_by_transvers_bars" "UPPER_DELTA_PLAIN_WITH_ANASTOMOSING_CHANNELS"
2458.3 "6507_7_6"  37.5700 "Sandstone" "Coal"    -999.25  98.0000  2.00000      0.0 "granule"  "c/vc"     "Anstomosing_distributary_channel_complex_The_cnannel_floor_was_strongly_dominated_by_transvers_bars" "UPPER_DELTA_PLAIN_WITH_ANASTOMOSING_CHANNELS"
2458.4 "6507_7_6"  38.0500 "Sandstone" "Coal"    -999.25  98.0000  2.00000      0.0 "granule"  "c/vc"     "Anstomosing_distributary_channel_complex_The_cnannel_floor_was_strongly_dominated_by_transvers_bars" "UPPER_DELTA_PLAIN_WITH_ANASTOMOSING_CHANNELS"
2458.5 "6507_7_6"  38.1000 "Sandstone" "Coal"    -999.25  98.0000  2.00000      0.0 "granule"  "c/vc"     "Anstomosing_distributary_channel_complex_The_cnannel_floor_was_strongly_dominated_by_transvers_bars" "UPPER_DELTA_PLAIN_WITH_ANASTOMOSING_CHANNELS"
2458.6 "6507_7_6"  38.1400 "Sandstone" "Coal"    -999.25  98.0000  2.00000      0.0 "granule"  "c/vc"     "Anstomosing_distributary_channel_complex_The_cnannel_floor_was_strongly_dominated_by_transvers_bars" "UPPER_DELTA_PLAIN_WITH_ANASTOMOSING_CHANNELS"
2458.7 "6507_7_6"  38.1700 "Sandstone" "Coal"    -999.25  98.0000  2.00000      0.0 "granule"  "c/vc"     "Anstomosing_distributary_channel_complex_The_cnannel_floor_was_strongly_dominated_by_transvers_bars" "UPPER_DELTA_PLAIN_WITH_ANASTOMOSING_CHANNELS"
2458.8 "6507_7_6"  37.5200 "Sandstone" "Coal"    -999.25  98.0000  2.00000      0.0 "granule"  "c/vc"     "Anstomosing_distributary_channel_complex_The_cnannel_floor_was_strongly_dominated_by_transvers_bars" "UPPER_DELTA_PLAIN_WITH_ANASTOMOSING_CHANNELS"
2458.9 "6507_7_6"  36.7100 "Sandstone" "Coal"    -999.25  98.0000  2.00000      0.0 "granule"  "c/vc"     "Anstomosing_distributary_channel_complex_The_cnannel_floor_was_strongly_dominated_by_transvers_bars" "UPPER_DELTA_PLAIN_WITH_ANASTOMOSING_CHANNELS"
2459.0 "6507_7_6"  35.9600 "Sandstone" "Coal"    -999.25  98.0000  2.00000      0.0 "granule"  "c/vc"     "Anstomosing_distributary_channel_complex_The_cnannel_floor_was_strongly_dominated_by_transvers_bars" "UPPER_DELTA_PLAIN_WITH_ANASTOMOSING_CHANNELS"
2459.1 "6507_7_6"  35.9600 "Sandstone" "Coal"    -999.25  98.0000  2.00000      0.0 "granule"  "c/vc"     "Anstomosing_distributary_channel_complex_The_cnannel_floor_was_strongly_dominated_by_transvers_bars" "UPPER_DELTA_PLAIN_WITH_ANASTOMOSING_CHANNELS"
2459.2 "6507_7_6"  37.9200 "Sandstone" "Coal"    -999.25  98.0000  2.00000      0.0 "granule"  "c/vc"     "Anstomosing_distributary_channel_complex_The_cnannel_floor_was_strongly_dominated_by_transvers_bars" "UPPER_DELTA_PLAIN_WITH_ANASTOMOSING_CHANNELS"
2459.3 "6507_7_6"  42.1000 "Sandstone" "Coal"    -999.25  98.0000  2.00000      0.0 "granule"  "c/vc"     "Anstomosing_distributary_channel_complex_The_cnannel_floor_was_strongly_dominated_by_transvers_bars" "UPPER_DELTA_PLAIN_WITH_ANASTOMOSING_CHANNELS"
2459.4 "6507_7_6"  46.2900 "Sandstone" "Coal"    -999.25  98.0000  2.00000      0.0 "granule"  "c/vc"     "Anstomosing_distributary_channel_complex_The_cnannel_floor_was_strongly_dominated_by_transvers_bars" "UPPER_DELTA_PLAIN_WITH_ANASTOMOSING_CHANNELS"
2459.5 "6507_7_6"  51.4000 "Sandstone" "Coal"    -999.25  98.0000  2.00000      0.0 "granule"  "c/vc"     "Anstomosing_distributary_channel_complex_The_cnannel_floor_was_strongly_dominated_by_transvers_bars" "UPPER_DELTA_PLAIN_WITH_ANASTOMOSING_CHANNELS"
2459.6 "6507_7_6"  57.8300 "Sandstone" "Coal"    -999.25  98.0000  2.00000      0.0 "granule"  "c/vc"     "Anstomosing_distributary_channel_complex_The_cnannel_floor_was_strongly_dominated_by_transvers_bars" "UPPER_DELTA_PLAIN_WITH_ANASTOMOSING_CHANNELS"
2459.7 "6507_7_6"  61.4700 "Coal"    -999.25   -999.25 100.0000      0.0      0.0 "silt/vf"  "silt/vf"  "Anstomosing_distributary_channel_complex_The_cnannel_floor_was_strongly_dominated_by_transvers_bars" "UPPER_DELTA_PLAIN_WITH_ANASTOMOSING_CHANNELS"
2459.8 "6507_7_6"  63.0600 "Coal"    -999.25   -999.25 100.0000      0.0      0.0 "silt/vf"  "silt/vf"  "Anstomosing_distributary_channel_complex_The_cnannel_floor_was_strongly_dominated_by_transvers_bars" "UPPER_DELTA_PLAIN_WITH_ANASTOMOSING_CHANNELS"
2459.9 "6507_7_6"  61.3600 "Coal"    -999.25   -999.25 100.0000      0.0      0.0 "silt/vf"  "silt/vf"  "Anstomosing_distributary_channel_complex_The_cnannel_floor_was_strongly_dominated_by_transvers_bars" "UPPER_DELTA_PLAIN_WITH_ANASTOMOSING_CHANNELS"
2460.0 "6507_7_6"  58.5600 "Coal"    -999.25   -999.25 100.0000      0.0      0.0 "silt/vf"  "silt/vf"  "Anstomosing_distributary_channel_complex_The_cnannel_floor_was_strongly_dominated_by_transvers_bars" "UPPER_DELTA_PLAIN_WITH_ANASTOMOSING_CHANNELS"
2460.1 "6507_7_6"  55.2400 "Coal"    -999.25   -999.25 100.0000      0.0      0.0 "silt/vf"  "silt/vf"  "Anstomosing_distributary_channel_complex_The_cnannel_floor_was_strongly_dominated_by_transvers_bars" "UPPER_DELTA_PLAIN_WITH_ANASTOMOSING_CHANNELS"
2460.2 "6507_7_6"  51.9000 "Coal"    -999.25   -999.25 100.0000      0.0      0.0 "silt/vf"  "silt/vf"  "Anstomosing_distributary_channel_complex_The_cnannel_floor_was_strongly_dominated_by_transvers_bars" "UPPER_DELTA_PLAIN_WITH_ANASTOMOSING_CHANNELS"
2460.3 "6507_7_6"  47.6400 "Coal"    -999.25   -999.25 100.0000      0.0      0.0 "silt/vf"  "silt/vf"  "Anstomosing_distributary_channel_complex_The_cnannel_floor_was_strongly_dominated_by_transvers_bars" "UPPER_DELTA_PLAIN_WITH_ANASTOMOSING_CHANNELS"
