~Version
VERS  .                                 3.0 : CWLS LAS ASCII Standard - Version 3.0
WRAP  . NO                                  : One line per depth step
DLM   . SPACE                               : Column data section delimiter
SOURCE. Converted to LAS by Log Studio 4.76 : GeoProvider

~Well
STRT.         2129.0 : Start depth
STOP.         2460.3 : Stop depth
STEP.              1 : Step
NULL.        -999.25 : No-value
COMP.                : Company
WELL. 6507/7-6       : Well
FLD .                : Field
LOC .                : Location
LATI.                : Latitude
LONG.                : Longitude
GDAT.                : Geodetic datum
CNTY.                : County
STAT.                : State
CTRY.                : Country
SRVC. GeoProvider AS : Service company
DATE.                : Date
API .                : API number
RUN .                : Run number

~Parameters
WellboreName.  : Wellbore name
RigName     .  : Rig name
StartDate   .  : Start date

~Curves
DEPTH.m            .  : null {F}Depth mMD
Hole_ID.-          .  : null {S}Hole ID
GR.API             .  : null {F}Gamma Ray
Lithology1.-       .  : null {S}Lithology 1
Lithology2.-       .  : null {S}Lithology 2
Lithology3.-       .  : null {S}Lithology 3
Lithology1.%       .  : null {F}Lithology 1 percentage
Lithology2.%       .  : null {F}Lithology 2 percentage
Lithology3.%       .  : null {F}Lithology 3 percentage
Grain_size_Top.-   .  : null {S}Grain size at the top 
Grain_size_Base.-  .  : null {S}Grain size at the bottom
Sub_Environment.-  .  : null {S}Sub Environment
Gross_Environment.-.  : null {S}Gross Environment

~Ascii
# ...
2444.6 "6507_7_6" 111.6200 "Coal"    -999.25   -999.25 100.0000      0.0      0.0 "f"        "f"        -999.25                                                                                             "UPPER_DELTA_PLAIN_WITH_ANASTOMOSING_CHANNELS"
2444.7 "6507_7_6" 111.1300 "Sandstone" "Coal"    -999.25  95.0000  5.00000      0.0 "vc"       "vf"       -999.25                                                                                             "UPPER_DELTA_PLAIN_WITH_ANASTOMOSING_CHANNELS"
2444.8 "6507_7_6" 108.6200 "Sandstone" "Coal"    -999.25  95.0000  5.00000      0.0 "vc"       "vf"       -999.25                                                                                             "UPPER_DELTA_PLAIN_WITH_ANASTOMOSING_CHANNELS"
2444.9 "6507_7_6" 104.5800 "Sandstone" "Coal"    -999.25  95.0000  5.00000      0.0 "vc"       "vf"       -999.25                                                                                             "UPPER_DELTA_PLAIN_WITH_ANASTOMOSING_CHANNELS"
2445.0 "6507_7_6" 100.5400 "Sandstone" "Coal"    -999.25  95.0000  5.00000      0.0 "vc"       "vf"       -999.25                                                                                             "UPPER_DELTA_PLAIN_WITH_ANASTOMOSING_CHANNELS"
2445.1 "6507_7_6"  96.5000 "Sandstone" "Coal"    -999.25  95.0000  5.00000      0.0 "vc"       "vf"       -999.25                                                                                             "UPPER_DELTA_PLAIN_WITH_ANASTOMOSING_CHANNELS"
2445.2 "6507_7_6"  95.3800 "Sandstone" "Coal"    -999.25  95.0000  5.00000      0.0 "vc"       "vf"       -999.25                                                                                             "UPPER_DELTA_PLAIN_WITH_ANASTOMOSING_CHANNELS"
2445.3 "6507_7_6"  94.3900 "Coal"    -999.25   -999.25 100.0000      0.0      0.0 "silt/vf"  "silt/vf"  -999.25                                                                                             "UPPER_DELTA_PLAIN_WITH_ANASTOMOSING_CHANNELS"
2445.4 "6507_7_6"  93.4000 "Coal"    -999.25   -999.25 100.0000      0.0      0.0 "silt/vf"  "silt/vf"  -999.25                                                                                             "UPPER_DELTA_PLAIN_WITH_ANASTOMOSING_CHANNELS"
2445.5 "6507_7_6"  91.9100 "Coal"    -999.25   -999.25 100.0000      0.0      0.0 "silt/vf"  "silt/vf"  -999.25                                                                                             "UPPER_DELTA_PLAIN_WITH_ANASTOMOSING_CHANNELS"
2445.6 "6507_7_6"  89.3200 "Coal"    -999.25   -999.25 100.0000      0.0      0.0 "silt/vf"  "silt/vf"  -999.25                                                                                             "UPPER_DELTA_PLAIN_WITH_ANASTOMOSING_CHANNELS"
2445.7 "6507_7_6"  85.4100 "Coal"    -999.25   -999.25 100.0000      0.0      0.0 "silt/vf"  "silt/vf"  -999.25                                                                                             "UPPER_DELTA_PLAIN_WITH_ANASTOMOSING_CHANNELS"
2445.8 "6507_7_6"  79.8100 "Coal"    -999.25   -999.25 100.0000      0.0      0.0 "silt/vf"  "silt/vf"  -999.25                                                                                             "UPPER_DELTA_PLAIN_WITH_ANASTOMOSING_CHANNELS"
2445.9 "6507_7_6"  74.2000 "Coal"    -999.25   -999.25 100.0000      0.0      0.0 "silt/vf"  "silt/vf"  -999.25                                                                                             "UPPER_DELTA_PLAIN_WITH_ANASTOMOSING_CHANNELS"
2446.0 "6507_7_6"  67.8300 "Coal"    -999.25   -999.25 100.0000      0.0      0.0 "silt/vf"  "silt/vf"  -999.25                                                                                             "UPPER_DELTA_PLAIN_WITH_ANASTOMOSING_CHANNELS"
2446.1 "6507_7_6"  60.1900 "Coal"    -999.25   -999.25 100.0000      0.0      0.0 "silt/vf"  "silt/vf"  -999.25                                                                                             "UPPER_DELTA_PLAIN_WITH_ANASTOMOSING_CHANNELS"
2446.2 "6507_7_6"  52.5600 "Sandstone" -999.25   -999.25 100.0000      0.0      0.0 "c/vc"     "c/vc"     "Anstomosing_distributary_channel_complex_The_cnannel_floor_was_strongly_dominated_by_transvers_bars" "UPPER_DELTA_PLAIN_WITH_ANASTOMOSING_CHANNELS"
2446.3 "6507_7_6"  47.8700 "Sandstone" -999.25   -999.25 100.0000      0.0      0.0 "c/vc"     "c/vc"     "Anstomosing_distributary_channel_complex_The_cnannel_floor_was_strongly_dominated_by_transvers_bars" "UPPER_DELTA_PLAIN_WITH_ANASTOMOSING_CHANNELS"
2446.4 "6507_7_6"  44.0600 "Sandstone" -999.25   -999.25 100.0000      0.0      0.0 "c/vc"     "c/vc"     "Anstomosing_distributary_channel_complex_The_cnannel_floor_was_strongly_dominated_by_transvers_bars" "UPPER_DELTA_PLAIN_WITH_ANASTOMOSING_CHANNELS"
2446.5 "6507_7_6"  42.0800 "Sandstone" -999.25   -999.25 100.0000      0.0      0.0 "c/vc"     "c/vc"     "Anstomosing_distributary_channel_complex_The_cnannel_floor_was_strongly_dominated_by_transvers_bars" "UPPER_DELTA_PLAIN_WITH_ANASTOMOSING_CHANNELS"
2446.6 "6507_7_6"  42.3100 "Sandstone" -999.25   -999.25 100.0000      0.0      0.0 "c/vc"     "c/vc"     "Anstomosing_distributary_channel_complex_The_cnannel_floor_was_strongly_dominated_by_transvers_bars" "UPPER_DELTA_PLAIN_WITH_ANASTOMOSING_CHANNELS"
2446.7 "6507_7_6"  43.6400 "Sandstone" -999.25   -999.25 100.0000      0.0      0.0 "c/vc"     "c/vc"     "Anstomosing_distributary_channel_complex_The_cnannel_floor_was_strongly_dominated_by_transvers_bars" "UPPER_DELTA_PLAIN_WITH_ANASTOMOSING_CHANNELS"
2446.8 "6507_7_6"  45.7100 "Sandstone" -999.25   -999.25 100.0000      0.0      0.0 "c/vc"     "c/vc"     "Anstomosing_distributary_channel_complex_The_cnannel_floor_was_strongly_dominated_by_transvers_bars" "UPPER_DELTA_PLAIN_WITH_ANASTOMOSING_CHANNELS"
2446.9 "6507_7_6"  50.6000 "Sandstone" -999.25   -999.25 100.0000      0.0      0.0 "c/vc"     "c/vc"     "Anstomosing_distributary_channel_complex_The_cnannel_floor_was_strongly_dominated_by_transvers_bars" "UPPER_DELTA_PLAIN_WITH_ANASTOMOSING_CHANNELS"
2447.0 "6507_7_6"  57.8200 "Sandstone" -999.25   -999.25 100.0000      0.0      0.0 "c/vc"     "c/vc"     "Anstomosing_distributary_channel_complex_The_cnannel_floor_was_strongly_dominated_by_transvers_bars" "UPPER_DELTA_PLAIN_WITH_ANASTOMOSING_CHANNELS"
2447.1 "6507_7_6"  62.4000 "Sandstone" -999.25   -999.25 100.0000      0.0      0.0 "c/vc"     "c/vc"     "Anstomosing_distributary_channel_complex_The_cnannel_floor_was_strongly_dominated_by_transvers_bars" "UPPER_DELTA_PLAIN_WITH_ANASTOMOSING_CHANNELS"
2447.2 "6507_7_6"  65.7300 "Sandstone" -999.25   -999.25 100.0000      0.0      0.0 "c/vc"     "c/vc"     "Anstomosing_distributary_channel_complex_The_cnannel_floor_was_strongly_dominated_by_transvers_bars" "UPPER_DELTA_PLAIN_WITH_ANASTOMOSING_CHANNELS"
2447.3 "6507_7_6"  74.3700 "Sandstone" -999.25   -999.25 100.0000      0.0      0.0 "c/vc"     "c/vc"     "Anstomosing_distributary_channel_complex_The_cnannel_floor_was_strongly_dominated_by_transvers_bars" "UPPER_DELTA_PLAIN_WITH_ANASTOMOSING_CHANNELS"
2447.4 "6507_7_6"  82.6600 "Sandstone" -999.25   -999.25 100.0000      0.0      0.0 "c/vc"     "c/vc"     "Anstomosing_distributary_channel_complex_The_cnannel_floor_was_strongly_dominated_by_transvers_bars" "UPPER_DELTA_PLAIN_WITH_ANASTOMOSING_CHANNELS"
2447.5 "6507_7_6"  89.0100 "Sandstone" -999.25   -999.25 100.0000      0.0      0.0 "c/vc"     "c/vc"     "Anstomosing_distributary_channel_complex_The_cnannel_floor_was_strongly_dominated_by_transvers_bars" "UPPER_DELTA_PLAIN_WITH_ANASTOMOSING_CHANNELS"
2447.6 "6507_7_6"  94.1000 "Sandstone" -999.25   -999.25 100.0000      0.0      0.0 "c/vc"     "c/vc"     "Anstomosing_distributary_channel_complex_The_cnannel_floor_was_strongly_dominated_by_transvers_bars" "UPPER_DELTA_PLAIN_WITH_ANASTOMOSING_CHANNELS"
2447.7 "6507_7_6"  95.1900 "Sandstone" -999.25   -999.25 100.0000      0.0      0.0 "c/vc"     "c/vc"     "Anstomosing_distributary_channel_complex_The_cnannel_floor_was_strongly_dominated_by_transvers_bars" "UPPER_DELTA_PLAIN_WITH_ANASTOMOSING_CHANNELS"
