~Version
VERS  .                                 3.0 : CWLS LAS ASCII Standard - Version 3.0
WRAP  . NO                                  : One line per depth step
DLM   . SPACE                               : Column data section delimiter
SOURCE. Converted to LAS by Log Studio 4.76 : GeoProvider

~Well
STRT.         2129.0 : Start depth
STOP.         2460.3 : Stop depth
STEP.              1 : Step
NULL.        -999.25 : No-value
COMP.                : Company
WELL. 6507/7-6       : Well
FLD .                : Field
LOC .                : Location
LATI.                : Latitude
LONG.                : Longitude
GDAT.                : Geodetic datum
CNTY.                : County
STAT.                : State
CTRY.                : Country
SRVC. GeoProvider AS : Service company
DATE.                : Date
API .                : API number
RUN .                : Run number

~Parameters
WellboreName.  : Wellbore name
RigName     .  : Rig name
StartDate   .  : Start date

~Curves
DEPTH.m            .  : null {F}Depth mMD
Hole_ID.-          .  : null {S}Hole ID
GR.API             .  : null {F}Gamma Ray
Lithology1.-       .  : null {S}Lithology 1
Lithology2.-       .  : null {S}Lithology 2
Lithology3.-       .  : null {S}Lithology 3
Lithology1.%       .  : null {F}Lithology 1 percentage
Lithology2.%       .  : null {F}Lithology 2 percentage
Lithology3.%       .  : null {F}Lithology 3 percentage
Grain_size_Top.-   .  : null {S}Grain size at the top 
Grain_size_Base.-  .  : null {S}Grain size at the bottom
Sub_Environment.-  .  : null {S}Sub Environment
Gross_Environment.-.  : null {S}Gross Environment

~Ascii
# ...
2342.1 "6507_7_6"  66.7800 -999.25   -999.25   -999.25 100.0000      0.0      0.0 -999.25    -999.25    -999.25                                                                                             -999.25                                     
2342.2 "6507_7_6"  67.6200 -999.25   -999.25   -999.25 100.0000      0.0      0.0 -999.25    -999.25    -999.25                                                                                             -999.25                                     
2342.3 "6507_7_6"  68.1600 -999.25   -999.25   -999.25 100.0000      0.0      0.0 -999.25    -999.25    -999.25                                                                                             -999.25                                     
2342.4 "6507_7_6"  68.6900 -999.25   -999.25   -999.25 100.0000      0.0      0.0 -999.25    -999.25    -999.25                                                                                             -999.25                                     
2342.5 "6507_7_6"  69.2200 -999.25   -999.25   -999.25 100.0000      0.0      0.0 -999.25    -999.25    -999.25                                                                                             -999.25                                     
2342.6 "6507_7_6"  70.4900 -999.25   -999.25   -999.25 100.0000      0.0      0.0 -999.25    -999.25    -999.25                                                                                             -999.25                                     
2342.7 "6507_7_6"  72.2100 -999.25   -999.25   -999.25 100.0000      0.0      0.0 -999.25    -999.25    -999.25                                                                                             -999.25                                     
2342.8 "6507_7_6"  73.9300 -999.25   -999.25   -999.25 100.0000      0.0      0.0 -999.25    -999.25    -999.25                                                                                             -999.25                                     
2342.9 "6507_7_6"  75.7600 -999.25   -999.25   -999.25 100.0000      0.0      0.0 -999.25    -999.25    -999.25                                                                                             -999.25                                     
2343.0 "6507_7_6"  77.9400 -999.25   -999.25   -999.25 100.0000      0.0      0.0 -999.25    -999.25    -999.25                                                                                             -999.25                                     
2343.1 "6507_7_6"  79.9100 -999.25   -999.25   -999.25 100.0000      0.0      0.0 -999.25    -999.25    -999.25                                                                                             -999.25                                     
2343.2 "6507_7_6"  79.9100 -999.25   -999.25   -999.25 100.0000      0.0      0.0 -999.25    -999.25    -999.25                                                                                             -999.25                                     
2343.3 "6507_7_6"  79.0300 -999.25   -999.25   -999.25 100.0000      0.0      0.0 -999.25    -999.25    -999.25                                                                                             -999.25                                     
2343.4 "6507_7_6"  77.9700 -999.25   -999.25   -999.25 100.0000      0.0      0.0 -999.25    -999.25    -999.25                                                                                             -999.25                                     
2343.5 "6507_7_6"  76.9100 -999.25   -999.25   -999.25 100.0000      0.0      0.0 -999.25    -999.25    -999.25                                                                                             -999.25                                     
2343.6 "6507_7_6"  75.8600 -999.25   -999.25   -999.25 100.0000      0.0      0.0 -999.25    -999.25    -999.25                                                                                             -999.25                                     
2343.7 "6507_7_6"  74.8000 -999.25   -999.25   -999.25 100.0000      0.0      0.0 -999.25    -999.25    -999.25                                                                                             -999.25                                     
2343.8 "6507_7_6"  73.7400 -999.25   -999.25   -999.25 100.0000      0.0      0.0 -999.25    -999.25    -999.25                                                                                             -999.25                                     
2343.9 "6507_7_6"  72.6800 -999.25   -999.25   -999.25 100.0000      0.0      0.0 -999.25    -999.25    -999.25                                                                                             -999.25                                     
2344.0 "6507_7_6"  71.6200 -999.25   -999.25   -999.25 100.0000      0.0      0.0 -999.25    -999.25    "Tidal_mudflat"                                                                                     "TIDAL_FLAT_AND_ESTUARY"                    
2344.1 "6507_7_6"  74.0000 "Sandstone" "Limestone" "Coal"   83.0000  5.00000 12.00000 "c/vc"     "vf/f"     "Tidal_mudflat"                                                                                     "TIDAL_FLAT_AND_ESTUARY"                    
2344.2 "6507_7_6"  76.6600 "Sandstone" "Limestone" "Coal"   83.0000  5.00000 12.00000 "c/vc"     "vf/f"     "Tidal_mudflat"                                                                                     "TIDAL_FLAT_AND_ESTUARY"                    
2344.3 "6507_7_6"  79.3100 "Sandstone" "Limestone" "Coal"   83.0000  5.00000 12.00000 "c/vc"     "vf/f"     "Tidal_mudflat"                                                                                     "TIDAL_FLAT_AND_ESTUARY"                    
2344.4 "6507_7_6"  81.9300 "Sandstone" "Limestone" "Coal"   83.0000  5.00000 12.00000 "c/vc"     "vf/f"     "Tidal_mudflat"                                                                                     "TIDAL_FLAT_AND_ESTUARY"                    
2344.5 "6507_7_6"  82.4300 "Sandstone" "Limestone" "Coal"   83.0000  5.00000 12.00000 "c/vc"     "vf/f"     "Tidal_mudflat"                                                                                     "TIDAL_FLAT_AND_ESTUARY"                    
2344.6 "6507_7_6"  81.5500 "Sandstone" "Limestone" "Coal"   83.0000  5.00000 12.00000 "c/vc"     "vf/f"     "Tidal_mudflat"                                                                                     "TIDAL_FLAT_AND_ESTUARY"                    
2344.7 "6507_7_6"  80.3900 "Sandstone" "Limestone" "Coal"   83.0000  5.00000 12.00000 "c/vc"     "vf/f"     "Tidal_mudflat"                                                                                     "TIDAL_FLAT_AND_ESTUARY"                    
2344.8 "6507_7_6"  79.2200 "Sandstone" "Limestone" "Coal"   83.0000  5.00000 12.00000 "c/vc"     "vf/f"     "Tidal_mudflat"                                                                                     "TIDAL_FLAT_AND_ESTUARY"                    
2344.9 "6507_7_6"  78.0600 "Sandstone" "Limestone" "Coal"   83.0000  5.00000 12.00000 "c/vc"     "vf/f"     "Tidal_mudflat"                                                                                     "TIDAL_FLAT_AND_ESTUARY"                    
2345.0 "6507_7_6"  76.9000 "Sandstone" "Limestone" "Coal"   83.0000  5.00000 12.00000 "c/vc"     "vf/f"     "Tidal_mudflat"                                                                                     "TIDAL_FLAT_AND_ESTUARY"                    
2345.1 "6507_7_6"  76.1500 "Sandstone" "Limestone" "Coal"   83.0000  5.00000 12.00000 "c/vc"     "vf/f"     "Tidal_mudflat"                                                                                     "TIDAL_FLAT_AND_ESTUARY"                    
2345.2 "6507_7_6"  76.3000 "Sandstone" "Limestone" "Coal"   83.0000  5.00000 12.00000 "c/vc"     "vf/f"     "Tidal_mudflat"                                                                                     "TIDAL_FLAT_AND_ESTUARY"                    
