~Version
VERS  .                                 3.0 : CWLS LAS ASCII Standard - Version 3.0
WRAP  . NO                                  : One line per depth step
DLM   . SPACE                               : Column data section delimiter
SOURCE. Converted to LAS by Log Studio 4.76 : GeoProvider

~Well
STRT.         2129.0 : Start depth
STOP.         2460.3 : Stop depth
STEP.              1 : Step
NULL.        -999.25 : No-value
COMP.                : Company
WELL. 6507/7-6       : Well
FLD .                : Field
LOC .                : Location
LATI.                : Latitude
LONG.                : Longitude
GDAT.                : Geodetic datum
CNTY.                : County
STAT.                : State
CTRY.                : Country
SRVC. GeoProvider AS : Service company
DATE.                : Date
API .                : API number
RUN .                : Run number

~Parameters
WellboreName.  : Wellbore name
RigName     .  : Rig name
StartDate   .  : Start date

~Curves
DEPTH.m            .  : null {F}Depth mMD
Hole_ID.-          .  : null {S}Hole ID
GR.API             .  : null {F}Gamma Ray
Lithology1.-       .  : null {S}Lithology 1
Lithology2.-       .  : null {S}Lithology 2
Lithology3.-       .  : null {S}Lithology 3
Lithology1.%       .  : null {F}Lithology 1 percentage
Lithology2.%       .  : null {F}Lithology 2 percentage
Lithology3.%       .  : null {F}Lithology 3 percentage
Grain_size_Top.-   .  : null {S}Grain size at the top 
Grain_size_Base.-  .  : null {S}Grain size at the bottom
Sub_Environment.-  .  : null {S}Sub Environment
Gross_Environment.-.  : null {S}Gross Environment

~Ascii
# ...
2422.2 "6507_7_6" 131.3800 -999.25   -999.25   -999.25 100.0000      0.0      0.0 -999.25    -999.25    -999.25                                                                                             "UPPER_DELTA_PLAIN_WITH_ANASTOMOSING_CHANNELS"
2422.3 "6507_7_6" 135.0200 -999.25   -999.25   -999.25 100.0000      0.0      0.0 -999.25    -999.25    -999.25                                                                                             "UPPER_DELTA_PLAIN_WITH_ANASTOMOSING_CHANNELS"
2422.4 "6507_7_6" 126.5000 -999.25   -999.25   -999.25 100.0000      0.0      0.0 -999.25    -999.25    -999.25                                                                                             "UPPER_DELTA_PLAIN_WITH_ANASTOMOSING_CHANNELS"
2422.5 "6507_7_6" 110.8500 -999.25   -999.25   -999.25 100.0000      0.0      0.0 -999.25    -999.25    -999.25                                                                                             "UPPER_DELTA_PLAIN_WITH_ANASTOMOSING_CHANNELS"
2422.6 "6507_7_6"  98.9700 -999.25   -999.25   -999.25 100.0000      0.0      0.0 -999.25    -999.25    -999.25                                                                                             "UPPER_DELTA_PLAIN_WITH_ANASTOMOSING_CHANNELS"
2422.7 "6507_7_6"  87.1300 -999.25   -999.25   -999.25 100.0000      0.0      0.0 -999.25    -999.25    -999.25                                                                                             "UPPER_DELTA_PLAIN_WITH_ANASTOMOSING_CHANNELS"
2422.8 "6507_7_6"  75.3000 -999.25   -999.25   -999.25 100.0000      0.0      0.0 -999.25    -999.25    -999.25                                                                                             "UPPER_DELTA_PLAIN_WITH_ANASTOMOSING_CHANNELS"
2422.9 "6507_7_6"  58.7800 -999.25   -999.25   -999.25 100.0000      0.0      0.0 -999.25    -999.25    -999.25                                                                                             "UPPER_DELTA_PLAIN_WITH_ANASTOMOSING_CHANNELS"
2423.0 "6507_7_6"  46.1400 -999.25   -999.25   -999.25 100.0000      0.0      0.0 -999.25    -999.25    -999.25                                                                                             "UPPER_DELTA_PLAIN_WITH_ANASTOMOSING_CHANNELS"
2423.1 "6507_7_6"  41.7900 -999.25   -999.25   -999.25 100.0000      0.0      0.0 -999.25    -999.25    -999.25                                                                                             "UPPER_DELTA_PLAIN_WITH_ANASTOMOSING_CHANNELS"
2423.2 "6507_7_6"  37.4400 -999.25   -999.25   -999.25 100.0000      0.0      0.0 -999.25    -999.25    -999.25                                                                                             "UPPER_DELTA_PLAIN_WITH_ANASTOMOSING_CHANNELS"
2423.3 "6507_7_6"  36.0200 -999.25   -999.25   -999.25 100.0000      0.0      0.0 -999.25    -999.25    -999.25                                                                                             "UPPER_DELTA_PLAIN_WITH_ANASTOMOSING_CHANNELS"
2423.4 "6507_7_6"  35.9600 -999.25   -999.25   -999.25 100.0000      0.0      0.0 -999.25    -999.25    -999.25                                                                                             "UPPER_DELTA_PLAIN_WITH_ANASTOMOSING_CHANNELS"
2423.5 "6507_7_6"  36.7400 -999.25   -999.25   -999.25 100.0000      0.0      0.0 -999.25    -999.25    -999.25                                                                                             "UPPER_DELTA_PLAIN_WITH_ANASTOMOSING_CHANNELS"
2423.6 "6507_7_6"  37.6500 -999.25   -999.25   -999.25 100.0000      0.0      0.0 -999.25    -999.25    -999.25                                                                                             "UPPER_DELTA_PLAIN_WITH_ANASTOMOSING_CHANNELS"
2423.7 "6507_7_6"  38.5800 -999.25   -999.25   -999.25 100.0000      0.0      0.0 -999.25    -999.25    -999.25                                                                                             "UPPER_DELTA_PLAIN_WITH_ANASTOMOSING_CHANNELS"
2423.8 "6507_7_6"  39.5100 -999.25   -999.25   -999.25 100.0000      0.0      0.0 -999.25    -999.25    -999.25                                                                                             "UPPER_DELTA_PLAIN_WITH_ANASTOMOSING_CHANNELS"
2423.9 "6507_7_6"  40.0400 -999.25   -999.25   -999.25 100.0000      0.0      0.0 -999.25    -999.25    -999.25                                                                                             "UPPER_DELTA_PLAIN_WITH_ANASTOMOSING_CHANNELS"
2424.0 "6507_7_6"  40.1300 -999.25   -999.25   -999.25 100.0000      0.0      0.0 -999.25    -999.25    "Flood_plain/flood_basin_with_poorly__drained_swamps"                                               "UPPER_DELTA_PLAIN_WITH_ANASTOMOSING_CHANNELS"
2424.1 "6507_7_6"  40.2300 "Sandstone" -999.25   -999.25 100.0000      0.0      0.0 "granule"  "granule"  "Flood_plain/flood_basin_with_poorly__drained_swamps"                                               "UPPER_DELTA_PLAIN_WITH_ANASTOMOSING_CHANNELS"
2424.2 "6507_7_6"  41.1400 "Sandstone" -999.25   -999.25 100.0000      0.0      0.0 "granule"  "granule"  "Flood_plain/flood_basin_with_poorly__drained_swamps"                                               "UPPER_DELTA_PLAIN_WITH_ANASTOMOSING_CHANNELS"
2424.3 "6507_7_6"  43.6400 "Sandstone" -999.25   -999.25 100.0000      0.0      0.0 "granule"  "granule"  "Flood_plain/flood_basin_with_poorly__drained_swamps"                                               "UPPER_DELTA_PLAIN_WITH_ANASTOMOSING_CHANNELS"
2424.4 "6507_7_6"  47.4700 "Sandstone" "Coal"    -999.25  20.0000 80.00000      0.0 "c"        "vf"       "Flood_plain/flood_basin_with_poorly__drained_swamps"                                               "UPPER_DELTA_PLAIN_WITH_ANASTOMOSING_CHANNELS"
2424.5 "6507_7_6"  51.8100 "Sandstone" "Coal"    -999.25  20.0000 80.00000      0.0 "c"        "vf"       "Flood_plain/flood_basin_with_poorly__drained_swamps"                                               "UPPER_DELTA_PLAIN_WITH_ANASTOMOSING_CHANNELS"
2424.6 "6507_7_6"  56.1600 "Sandstone" "Coal"    -999.25  20.0000 80.00000      0.0 "c"        "vf"       "Flood_plain/flood_basin_with_poorly__drained_swamps"                                               "UPPER_DELTA_PLAIN_WITH_ANASTOMOSING_CHANNELS"
2424.7 "6507_7_6"  60.5000 "Sandstone" "Coal"    -999.25  20.0000 80.00000      0.0 "c"        "vf"       "Flood_plain/flood_basin_with_poorly__drained_swamps"                                               "UPPER_DELTA_PLAIN_WITH_ANASTOMOSING_CHANNELS"
2424.8 "6507_7_6"  64.5000 "Sandstone" "Coal"    -999.25  20.0000 80.00000      0.0 "c"        "vf"       "Flood_plain/flood_basin_with_poorly__drained_swamps"                                               "UPPER_DELTA_PLAIN_WITH_ANASTOMOSING_CHANNELS"
2424.9 "6507_7_6"  68.4600 "Sandstone" "Coal"    -999.25  20.0000 80.00000      0.0 "c"        "vf"       "Flood_plain/flood_basin_with_poorly__drained_swamps"                                               "UPPER_DELTA_PLAIN_WITH_ANASTOMOSING_CHANNELS"
2425.0 "6507_7_6"  69.4900 "Sandstone" "Coal"    -999.25  20.0000 80.00000      0.0 "c"        "vf"       "Flood_plain/flood_basin_with_poorly__drained_swamps"                                               "UPPER_DELTA_PLAIN_WITH_ANASTOMOSING_CHANNELS"
2425.1 "6507_7_6"  67.5500 "Sandstone" "Coal"    -999.25  20.0000 80.00000      0.0 "c"        "vf"       "Flood_plain/flood_basin_with_poorly__drained_swamps"                                               "UPPER_DELTA_PLAIN_WITH_ANASTOMOSING_CHANNELS"
2425.2 "6507_7_6"  65.4900 "Sandstone" "Coal"    -999.25  20.0000 80.00000      0.0 "c"        "vf"       "Flood_plain/flood_basin_with_poorly__drained_swamps"                                               "UPPER_DELTA_PLAIN_WITH_ANASTOMOSING_CHANNELS"
2425.3 "6507_7_6"  68.0500 "Sandstone" "Coal"    -999.25  20.0000 80.00000      0.0 "c"        "vf"       "Flood_plain/flood_basin_with_poorly__drained_swamps"                                               "UPPER_DELTA_PLAIN_WITH_ANASTOMOSING_CHANNELS"
