~Version
VERS  .                                 3.0 : CWLS LAS ASCII Standard - Version 3.0
WRAP  . NO                                  : One line per depth step
DLM   . SPACE                               : Column data section delimiter
SOURCE. Converted to LAS by Log Studio 4.76 : GeoProvider

~Well
STRT.         2129.0 : Start depth
STOP.         2460.3 : Stop depth
STEP.              1 : Step
NULL.        -999.25 : No-value
COMP.                : Company
WELL. 6507/7-6       : Well
FLD .                : Field
LOC .                : Location
LATI.                : Latitude
LONG.                : Longitude
GDAT.                : Geodetic datum
CNTY.                : County
STAT.                : State
CTRY.                : Country
SRVC. GeoProvider AS : Service company
DATE.                : Date
API .                : API number
RUN .                : Run number

~Parameters
WellboreName.  : Wellbore name
RigName     .  : Rig name
StartDate   .  : Start date

~Curves
DEPTH.m            .  : null {F}Depth mMD
Hole_ID.-          .  : null {S}Hole ID
GR.API             .  : null {F}Gamma Ray
Lithology1.-       .  : null {S}Lithology 1
Lithology2.-       .  : null {S}Lithology 2
Lithology3.-       .  : null {S}Lithology 3
Lithology1.%       .  : null {F}Lithology 1 percentage
Lithology2.%       .  : null {F}Lithology 2 percentage
Lithology3.%       .  : null {F}Lithology 3 percentage
Grain_size_Top.-   .  : null {S}Grain size at the top 
Grain_size_Base.-  .  : null {S}Grain size at the bottom
Sub_Environment.-  .  : null {S}Sub Environment
Gross_Environment.-.  : null {S}Gross Environment

~Ascii
# ...
2386.9 "6507_7_6"  74.4800 "Coal"    -999.25   -999.25 100.0000      0.0      0.0 "vf"       "vf"       "Wave_reworked_mouth_bar_(minor_mouth_bar)_wave_influ._Outer_bay"                                   "LOWER_DELTA_PLAIN_WIYH_CUT-AND-FILL_RIBBONS"
2387.0 "6507_7_6"  74.9800 "Sandstone" -999.25   -999.25 100.0000      0.0      0.0 "vf/f"     "vf/f"     "Wave_reworked_mouth_bar_(minor_mouth_bar)_wave_influ._Outer_bay"                                   "LOWER_DELTA_PLAIN_WIYH_CUT-AND-FILL_RIBBONS"
2387.1 "6507_7_6"  78.3100 "Sandstone" -999.25   -999.25 100.0000      0.0      0.0 "vf/f"     "vf/f"     "Wave_reworked_mouth_bar_(minor_mouth_bar)_wave_influ._Outer_bay"                                   "LOWER_DELTA_PLAIN_WIYH_CUT-AND-FILL_RIBBONS"
2387.2 "6507_7_6"  84.1700 "Sandstone" -999.25   -999.25 100.0000      0.0      0.0 "vf/f"     "vf/f"     "Wave_reworked_mouth_bar_(minor_mouth_bar)_wave_influ._Outer_bay"                                   "LOWER_DELTA_PLAIN_WIYH_CUT-AND-FILL_RIBBONS"
2387.3 "6507_7_6"  89.4700 "Coal"    -999.25   -999.25 100.0000      0.0      0.0 "vf"       "vf"       "Wave_reworked_mouth_bar_(minor_mouth_bar)_wave_influ._Outer_bay"                                   "LOWER_DELTA_PLAIN_WIYH_CUT-AND-FILL_RIBBONS"
2387.4 "6507_7_6"  89.6500 "Coal"    -999.25   -999.25 100.0000      0.0      0.0 "vf"       "vf"       "Wave_reworked_mouth_bar_(minor_mouth_bar)_wave_influ._Outer_bay"                                   "LOWER_DELTA_PLAIN_WIYH_CUT-AND-FILL_RIBBONS"
2387.5 "6507_7_6"  88.5000 "Coal"    -999.25   -999.25 100.0000      0.0      0.0 "vf"       "vf"       "Wave_reworked_mouth_bar_(minor_mouth_bar)_wave_influ._Outer_bay"                                   "LOWER_DELTA_PLAIN_WIYH_CUT-AND-FILL_RIBBONS"
2387.6 "6507_7_6"  86.2200 "Coal"    -999.25   -999.25 100.0000      0.0      0.0 "vf"       "vf"       "Wave_reworked_mouth_bar_(minor_mouth_bar)_wave_influ._Outer_bay"                                   "LOWER_DELTA_PLAIN_WIYH_CUT-AND-FILL_RIBBONS"
2387.7 "6507_7_6"  83.6700 "Coal"    -999.25   -999.25 100.0000      0.0      0.0 "vf"       "vf"       "Wave_reworked_mouth_bar_(minor_mouth_bar)_wave_influ._Outer_bay"                                   "LOWER_DELTA_PLAIN_WIYH_CUT-AND-FILL_RIBBONS"
2387.8 "6507_7_6"  81.1100 "Sandstone" -999.25   -999.25 100.0000      0.0      0.0 "m/c"      "m/c"      "Wave_reworked_mouth_bar_(minor_mouth_bar)_wave_influ._Outer_bay"                                   "LOWER_DELTA_PLAIN_WIYH_CUT-AND-FILL_RIBBONS"
2387.9 "6507_7_6"  78.6800 "Sandstone" -999.25   -999.25 100.0000      0.0      0.0 "m/c"      "m/c"      "Wave_reworked_mouth_bar_(minor_mouth_bar)_wave_influ._Outer_bay"                                   "LOWER_DELTA_PLAIN_WIYH_CUT-AND-FILL_RIBBONS"
2388.0 "6507_7_6"  76.2600 "Sandstone" -999.25   -999.25 100.0000      0.0      0.0 "m/c"      "m/c"      "Wave_reworked_mouth_bar_(minor_mouth_bar)_wave_influ._Outer_bay"                                   "LOWER_DELTA_PLAIN_WIYH_CUT-AND-FILL_RIBBONS"
2388.1 "6507_7_6"  74.5200 "Sandstone" -999.25   -999.25 100.0000      0.0      0.0 "m/c"      "m/c"      "Wave_reworked_mouth_bar_(minor_mouth_bar)_wave_influ._Outer_bay"                                   "LOWER_DELTA_PLAIN_WIYH_CUT-AND-FILL_RIBBONS"
2388.2 "6507_7_6"  75.2100 "Sandstone" -999.25   -999.25 100.0000      0.0      0.0 "m/c"      "m/c"      "Wave_reworked_mouth_bar_(minor_mouth_bar)_wave_influ._Outer_bay"                                   "LOWER_DELTA_PLAIN_WIYH_CUT-AND-FILL_RIBBONS"
2388.3 "6507_7_6"  78.7200 "Sandstone" -999.25   -999.25 100.0000      0.0      0.0 "m/c"      "m/c"      "Wave_reworked_mouth_bar_(minor_mouth_bar)_wave_influ._Outer_bay"                                   "LOWER_DELTA_PLAIN_WIYH_CUT-AND-FILL_RIBBONS"
2388.4 "6507_7_6"  83.1700 "Sandstone" -999.25   -999.25 100.0000      0.0      0.0 "m/c"      "m/c"      "Wave_reworked_mouth_bar_(minor_mouth_bar)_wave_influ._Outer_bay"                                   "LOWER_DELTA_PLAIN_WIYH_CUT-AND-FILL_RIBBONS"
2388.5 "6507_7_6"  87.6200 "Sandstone" -999.25   -999.25 100.0000      0.0      0.0 "m/c"      "m/c"      "Wave_reworked_mouth_bar_(minor_mouth_bar)_wave_influ._Outer_bay"                                   "LOWER_DELTA_PLAIN_WIYH_CUT-AND-FILL_RIBBONS"
2388.6 "6507_7_6"  89.5300 "Sandstone" -999.25   -999.25 100.0000      0.0      0.0 "m/c"      "m/c"      "Wave_reworked_mouth_bar_(minor_mouth_bar)_wave_influ._Outer_bay"                                   "LOWER_DELTA_PLAIN_WIYH_CUT-AND-FILL_RIBBONS"
2388.7 "6507_7_6"  89.0700 "Coal"    -999.25   -999.25 100.0000      0.0      0.0 "vf"       "vf"       "Wave_reworked_mouth_bar_(minor_mouth_bar)_wave_influ._Outer_bay"                                   "LOWER_DELTA_PLAIN_WIYH_CUT-AND-FILL_RIBBONS"
2388.8 "6507_7_6"  87.7700 "Coal"    -999.25   -999.25 100.0000      0.0      0.0 "vf"       "vf"       "Wave_reworked_mouth_bar_(minor_mouth_bar)_wave_influ._Outer_bay"                                   "LOWER_DELTA_PLAIN_WIYH_CUT-AND-FILL_RIBBONS"
2388.9 "6507_7_6"  85.9500 "Coal"    -999.25   -999.25 100.0000      0.0      0.0 "vf"       "vf"       "Wave_reworked_mouth_bar_(minor_mouth_bar)_wave_influ._Outer_bay"                                   "LOWER_DELTA_PLAIN_WIYH_CUT-AND-FILL_RIBBONS"
2389.0 "6507_7_6"  83.7900 "Coal"    -999.25   -999.25 100.0000      0.0      0.0 "vf"       "vf"       "Wave_reworked_mouth_bar_(minor_mouth_bar)_wave_influ._Outer_bay"                                   "LOWER_DELTA_PLAIN_WIYH_CUT-AND-FILL_RIBBONS"
2389.1 "6507_7_6"  82.0500 "Coal"    -999.25   -999.25 100.0000      0.0      0.0 "vf"       "vf"       "Wave_reworked_mouth_bar_(minor_mouth_bar)_wave_influ._Outer_bay"                                   "LOWER_DELTA_PLAIN_WIYH_CUT-AND-FILL_RIBBONS"
2389.2 "6507_7_6"  81.7400 "Coal"    -999.25   -999.25 100.0000      0.0      0.0 "vf"       "vf"       "Wave_reworked_mouth_bar_(minor_mouth_bar)_wave_influ._Outer_bay"                                   "LOWER_DELTA_PLAIN_WIYH_CUT-AND-FILL_RIBBONS"
2389.3 "6507_7_6"  81.4200 "Sandstone" -999.25   -999.25 100.0000      0.0      0.0 "m"        "m"        "Wave_reworked_mouth_bar_(minor_mouth_bar)_wave_influ._Outer_bay"                                   "LOWER_DELTA_PLAIN_WIYH_CUT-AND-FILL_RIBBONS"
2389.4 "6507_7_6"  80.0900 "Sandstone" -999.25   -999.25 100.0000      0.0      0.0 "m"        "m"        "Wave_reworked_mouth_bar_(minor_mouth_bar)_wave_influ._Outer_bay"                                   "LOWER_DELTA_PLAIN_WIYH_CUT-AND-FILL_RIBBONS"
2389.5 "6507_7_6"  78.2900 "Sandstone" -999.25   -999.25 100.0000      0.0      0.0 "m"        "m"        "Wave_reworked_mouth_bar_(minor_mouth_bar)_wave_influ._Outer_bay"                                   "LOWER_DELTA_PLAIN_WIYH_CUT-AND-FILL_RIBBONS"
2389.6 "6507_7_6"  76.5000 "Coal"    -999.25   -999.25 100.0000      0.0      0.0 -999.25    -999.25    "Wave_reworked_mouth_bar_(minor_mouth_bar)_wave_influ._Outer_bay"                                   "LOWER_DELTA_PLAIN_WIYH_CUT-AND-FILL_RIBBONS"
2389.7 "6507_7_6"  74.7000 "Coal"    -999.25   -999.25 100.0000      0.0      0.0 -999.25    -999.25    "Wave_reworked_mouth_bar_(minor_mouth_bar)_wave_influ._Outer_bay"                                   "LOWER_DELTA_PLAIN_WIYH_CUT-AND-FILL_RIBBONS"
2389.8 "6507_7_6"  72.9000 "Coal"    -999.25   -999.25 100.0000      0.0      0.0 -999.25    -999.25    "Wave_reworked_mouth_bar_(minor_mouth_bar)_wave_influ._Outer_bay"                                   "LOWER_DELTA_PLAIN_WIYH_CUT-AND-FILL_RIBBONS"
2389.9 "6507_7_6"  71.2700 "Sandstone" "Coal"    -999.25  50.0000 50.00000      0.0 "vf"       "m"        "Wave_reworked_mouth_bar_(minor_mouth_bar)_wave_influ._Outer_bay"                                   "LOWER_DELTA_PLAIN_WIYH_CUT-AND-FILL_RIBBONS"
2390.0 "6507_7_6"  71.7700 "Sandstone" "Coal"    -999.25  50.0000 50.00000      0.0 "vf"       "m"        "Wave_reworked_mouth_bar_(minor_mouth_bar)_wave_influ._Outer_bay"                                   "LOWER_DELTA_PLAIN_WIYH_CUT-AND-FILL_RIBBONS"
