~Version
VERS  .                                 3.0 : CWLS LAS ASCII Standard - Version 3.0
WRAP  . NO                                  : One line per depth step
DLM   . SPACE                               : Column data section delimiter
SOURCE. Converted to LAS by Log Studio 4.76 : GeoProvider

~Well
STRT.         2129.0 : Start depth
STOP.         2460.3 : Stop depth
STEP.              1 : Step
NULL.        -999.25 : No-value
COMP.                : Company
WELL. 6507/7-6       : Well
FLD .                : Field
LOC .                : Location
LATI.                : Latitude
LONG.                : Longitude
GDAT.                : Geodetic datum
CNTY.                : County
STAT.                : State
CTRY.                : Country
SRVC. GeoProvider AS : Service company
DATE.                : Date
API .                : API number
RUN .                : Run number

~Parameters
WellboreName.  : Wellbore name
RigName     .  : Rig name
StartDate   .  : Start date

~Curves
DEPTH.m            .  : null {F}Depth mMD
Hole_ID.-          .  : null {S}Hole ID
GR.API             .  : null {F}Gamma Ray
Lithology1.-       .  : null {S}Lithology 1
Lithology2.-       .  : null {S}Lithology 2
Lithology3.-       .  : null {S}Lithology 3
Lithology1.%       .  : null {F}Lithology 1 percentage
Lithology2.%       .  : null {F}Lithology 2 percentage
Lithology3.%       .  : null {F}Lithology 3 percentage
Grain_size_Top.-   .  : null {S}Grain size at the top 
Grain_size_Base.-  .  : null {S}Grain size at the bottom
Sub_Environment.-  .  : null {S}Sub Environment
Gross_Environment.-.  : null {S}Gross Environment

~Ascii
2129.0 "6507_7_6"  -999.25 "Shale"   -999.25   -999.25 100.0000      0.0      0.0 "silt/vf"  "silt/vf"  -999.25                                                                                             "APEN_MARIN_PRODELTA"                       
2129.1 "6507_7_6"  -999.25 "Shale"   -999.25   -999.25 100.0000      0.0      0.0 "silt/vf"  "silt/vf"  -999.25                                                                                             "APEN_MARIN_PRODELTA"                       
2129.2 "6507_7_6"  -999.25 "Shale"   -999.25   -999.25 100.0000      0.0      0.0 "silt/vf"  "silt/vf"  -999.25                                                                                             "APEN_MARIN_PRODELTA"                       
2129.3 "6507_7_6"  -999.25 "Shale"   -999.25   -999.25 100.0000      0.0      0.0 "silt/vf"  "silt/vf"  -999.25                                                                                             "APEN_MARIN_PRODELTA"                       
2129.4 "6507_7_6"  -999.25 "Shale"   -999.25   -999.25 100.0000      0.0      0.0 "silt/vf"  "silt/vf"  -999.25                                                                                             "APEN_MARIN_PRODELTA"                       
2129.5 "6507_7_6"  -999.25 "Shale"   -999.25   -999.25 100.0000      0.0      0.0 "silt/vf"  "silt/vf"  -999.25                                                                                             "APEN_MARIN_PRODELTA"                       
2129.6 "6507_7_6"  -999.25 "Shale"   -999.25   -999.25 100.0000      0.0      0.0 "silt/vf"  "silt/vf"  -999.25                                                                                             "APEN_MARIN_PRODELTA"                       
2129.7 "6507_7_6"  -999.25 "Shale"   -999.25   -999.25 100.0000      0.0      0.0 "silt/vf"  "silt/vf"  -999.25                                                                                             "APEN_MARIN_PRODELTA"                       
2129.8 "6507_7_6"  -999.25 "Shale"   -999.25   -999.25 100.0000      0.0      0.0 "silt/vf"  "silt/vf"  -999.25                                                                                             "APEN_MARIN_PRODELTA"                       
2129.9 "6507_7_6"  -999.25 "Shale"   -999.25   -999.25 100.0000      0.0      0.0 "silt/vf"  "silt/vf"  -999.25                                                                                             "APEN_MARIN_PRODELTA"                       
2130.0 "6507_7_6"  -999.25 "Shale"   -999.25   -999.25 100.0000      0.0      0.0 "silt/vf"  "silt/vf"  -999.25                                                                                             "APEN_MARIN_PRODELTA"                       
2130.1 "6507_7_6"  -999.25 "Shale"   -999.25   -999.25 100.0000      0.0      0.0 "silt/vf"  "silt/vf"  -999.25                                                                                             "APEN_MARIN_PRODELTA"                       
2130.2 "6507_7_6"  -999.25 "Shale"   -999.25   -999.25 100.0000      0.0      0.0 "silt/vf"  "silt/vf"  -999.25                                                                                             "APEN_MARIN_PRODELTA"                       
2130.3 "6507_7_6"  -999.25 "Shale"   -999.25   -999.25 100.0000      0.0      0.0 "silt/vf"  "silt/vf"  -999.25                                                                                             "APEN_MARIN_PRODELTA"                       
2130.4 "6507_7_6"  -999.25 "Shale"   -999.25   -999.25 100.0000      0.0      0.0 "silt/vf"  "silt/vf"  -999.25                                                                                             "APEN_MARIN_PRODELTA"                       
2130.5 "6507_7_6"  -999.25 "Shale"   -999.25   -999.25 100.0000      0.0      0.0 "silt/vf"  "silt/vf"  -999.25                                                                                             "APEN_MARIN_PRODELTA"                       
2130.6 "6507_7_6"  -999.25 "Shale"   -999.25   -999.25 100.0000      0.0      0.0 "silt/vf"  "silt/vf"  -999.25                                                                                             "APEN_MARIN_PRODELTA"                       
2130.7 "6507_7_6"  -999.25 "Shale"   -999.25   -999.25 100.0000      0.0      0.0 "silt/vf"  "silt/vf"  -999.25                                                                                             "APEN_MARIN_PRODELTA"                       
2130.8 "6507_7_6"  -999.25 "Shale"   -999.25   -999.25 100.0000      0.0      0.0 "silt/vf"  "silt/vf"  -999.25                                                                                             "APEN_MARIN_PRODELTA"                       
2130.9 "6507_7_6"  -999.25 "Shale"   -999.25   -999.25 100.0000      0.0      0.0 "silt/vf"  "silt/vf"  -999.25                                                                                             "APEN_MARIN_PRODELTA"                       
2131.0 "6507_7_6"  -999.25 "Shale"   -999.25   -999.25 100.0000      0.0      0.0 "silt/vf"  "silt/vf"  -999.25                                                                                             "APEN_MARIN_PRODELTA"                       
2131.1 "6507_7_6"  -999.25 "Shale"   -999.25   -999.25 100.0000      0.0      0.0 "silt/vf"  "silt/vf"  -999.25                                                                                             "APEN_MARIN_PRODELTA"                       
2131.2 "6507_7_6"  -999.25 "Shale"   -999.25   -999.25 100.0000      0.0      0.0 "silt/vf"  "silt/vf"  -999.25                                                                                             "APEN_MARIN_PRODELTA"                       
2131.3 "6507_7_6"  72.8500 "Shale"   -999.25   -999.25 100.0000      0.0      0.0 "silt/vf"  "silt/vf"  -999.25                                                                                             "APEN_MARIN_PRODELTA"                       
2131.4 "6507_7_6"  72.8500 "Shale"   -999.25   -999.25 100.0000      0.0      0.0 "silt/vf"  "silt/vf"  -999.25                                                                                             "APEN_MARIN_PRODELTA"                       
2131.5 "6507_7_6"  72.1100 "Shale"   -999.25   -999.25 100.0000      0.0      0.0 "silt/vf"  "silt/vf"  -999.25                                                                                             "APEN_MARIN_PRODELTA"                       
2131.6 "6507_7_6"  70.9300 "Shale"   -999.25   -999.25 100.0000      0.0      0.0 "silt/vf"  "silt/vf"  -999.25                                                                                             "APEN_MARIN_PRODELTA"                       
2131.7 "6507_7_6"  69.9900 "Shale"   -999.25   -999.25 100.0000      0.0      0.0 "silt/vf"  "silt/vf"  -999.25                                                                                             "APEN_MARIN_PRODELTA"                       
2131.8 "6507_7_6"  70.3900 "Shale"   -999.25   -999.25 100.0000      0.0      0.0 "silt/vf"  "silt/vf"  -999.25                                                                                             "APEN_MARIN_PRODELTA"                       
2131.9 "6507_7_6"  72.0700 "Shale"   -999.25   -999.25 100.0000      0.0      0.0 "silt/vf"  "silt/vf"  -999.25                                                                                             "APEN_MARIN_PRODELTA"                       
2132.0 "6507_7_6"  73.1300 "Shale"   -999.25   -999.25 100.0000      0.0      0.0 "silt/vf"  "silt/vf"  -999.25                                                                                             "APEN_MARIN_PRODELTA"                       
2132.1 "6507_7_6"  73.4500 "Shale"   -999.25   -999.25 100.0000      0.0      0.0 "silt/vf"  "silt/vf"  -999.25                                                                                             "APEN_MARIN_PRODELTA"                       
2132.2 "6507_7_6"  73.4500 "Shale"   -999.25   -999.25 100.0000      0.0      0.0 "silt/vf"  "silt/vf"  -999.25                                                                                             "APEN_MARIN_PRODELTA"                       
