~Version
VERS  .                                 3.0 : CWLS LAS ASCII Standard - Version 3.0
WRAP  . NO                                  : One line per depth step
DLM   . SPACE                               : Column data section delimiter
SOURCE. Converted to LAS by Log Studio 4.76 : GeoProvider

~Well
STRT.         2129.0 : Start depth
STOP.         2460.3 : Stop depth
STEP.              1 : Step
NULL.        -999.25 : No-value
COMP.                : Company
WELL. 6507/7-6       : Well
FLD .                : Field
LOC .                : Location
LATI.                : Latitude
LONG.                : Longitude
GDAT.                : Geodetic datum
CNTY.                : County
STAT.                : State
CTRY.                : Country
SRVC. GeoProvider AS : Service company
DATE.                : Date
API .                : API number
RUN .                : Run number

~Parameters
WellboreName.  : Wellbore name
RigName     .  : Rig name
StartDate   .  : Start date

~Curves
DEPTH.m            .  : null {F}Depth mMD
Hole_ID.-          .  : null {S}Hole ID
GR.API             .  : null {F}Gamma Ray
Lithology1.-       .  : null {S}Lithology 1
Lithology2.-       .  : null {S}Lithology 2
Lithology3.-       .  : null {S}Lithology 3
Lithology1.%       .  : null {F}Lithology 1 percentage
Lithology2.%       .  : null {F}Lithology 2 percentage
Lithology3.%       .  : null {F}Lithology 3 percentage
Grain_size_Top.-   .  : null {S}Grain size at the top 
Grain_size_Base.-  .  : null {S}Grain size at the bottom
Sub_Environment.-  .  : null {S}Sub Environment
Gross_Environment.-.  : null {S}Gross Environment

~Ascii
# ...
2412.6 "6507_7_6"  55.2600 "Sandstone" "Coal"    -999.25  35.0000 65.00000      0.0 "vf"       "f"        "Poorly_drained_flood_plain_or_flood_basin"                                                         "LOWER_DELTA_PLAIN_WIYH_CUT-AND-FILL_RIBBONS"
2412.7 "6507_7_6"  60.1200 "Sandstone" "Coal"    -999.25  35.0000 65.00000      0.0 "vf"       "f"        "Poorly_drained_flood_plain_or_flood_basin"                                                         "LOWER_DELTA_PLAIN_WIYH_CUT-AND-FILL_RIBBONS"
2412.8 "6507_7_6"  64.9800 "Sandstone" "Coal"    -999.25  35.0000 65.00000      0.0 "vf"       "f"        "Poorly_drained_flood_plain_or_flood_basin"                                                         "LOWER_DELTA_PLAIN_WIYH_CUT-AND-FILL_RIBBONS"
2412.9 "6507_7_6"  69.8400 "Sandstone" "Coal"    -999.25  35.0000 65.00000      0.0 "vf"       "f"        "Poorly_drained_flood_plain_or_flood_basin"                                                         "LOWER_DELTA_PLAIN_WIYH_CUT-AND-FILL_RIBBONS"
2413.0 "6507_7_6"  74.9900 "Sandstone" "Coal"    -999.25  35.0000 65.00000      0.0 "vf"       "f"        "Poorly_drained_flood_plain_or_flood_basin"                                                         "LOWER_DELTA_PLAIN_WIYH_CUT-AND-FILL_RIBBONS"
2413.1 "6507_7_6"  80.3900 "Sandstone" "Coal"    -999.25  35.0000 65.00000      0.0 "vf"       "f"        "Poorly_drained_flood_plain_or_flood_basin"                                                         "LOWER_DELTA_PLAIN_WIYH_CUT-AND-FILL_RIBBONS"
2413.2 "6507_7_6"  85.3100 "Sandstone" "Coal"    -999.25  35.0000 65.00000      0.0 "vf"       "f"        "Poorly_drained_flood_plain_or_flood_basin"                                                         "LOWER_DELTA_PLAIN_WIYH_CUT-AND-FILL_RIBBONS"
2413.3 "6507_7_6"  84.8700 "Sandstone" "Coal"    -999.25  35.0000 65.00000      0.0 "vf"       "f"        "Poorly_drained_flood_plain_or_flood_basin"                                                         "LOWER_DELTA_PLAIN_WIYH_CUT-AND-FILL_RIBBONS"
2413.4 "6507_7_6"  82.2800 "Sandstone" "Coal"    -999.25  35.0000 65.00000      0.0 "vf"       "f"        "Poorly_drained_flood_plain_or_flood_basin"                                                         "LOWER_DELTA_PLAIN_WIYH_CUT-AND-FILL_RIBBONS"
2413.5 "6507_7_6"  77.4800 "Sandstone" "Coal"    -999.25  35.0000 65.00000      0.0 "vf"       "f"        "Poorly_drained_flood_plain_or_flood_basin"                                                         "LOWER_DELTA_PLAIN_WIYH_CUT-AND-FILL_RIBBONS"
2413.6 "6507_7_6"  70.2500 "Sandstone" "Coal"    -999.25  35.0000 65.00000      0.0 "vf"       "f"        "Poorly_drained_flood_plain_or_flood_basin"                                                         "LOWER_DELTA_PLAIN_WIYH_CUT-AND-FILL_RIBBONS"
2413.7 "6507_7_6"  63.0300 "Sandstone" "Limestone" "Coal"   79.0000 20.00000  1.00000 "vc/granule" "c/vc"     "Poorly_drained_flood_plain_or_flood_basin"                                                         "LOWER_DELTA_PLAIN_WIYH_CUT-AND-FILL_RIBBONS"
2413.8 "6507_7_6"  55.8100 "Sandstone" "Limestone" "Coal"   79.0000 20.00000  1.00000 "vc/granule" "c/vc"     "Distributary_channel_(Anastomosing)"                                                               "UPPER_DELTA_PLAIN_WITH_ANASTOMOSING_CHANNELS"
2413.9 "6507_7_6"  48.5900 "Sandstone" "Limestone" "Coal"   79.0000 20.00000  1.00000 "vc/granule" "c/vc"     "Distributary_channel_(Anastomosing)"                                                               "UPPER_DELTA_PLAIN_WITH_ANASTOMOSING_CHANNELS"
2414.0 "6507_7_6"  42.6900 "Sandstone" "Limestone" "Coal"   79.0000 20.00000  1.00000 "vc/granule" "c/vc"     "Distributary_channel_(Anastomosing)"                                                               "UPPER_DELTA_PLAIN_WITH_ANASTOMOSING_CHANNELS"
2414.1 "6507_7_6"  39.4900 "Sandstone" "Limestone" "Coal"   79.0000 20.00000  1.00000 "vc/granule" "c/vc"     "Distributary_channel_(Anastomosing)"                                                               "UPPER_DELTA_PLAIN_WITH_ANASTOMOSING_CHANNELS"
2414.2 "6507_7_6"  38.3100 "Sandstone" "Limestone" "Coal"   79.0000 20.00000  1.00000 "vc/granule" "c/vc"     "Distributary_channel_(Anastomosing)"                                                               "UPPER_DELTA_PLAIN_WITH_ANASTOMOSING_CHANNELS"
2414.3 "6507_7_6"  38.5400 "Sandstone" "Limestone" "Coal"   79.0000 20.00000  1.00000 "vc/granule" "c/vc"     "Distributary_channel_(Anastomosing)"                                                               "UPPER_DELTA_PLAIN_WITH_ANASTOMOSING_CHANNELS"
2414.4 "6507_7_6"  38.9500 "Sandstone" "Limestone" "Coal"   79.0000 20.00000  1.00000 "vc/granule" "c/vc"     "Distributary_channel_(Anastomosing)"                                                               "UPPER_DELTA_PLAIN_WITH_ANASTOMOSING_CHANNELS"
2414.5 "6507_7_6"  40.5800 "Sandstone" "Limestone" "Coal"   79.0000 20.00000  1.00000 "vc/granule" "c/vc"     "Distributary_channel_(Anastomosing)"                                                               "UPPER_DELTA_PLAIN_WITH_ANASTOMOSING_CHANNELS"
2414.6 "6507_7_6"  42.7800 "Sandstone" "Limestone" "Coal"   79.0000 20.00000  1.00000 "vc/granule" "c/vc"     "Distributary_channel_(Anastomosing)"                                                               "UPPER_DELTA_PLAIN_WITH_ANASTOMOSING_CHANNELS"
2414.7 "6507_7_6"  44.9800 "Sandstone" "Limestone" "Coal"   79.0000 20.00000  1.00000 "vc/granule" "c/vc"     "Distributary_channel_(Anastomosing)"                                                               "UPPER_DELTA_PLAIN_WITH_ANASTOMOSING_CHANNELS"
2414.8 "6507_7_6"  49.9800 "Sandstone" "Limestone" "Coal"   79.0000 20.00000  1.00000 "vc/granule" "c/vc"     "Distributary_channel_(Anastomosing)"                                                               "UPPER_DELTA_PLAIN_WITH_ANASTOMOSING_CHANNELS"
2414.9 "6507_7_6"  55.7200 "Sandstone" "Limestone" "Coal"   79.0000 20.00000  1.00000 "vc/granule" "c/vc"     "Distributary_channel_(Anastomosing)"                                                               "UPPER_DELTA_PLAIN_WITH_ANASTOMOSING_CHANNELS"
2415.0 "6507_7_6"  61.2500 "Sandstone" "Limestone" "Coal"   79.0000 20.00000  1.00000 "vc/granule" "c/vc"     "Distributary_channel_(Anastomosing)"                                                               "UPPER_DELTA_PLAIN_WITH_ANASTOMOSING_CHANNELS"
2415.1 "6507_7_6"  66.7000 "Sandstone" "Limestone" "Coal"   79.0000 20.00000  1.00000 "vc/granule" "c/vc"     "Distributary_channel_(Anastomosing)"                                                               "UPPER_DELTA_PLAIN_WITH_ANASTOMOSING_CHANNELS"
2415.2 "6507_7_6"  72.1600 "Sandstone" "Limestone" "Coal"   79.0000 20.00000  1.00000 "vc/granule" "c/vc"     "Distributary_channel_(Anastomosing)"                                                               "UPPER_DELTA_PLAIN_WITH_ANASTOMOSING_CHANNELS"
2415.3 "6507_7_6"  77.6200 "Sandstone" "Limestone" "Coal"   79.0000 20.00000  1.00000 "vc/granule" "c/vc"     "Distributary_channel_(Anastomosing)"                                                               "UPPER_DELTA_PLAIN_WITH_ANASTOMOSING_CHANNELS"
2415.4 "6507_7_6"  83.0800 "Sandstone" "Limestone" "Coal"   79.0000 20.00000  1.00000 "vc/granule" "c/vc"     "Distributary_channel_(Anastomosing)"                                                               "UPPER_DELTA_PLAIN_WITH_ANASTOMOSING_CHANNELS"
2415.5 "6507_7_6"  88.5400 "Sandstone" "Limestone" "Coal"   79.0000 20.00000  1.00000 "vc/granule" "c/vc"     "Distributary_channel_(Anastomosing)"                                                               "UPPER_DELTA_PLAIN_WITH_ANASTOMOSING_CHANNELS"
2415.6 "6507_7_6"  94.5400 "Sandstone" "Limestone" "Coal"   79.0000 20.00000  1.00000 "vc/granule" "c/vc"     "Distributary_channel_(Anastomosing)"                                                               "UPPER_DELTA_PLAIN_WITH_ANASTOMOSING_CHANNELS"
2415.7 "6507_7_6" 100.6700 "Sandstone" "Limestone" "Coal"   79.0000 20.00000  1.00000 "vc/granule" "c/vc"     "Distributary_channel_(Anastomosing)"                                                               "UPPER_DELTA_PLAIN_WITH_ANASTOMOSING_CHANNELS"
