~Version
VERS  .                                 3.0 : CWLS LAS ASCII Standard - Version 3.0
WRAP  . NO                                  : One line per depth step
DLM   . SPACE                               : Column data section delimiter
SOURCE. Converted to LAS by Log Studio 4.76 : GeoProvider

~Well
STRT.         2129.0 : Start depth
STOP.         2460.3 : Stop depth
STEP.              1 : Step
NULL.        -999.25 : No-value
COMP.                : Company
WELL. 6507/7-6       : Well
FLD .                : Field
LOC .                : Location
LATI.                : Latitude
LONG.                : Longitude
GDAT.                : Geodetic datum
CNTY.                : County
STAT.                : State
CTRY.                : Country
SRVC. GeoProvider AS : Service company
DATE.                : Date
API .                : API number
RUN .                : Run number

~Parameters
WellboreName.  : Wellbore name
RigName     .  : Rig name
StartDate   .  : Start date

~Curves
DEPTH.m            .  : null {F}Depth mMD
Hole_ID.-          .  : null {S}Hole ID
GR.API             .  : null {F}Gamma Ray
Lithology1.-       .  : null {S}Lithology 1
Lithology2.-       .  : null {S}Lithology 2
Lithology3.-       .  : null {S}Lithology 3
Lithology1.%       .  : null {F}Lithology 1 percentage
Lithology2.%       .  : null {F}Lithology 2 percentage
Lithology3.%       .  : null {F}Lithology 3 percentage
Grain_size_Top.-   .  : null {S}Grain size at the top 
Grain_size_Base.-  .  : null {S}Grain size at the bottom
Sub_Environment.-  .  : null {S}Sub Environment
Gross_Environment.-.  : null {S}Gross Environment

~Ascii
# ...
2435.0 "6507_7_6"  59.3300 "Sandstone" -999.25   -999.25 100.0000      0.0      0.0 "vc"       "vc"       "Distributary_channel"                                                                              "UPPER_DELTA_PLAIN_WITH_ANASTOMOSING_CHANNELS"
2435.1 "6507_7_6"  52.7800 "Sandstone" -999.25   -999.25 100.0000      0.0      0.0 "vc"       "vc"       "Distributary_channel"                                                                              "UPPER_DELTA_PLAIN_WITH_ANASTOMOSING_CHANNELS"
2435.2 "6507_7_6"  46.2400 "Sandstone" -999.25   -999.25 100.0000      0.0      0.0 "vc"       "vc"       "Distributary_channel"                                                                              "UPPER_DELTA_PLAIN_WITH_ANASTOMOSING_CHANNELS"
2435.3 "6507_7_6"  44.2900 "Sandstone" -999.25   -999.25 100.0000      0.0      0.0 "vc"       "vc"       "Distributary_channel"                                                                              "UPPER_DELTA_PLAIN_WITH_ANASTOMOSING_CHANNELS"
2435.4 "6507_7_6"  43.3500 "Sandstone" -999.25   -999.25 100.0000      0.0      0.0 "vc"       "vc"       "Distributary_channel"                                                                              "UPPER_DELTA_PLAIN_WITH_ANASTOMOSING_CHANNELS"
2435.5 "6507_7_6"  42.8000 "Sandstone" -999.25   -999.25 100.0000      0.0      0.0 "vc"       "vc"       "Distributary_channel"                                                                              "UPPER_DELTA_PLAIN_WITH_ANASTOMOSING_CHANNELS"
2435.6 "6507_7_6"  42.2600 "Sandstone" -999.25   -999.25 100.0000      0.0      0.0 "vc"       "vc"       "Distributary_channel"                                                                              "UPPER_DELTA_PLAIN_WITH_ANASTOMOSING_CHANNELS"
2435.7 "6507_7_6"  41.7200 "Sandstone" -999.25   -999.25 100.0000      0.0      0.0 "vc"       "vc"       "Distributary_channel"                                                                              "UPPER_DELTA_PLAIN_WITH_ANASTOMOSING_CHANNELS"
2435.8 "6507_7_6"  41.1800 "Sandstone" -999.25   -999.25 100.0000      0.0      0.0 "vc"       "vc"       "Distributary_channel"                                                                              "UPPER_DELTA_PLAIN_WITH_ANASTOMOSING_CHANNELS"
2435.9 "6507_7_6"  40.4600 "Sandstone" "Coal"    -999.25  30.0000 70.00000      0.0 "f"        "vf"       "Flood_plain_with_poorly_drained_swamps_Creavasse_splays_and_levee"                                 "UPPER_DELTA_PLAIN_WITH_ANASTOMOSING_CHANNELS"
2436.0 "6507_7_6"  39.3000 "Sandstone" "Coal"    -999.25  30.0000 70.00000      0.0 "f"        "vf"       "Flood_plain_with_poorly_drained_swamps_Creavasse_splays_and_levee"                                 "UPPER_DELTA_PLAIN_WITH_ANASTOMOSING_CHANNELS"
2436.1 "6507_7_6"  38.1400 "Sandstone" "Coal"    -999.25  30.0000 70.00000      0.0 "f"        "vf"       "Flood_plain_with_poorly_drained_swamps_Creavasse_splays_and_levee"                                 "UPPER_DELTA_PLAIN_WITH_ANASTOMOSING_CHANNELS"
2436.2 "6507_7_6"  36.9800 "Sandstone" "Coal"    -999.25  30.0000 70.00000      0.0 "f"        "vf"       "Flood_plain_with_poorly_drained_swamps_Creavasse_splays_and_levee"                                 "UPPER_DELTA_PLAIN_WITH_ANASTOMOSING_CHANNELS"
2436.3 "6507_7_6"  36.0500 "Sandstone" "Coal"    -999.25  30.0000 70.00000      0.0 "f"        "vf"       "Flood_plain_with_poorly_drained_swamps_Creavasse_splays_and_levee"                                 "UPPER_DELTA_PLAIN_WITH_ANASTOMOSING_CHANNELS"
2436.4 "6507_7_6"  35.4900 "Sandstone" "Coal"    -999.25  60.0000 40.00000      0.0 "vc"       "vf"       "Flood_plain_with_poorly_drained_swamps_Creavasse_splays_and_levee"                                 "UPPER_DELTA_PLAIN_WITH_ANASTOMOSING_CHANNELS"
2436.5 "6507_7_6"  36.1000 "Sandstone" "Coal"    -999.25  60.0000 40.00000      0.0 "vc"       "vf"       "Flood_plain_with_poorly_drained_swamps_Creavasse_splays_and_levee"                                 "UPPER_DELTA_PLAIN_WITH_ANASTOMOSING_CHANNELS"
2436.6 "6507_7_6"  36.7800 "Sandstone" "Coal"    -999.25  60.0000 40.00000      0.0 "vc"       "vf"       "Flood_plain_with_poorly_drained_swamps_Creavasse_splays_and_levee"                                 "UPPER_DELTA_PLAIN_WITH_ANASTOMOSING_CHANNELS"
2436.7 "6507_7_6"  37.4200 "Sandstone" "Coal"    -999.25  60.0000 40.00000      0.0 "vc"       "vf"       "Flood_plain_with_poorly_drained_swamps_Creavasse_splays_and_levee"                                 "UPPER_DELTA_PLAIN_WITH_ANASTOMOSING_CHANNELS"
2436.8 "6507_7_6"  37.8000 "Sandstone" "Coal"    -999.25  60.0000 40.00000      0.0 "vc"       "vf"       "Flood_plain_with_poorly_drained_swamps_Creavasse_splays_and_levee"                                 "UPPER_DELTA_PLAIN_WITH_ANASTOMOSING_CHANNELS"
2436.9 "6507_7_6"  38.3500 "Sandstone" "Coal"    -999.25  60.0000 40.00000      0.0 "vc"       "vf"       "Flood_plain_with_poorly_drained_swamps_Creavasse_splays_and_levee"                                 "UPPER_DELTA_PLAIN_WITH_ANASTOMOSING_CHANNELS"
2437.0 "6507_7_6"  39.3900 "Sandstone" "Coal"    -999.25  60.0000 40.00000      0.0 "vc"       "vf"       "Flood_plain_with_poorly_drained_swamps_Creavasse_splays_and_levee"                                 "UPPER_DELTA_PLAIN_WITH_ANASTOMOSING_CHANNELS"
2437.1 "6507_7_6"  40.4300 "Sandstone" "Coal"    -999.25  60.0000 40.00000      0.0 "vc"       "vf"       "Flood_plain_with_poorly_drained_swamps_Creavasse_splays_and_levee"                                 "UPPER_DELTA_PLAIN_WITH_ANASTOMOSING_CHANNELS"
2437.2 "6507_7_6"  41.4700 "Sandstone" "Coal"    -999.25  60.0000 40.00000      0.0 "vc"       "vf"       "Flood_plain_with_poorly_drained_swamps_Creavasse_splays_and_levee"                                 "UPPER_DELTA_PLAIN_WITH_ANASTOMOSING_CHANNELS"
2437.3 "6507_7_6"  47.4700 "Sandstone" "Coal"    -999.25  60.0000 40.00000      0.0 "vc"       "vf"       "Flood_plain_with_poorly_drained_swamps_Creavasse_splays_and_levee"                                 "UPPER_DELTA_PLAIN_WITH_ANASTOMOSING_CHANNELS"
2437.4 "6507_7_6"  54.2200 "Sandstone" "Coal"    -999.25  60.0000 40.00000      0.0 "vc"       "vf"       "Flood_plain_with_poorly_drained_swamps_Creavasse_splays_and_levee"                                 "UPPER_DELTA_PLAIN_WITH_ANASTOMOSING_CHANNELS"
2437.5 "6507_7_6"  60.9700 "Sandstone" "Coal"    -999.25  60.0000 40.00000      0.0 "vc"       "vf"       "Flood_plain_with_poorly_drained_swamps_Creavasse_splays_and_levee"                                 "UPPER_DELTA_PLAIN_WITH_ANASTOMOSING_CHANNELS"
2437.6 "6507_7_6"  67.7200 "Sandstone" "Coal"    -999.25  60.0000 40.00000      0.0 "vc"       "vf"       "Flood_plain_with_poorly_drained_swamps_Creavasse_splays_and_levee"                                 "UPPER_DELTA_PLAIN_WITH_ANASTOMOSING_CHANNELS"
2437.7 "6507_7_6"  74.4700 "Sandstone" "Coal"    -999.25  60.0000 40.00000      0.0 "vc"       "vf"       "Flood_plain_with_poorly_drained_swamps_Creavasse_splays_and_levee"                                 "UPPER_DELTA_PLAIN_WITH_ANASTOMOSING_CHANNELS"
2437.8 "6507_7_6"  81.2200 "Sandstone" "Coal"    -999.25  60.0000 40.00000      0.0 "vc"       "vf"       "Flood_plain_with_poorly_drained_swamps_Creavasse_splays_and_levee"                                 "UPPER_DELTA_PLAIN_WITH_ANASTOMOSING_CHANNELS"
2437.9 "6507_7_6"  87.9600 "Sandstone" "Coal"    -999.25  60.0000 40.00000      0.0 "vc"       "vf"       "Flood_plain_with_poorly_drained_swamps_Creavasse_splays_and_levee"                                 "UPPER_DELTA_PLAIN_WITH_ANASTOMOSING_CHANNELS"
2438.0 "6507_7_6"  88.6200 "Sandstone" "Coal"    -999.25  60.0000 40.00000      0.0 "vc"       "vf"       "Flood_plain_with_poorly_drained_swamps_Creavasse_splays_and_levee"                                 "UPPER_DELTA_PLAIN_WITH_ANASTOMOSING_CHANNELS"
2438.1 "6507_7_6"  87.5600 "Sandstone" "Coal"    -999.25  60.0000 40.00000      0.0 "vc"       "vf"       "Flood_plain_with_poorly_drained_swamps_Creavasse_splays_and_levee"                                 "UPPER_DELTA_PLAIN_WITH_ANASTOMOSING_CHANNELS"
