~Version
VERS  .                                 3.0 : CWLS LAS ASCII Standard - Version 3.0
WRAP  . NO                                  : One line per depth step
DLM   . SPACE                               : Column data section delimiter
SOURCE. Converted to LAS by Log Studio 4.76 : GeoProvider

~Well
STRT.         2129.0 : Start depth
STOP.         2460.3 : Stop depth
STEP.              1 : Step
NULL.        -999.25 : No-value
COMP.                : Company
WELL. 6507/7-6       : Well
FLD .                : Field
LOC .                : Location
LATI.                : Latitude
LONG.                : Longitude
GDAT.                : Geodetic datum
CNTY.                : County
STAT.                : State
CTRY.                : Country
SRVC. GeoProvider AS : Service company
DATE.                : Date
API .                : API number
RUN .                : Run number

~Parameters
WellboreName.  : Wellbore name
RigName     .  : Rig name
StartDate   .  : Start date

~Curves
DEPTH.m            .  : null {F}Depth mMD
Hole_ID.-          .  : null {S}Hole ID
GR.API             .  : null {F}Gamma Ray
Lithology1.-       .  : null {S}Lithology 1
Lithology2.-       .  : null {S}Lithology 2
Lithology3.-       .  : null {S}Lithology 3
Lithology1.%       .  : null {F}Lithology 1 percentage
Lithology2.%       .  : null {F}Lithology 2 percentage
Lithology3.%       .  : null {F}Lithology 3 percentage
Grain_size_Top.-   .  : null {S}Grain size at the top 
Grain_size_Base.-  .  : null {S}Grain size at the bottom
Sub_Environment.-  .  : null {S}Sub Environment
Gross_Environment.-.  : null {S}Gross Environment

~Ascii
# ...
2399.8 "6507_7_6"  80.5300 "Sandstone" "Coal"    -999.25  30.0000 70.00000      0.0 "vf"       "vf"       "Poorly_drained_flood_plain_or_flood_basin_fill"                                                    "LOWER_DELTA_PLAIN_WIYH_CUT-AND-FILL_RIBBONS"
2399.9 "6507_7_6"  87.0500 "Sandstone" "Coal"    -999.25  30.0000 70.00000      0.0 "vf"       "vf"       "Poorly_drained_flood_plain_or_flood_basin_fill"                                                    "LOWER_DELTA_PLAIN_WIYH_CUT-AND-FILL_RIBBONS"
2400.0 "6507_7_6"  95.6500 "Sandstone" "Coal"    -999.25  30.0000 70.00000      0.0 "vf"       "vf"       "Poorly_drained_flood_plain_or_flood_basin_fill"                                                    "LOWER_DELTA_PLAIN_WIYH_CUT-AND-FILL_RIBBONS"
2400.1 "6507_7_6"  96.2100 "Sandstone" "Coal"    -999.25  30.0000 70.00000      0.0 "vf"       "vf"       "Poorly_drained_flood_plain_or_flood_basin_fill"                                                    "LOWER_DELTA_PLAIN_WIYH_CUT-AND-FILL_RIBBONS"
2400.2 "6507_7_6"  95.4100 "Sandstone" "Coal"    -999.25  30.0000 70.00000      0.0 "vf"       "vf"       "Poorly_drained_flood_plain_or_flood_basin_fill"                                                    "LOWER_DELTA_PLAIN_WIYH_CUT-AND-FILL_RIBBONS"
2400.3 "6507_7_6"  93.6100 "Sandstone" "Coal"    -999.25  30.0000 70.00000      0.0 "vf"       "vf"       "Poorly_drained_flood_plain_or_flood_basin_fill"                                                    "LOWER_DELTA_PLAIN_WIYH_CUT-AND-FILL_RIBBONS"
2400.4 "6507_7_6"  90.9600 "Sandstone" "Coal"    -999.25  30.0000 70.00000      0.0 "vf"       "vf"       "Poorly_drained_flood_plain_or_flood_basin_fill"                                                    "LOWER_DELTA_PLAIN_WIYH_CUT-AND-FILL_RIBBONS"
2400.5 "6507_7_6"  88.9600 "Sandstone" "Coal"    -999.25  30.0000 70.00000      0.0 "vf"       "vf"       "Poorly_drained_flood_plain_or_flood_basin_fill"                                                    "LOWER_DELTA_PLAIN_WIYH_CUT-AND-FILL_RIBBONS"
2400.6 "6507_7_6"  88.0400 "Sandstone" "Coal"    -999.25  30.0000 70.00000      0.0 "vf"       "vf"       "Poorly_drained_flood_plain_or_flood_basin_fill"                                                    "LOWER_DELTA_PLAIN_WIYH_CUT-AND-FILL_RIBBONS"
2400.7 "6507_7_6"  89.0300 "Sandstone" "Coal"    -999.25  30.0000 70.00000      0.0 "vf"       "vf"       "Poorly_drained_flood_plain_or_flood_basin_fill"                                                    "LOWER_DELTA_PLAIN_WIYH_CUT-AND-FILL_RIBBONS"
2400.8 "6507_7_6"  90.5300 "Sandstone" -999.25   -999.25 100.0000      0.0      0.0 "vc/granule" "m/c"      "Poorly_drained_flood_plain_or_flood_basin_fill"                                                    "LOWER_DELTA_PLAIN_WIYH_CUT-AND-FILL_RIBBONS"
2400.9 "6507_7_6"  91.2900 "Sandstone" -999.25   -999.25 100.0000      0.0      0.0 "vc/granule" "m/c"      "Poorly_drained_flood_plain_or_flood_basin_fill"                                                    "LOWER_DELTA_PLAIN_WIYH_CUT-AND-FILL_RIBBONS"
2401.0 "6507_7_6"  91.5600 "Sandstone" -999.25   -999.25 100.0000      0.0      0.0 "vc/granule" "m/c"      "Poorly_drained_flood_plain_or_flood_basin_fill"                                                    "LOWER_DELTA_PLAIN_WIYH_CUT-AND-FILL_RIBBONS"
2401.1 "6507_7_6"  90.5300 "Sandstone" -999.25   -999.25 100.0000      0.0      0.0 "vc/granule" "m/c"      "Poorly_drained_flood_plain_or_flood_basin_fill"                                                    "LOWER_DELTA_PLAIN_WIYH_CUT-AND-FILL_RIBBONS"
2401.2 "6507_7_6"  87.9800 "Sandstone" -999.25   -999.25 100.0000      0.0      0.0 "vc/granule" "m/c"      "Poorly_drained_flood_plain_or_flood_basin_fill"                                                    "LOWER_DELTA_PLAIN_WIYH_CUT-AND-FILL_RIBBONS"
2401.3 "6507_7_6"  85.4200 "Sandstone" -999.25   -999.25 100.0000      0.0      0.0 "vc/granule" "m/c"      "Poorly_drained_flood_plain_or_flood_basin_fill"                                                    "LOWER_DELTA_PLAIN_WIYH_CUT-AND-FILL_RIBBONS"
2401.4 "6507_7_6"  82.8600 "Sandstone" -999.25   -999.25 100.0000      0.0      0.0 "vc/granule" "m/c"      "Poorly_drained_flood_plain_or_flood_basin_fill"                                                    "LOWER_DELTA_PLAIN_WIYH_CUT-AND-FILL_RIBBONS"
2401.5 "6507_7_6"  80.3100 "Sandstone" -999.25   -999.25 100.0000      0.0      0.0 "vc/granule" "m/c"      "Poorly_drained_flood_plain_or_flood_basin_fill"                                                    "LOWER_DELTA_PLAIN_WIYH_CUT-AND-FILL_RIBBONS"
2401.6 "6507_7_6"  81.5400 "Sandstone" -999.25   -999.25 100.0000      0.0      0.0 "vc/granule" "m/c"      "Cut_and_fill_ribbon"                                                                               "LOWER_DELTA_PLAIN_WIYH_CUT-AND-FILL_RIBBONS"
2401.7 "6507_7_6"  83.9800 "Sandstone" -999.25   -999.25 100.0000      0.0      0.0 "vc/granule" "m/c"      "Cut_and_fill_ribbon"                                                                               "LOWER_DELTA_PLAIN_WIYH_CUT-AND-FILL_RIBBONS"
2401.8 "6507_7_6"  86.4900 "Sandstone" -999.25   -999.25 100.0000      0.0      0.0 "vc/granule" "m/c"      "Cut_and_fill_ribbon"                                                                               "LOWER_DELTA_PLAIN_WIYH_CUT-AND-FILL_RIBBONS"
2401.9 "6507_7_6"  89.0000 "Sandstone" -999.25   -999.25 100.0000      0.0      0.0 "vc/granule" "m/c"      "Cut_and_fill_ribbon"                                                                               "LOWER_DELTA_PLAIN_WIYH_CUT-AND-FILL_RIBBONS"
2402.0 "6507_7_6"  90.9900 "Sandstone" -999.25   -999.25 100.0000      0.0      0.0 "vc/granule" "m/c"      "Cut_and_fill_ribbon"                                                                               "LOWER_DELTA_PLAIN_WIYH_CUT-AND-FILL_RIBBONS"
2402.1 "6507_7_6"  90.4900 "Sandstone" -999.25   -999.25 100.0000      0.0      0.0 "vc/granule" "m/c"      "Cut_and_fill_ribbon"                                                                               "LOWER_DELTA_PLAIN_WIYH_CUT-AND-FILL_RIBBONS"
2402.2 "6507_7_6"  87.7800 "Sandstone" -999.25   -999.25 100.0000      0.0      0.0 "vc/granule" "m/c"      "Cut_and_fill_ribbon"                                                                               "LOWER_DELTA_PLAIN_WIYH_CUT-AND-FILL_RIBBONS"
2402.3 "6507_7_6"  84.1700 "Sandstone" -999.25   -999.25 100.0000      0.0      0.0 "vc/granule" "m/c"      "Cut_and_fill_ribbon"                                                                               "LOWER_DELTA_PLAIN_WIYH_CUT-AND-FILL_RIBBONS"
2402.4 "6507_7_6"  79.2100 "Sandstone" -999.25   -999.25 100.0000      0.0      0.0 "vc/granule" "m/c"      "Cut_and_fill_ribbon"                                                                               "LOWER_DELTA_PLAIN_WIYH_CUT-AND-FILL_RIBBONS"
2402.5 "6507_7_6"  74.1900 "Sandstone" -999.25   -999.25 100.0000      0.0      0.0 "vc/granule" "m/c"      "Cut_and_fill_ribbon"                                                                               "LOWER_DELTA_PLAIN_WIYH_CUT-AND-FILL_RIBBONS"
2402.6 "6507_7_6"  66.7900 "Sandstone" -999.25   -999.25 100.0000      0.0      0.0 "vc/granule" "m/c"      "Cut_and_fill_ribbon"                                                                               "LOWER_DELTA_PLAIN_WIYH_CUT-AND-FILL_RIBBONS"
2402.7 "6507_7_6"  59.3800 "Sandstone" -999.25   -999.25 100.0000      0.0      0.0 "vc/granule" "m/c"      "Cut_and_fill_ribbon"                                                                               "LOWER_DELTA_PLAIN_WIYH_CUT-AND-FILL_RIBBONS"
2402.8 "6507_7_6"  52.0000 "Coal"    -999.25   -999.25 100.0000      0.0      0.0 "vf"       "vf"       "Cut_and_fill_ribbon"                                                                               "LOWER_DELTA_PLAIN_WIYH_CUT-AND-FILL_RIBBONS"
2402.9 "6507_7_6"  52.0500 "Coal"    -999.25   -999.25 100.0000      0.0      0.0 "vf"       "vf"       "Cut_and_fill_ribbon"                                                                               "LOWER_DELTA_PLAIN_WIYH_CUT-AND-FILL_RIBBONS"
