~Version
VERS  .                                 3.0 : CWLS LAS ASCII Standard - Version 3.0
WRAP  . NO                                  : One line per depth step
DLM   . SPACE                               : Column data section delimiter
SOURCE. Converted to LAS by Log Studio 4.76 : GeoProvider

~Well
STRT.         2129.0 : Start depth
STOP.         2460.3 : Stop depth
STEP.              1 : Step
NULL.        -999.25 : No-value
COMP.                : Company
WELL. 6507/7-6       : Well
FLD .                : Field
LOC .                : Location
LATI.                : Latitude
LONG.                : Longitude
GDAT.                : Geodetic datum
CNTY.                : County
STAT.                : State
CTRY.                : Country
SRVC. GeoProvider AS : Service company
DATE.                : Date
API .                : API number
RUN .                : Run number

~Parameters
WellboreName.  : Wellbore name
RigName     .  : Rig name
StartDate   .  : Start date

~Curves
DEPTH.m            .  : null {F}Depth mMD
Hole_ID.-          .  : null {S}Hole ID
GR.API             .  : null {F}Gamma Ray
Lithology1.-       .  : null {S}Lithology 1
Lithology2.-       .  : null {S}Lithology 2
Lithology3.-       .  : null {S}Lithology 3
Lithology1.%       .  : null {F}Lithology 1 percentage
Lithology2.%       .  : null {F}Lithology 2 percentage
Lithology3.%       .  : null {F}Lithology 3 percentage
Grain_size_Top.-   .  : null {S}Grain size at the top 
Grain_size_Base.-  .  : null {S}Grain size at the bottom
Sub_Environment.-  .  : null {S}Sub Environment
Gross_Environment.-.  : null {S}Gross Environment

~Ascii
# ...
2364.5 "6507_7_6"  74.2500 -999.25   -999.25   -999.25 100.0000      0.0      0.0 -999.25    -999.25    "Distal_flood_plain"                                                                                "LOWER_DELTA_PLAIN_WIYH_CUT-AND-FILL_RIBBONS"
2364.6 "6507_7_6"  77.0600 "Sandstone" "Coal"    -999.25  90.0000 10.00000      0.0 "c/vc"     "f"        "Distal_flood_plain"                                                                                "LOWER_DELTA_PLAIN_WIYH_CUT-AND-FILL_RIBBONS"
2364.7 "6507_7_6"  78.6800 "Sandstone" "Coal"    -999.25  90.0000 10.00000      0.0 "c/vc"     "f"        "Distal_flood_plain"                                                                                "LOWER_DELTA_PLAIN_WIYH_CUT-AND-FILL_RIBBONS"
2364.8 "6507_7_6"  79.2700 "Sandstone" "Coal"    -999.25  90.0000 10.00000      0.0 "c/vc"     "f"        "Distal_flood_plain"                                                                                "LOWER_DELTA_PLAIN_WIYH_CUT-AND-FILL_RIBBONS"
2364.9 "6507_7_6"  79.0800 "Sandstone" "Coal"    -999.25  90.0000 10.00000      0.0 "c/vc"     "f"        "Distal_flood_plain"                                                                                "LOWER_DELTA_PLAIN_WIYH_CUT-AND-FILL_RIBBONS"
2365.0 "6507_7_6"  78.4200 "Sandstone" "Coal"    -999.25  90.0000 10.00000      0.0 "c/vc"     "f"        "Distal_flood_plain"                                                                                "LOWER_DELTA_PLAIN_WIYH_CUT-AND-FILL_RIBBONS"
2365.1 "6507_7_6"  77.7500 "Sandstone" "Coal"    -999.25  90.0000 10.00000      0.0 "c/vc"     "f"        "Distal_flood_plain"                                                                                "LOWER_DELTA_PLAIN_WIYH_CUT-AND-FILL_RIBBONS"
2365.2 "6507_7_6"  77.0900 "Sandstone" "Coal"    -999.25  90.0000 10.00000      0.0 "c/vc"     "f"        "Distal_flood_plain"                                                                                "LOWER_DELTA_PLAIN_WIYH_CUT-AND-FILL_RIBBONS"
2365.3 "6507_7_6"  78.0200 "Sandstone" "Coal"    -999.25  90.0000 10.00000      0.0 "c/vc"     "f"        "Distal_flood_plain"                                                                                "LOWER_DELTA_PLAIN_WIYH_CUT-AND-FILL_RIBBONS"
2365.4 "6507_7_6"  78.9500 "Coal"    -999.25   -999.25 100.0000      0.0      0.0 "vf"       "vf"       "Distal_flood_plain"                                                                                "LOWER_DELTA_PLAIN_WIYH_CUT-AND-FILL_RIBBONS"
2365.5 "6507_7_6"  79.3000 "Coal"    -999.25   -999.25 100.0000      0.0      0.0 "vf"       "vf"       "Distal_flood_plain"                                                                                "LOWER_DELTA_PLAIN_WIYH_CUT-AND-FILL_RIBBONS"
2365.6 "6507_7_6"  79.1100 "Coal"    -999.25   -999.25 100.0000      0.0      0.0 "vf"       "vf"       "Distal_flood_plain"                                                                                "LOWER_DELTA_PLAIN_WIYH_CUT-AND-FILL_RIBBONS"
2365.7 "6507_7_6"  78.3000 "Coal"    -999.25   -999.25 100.0000      0.0      0.0 "vf"       "vf"       "Distal_flood_plain"                                                                                "LOWER_DELTA_PLAIN_WIYH_CUT-AND-FILL_RIBBONS"
2365.8 "6507_7_6"  76.8400 "Sandstone" -999.25   -999.25 100.0000      0.0      0.0 "c/vc"     "c/vc"     "Distal_flood_plain"                                                                                "LOWER_DELTA_PLAIN_WIYH_CUT-AND-FILL_RIBBONS"
2365.9 "6507_7_6"  75.7900 "Sandstone" -999.25   -999.25 100.0000      0.0      0.0 "c/vc"     "c/vc"     "Distal_flood_plain"                                                                                "LOWER_DELTA_PLAIN_WIYH_CUT-AND-FILL_RIBBONS"
2366.0 "6507_7_6"  76.3900 "Sandstone" -999.25   -999.25 100.0000      0.0      0.0 "c/vc"     "c/vc"     "Distal_flood_plain"                                                                                "LOWER_DELTA_PLAIN_WIYH_CUT-AND-FILL_RIBBONS"
2366.1 "6507_7_6"  77.4600 "Sandstone" -999.25   -999.25 100.0000      0.0      0.0 "c/vc"     "c/vc"     "Distal_flood_plain"                                                                                "LOWER_DELTA_PLAIN_WIYH_CUT-AND-FILL_RIBBONS"
2366.2 "6507_7_6"  78.5400 "Coal"    -999.25   -999.25 100.0000      0.0      0.0 "silt/vf"  "silt/vf"  "Distal_flood_plain"                                                                                "LOWER_DELTA_PLAIN_WIYH_CUT-AND-FILL_RIBBONS"
2366.3 "6507_7_6"  79.6100 "Coal"    -999.25   -999.25 100.0000      0.0      0.0 "silt/vf"  "silt/vf"  "Distal_flood_plain"                                                                                "LOWER_DELTA_PLAIN_WIYH_CUT-AND-FILL_RIBBONS"
2366.4 "6507_7_6"  80.3300 "Coal"    -999.25   -999.25 100.0000      0.0      0.0 "silt/vf"  "silt/vf"  "Distal_flood_plain"                                                                                "LOWER_DELTA_PLAIN_WIYH_CUT-AND-FILL_RIBBONS"
2366.5 "6507_7_6"  80.6800 "Coal"    -999.25   -999.25 100.0000      0.0      0.0 "silt/vf"  "silt/vf"  "Distal_flood_plain"                                                                                "LOWER_DELTA_PLAIN_WIYH_CUT-AND-FILL_RIBBONS"
2366.6 "6507_7_6"  80.2500 "Coal"    -999.25   -999.25 100.0000      0.0      0.0 "silt/vf"  "silt/vf"  "Distal_flood_plain"                                                                                "LOWER_DELTA_PLAIN_WIYH_CUT-AND-FILL_RIBBONS"
2366.7 "6507_7_6"  79.8200 "Coal"    -999.25   -999.25 100.0000      0.0      0.0 "silt/vf"  "silt/vf"  "Distal_flood_plain"                                                                                "LOWER_DELTA_PLAIN_WIYH_CUT-AND-FILL_RIBBONS"
2366.8 "6507_7_6"  80.9500 "Coal"    -999.25   -999.25 100.0000      0.0      0.0 "silt/vf"  "silt/vf"  "Distal_flood_plain"                                                                                "LOWER_DELTA_PLAIN_WIYH_CUT-AND-FILL_RIBBONS"
2366.9 "6507_7_6"  82.4200 "Coal"    -999.25   -999.25 100.0000      0.0      0.0 "silt/vf"  "silt/vf"  "Distal_flood_plain"                                                                                "LOWER_DELTA_PLAIN_WIYH_CUT-AND-FILL_RIBBONS"
2367.0 "6507_7_6"  84.2500 "Coal"    -999.25   -999.25 100.0000      0.0      0.0 "silt/vf"  "silt/vf"  "Distal_flood_plain"                                                                                "LOWER_DELTA_PLAIN_WIYH_CUT-AND-FILL_RIBBONS"
2367.1 "6507_7_6"  86.0900 "Coal"    -999.25   -999.25 100.0000      0.0      0.0 "silt/vf"  "silt/vf"  "Distal_flood_plain"                                                                                "LOWER_DELTA_PLAIN_WIYH_CUT-AND-FILL_RIBBONS"
2367.2 "6507_7_6"  85.4500 "Coal"    -999.25   -999.25 100.0000      0.0      0.0 "silt/vf"  "silt/vf"  "Distal_flood_plain"                                                                                "LOWER_DELTA_PLAIN_WIYH_CUT-AND-FILL_RIBBONS"
2367.3 "6507_7_6"  83.3700 "Coal"    -999.25   -999.25 100.0000      0.0      0.0 "silt/vf"  "silt/vf"  "Distal_flood_plain"                                                                                "LOWER_DELTA_PLAIN_WIYH_CUT-AND-FILL_RIBBONS"
2367.4 "6507_7_6"  81.3000 "Coal"    -999.25   -999.25 100.0000      0.0      0.0 "silt/vf"  "silt/vf"  "Distal_flood_plain"                                                                                "LOWER_DELTA_PLAIN_WIYH_CUT-AND-FILL_RIBBONS"
2367.5 "6507_7_6"  79.2200 "Coal"    -999.25   -999.25 100.0000      0.0      0.0 "silt/vf"  "silt/vf"  "Distal_flood_plain"                                                                                "LOWER_DELTA_PLAIN_WIYH_CUT-AND-FILL_RIBBONS"
2367.6 "6507_7_6"  77.1400 "Coal"    -999.25   -999.25 100.0000      0.0      0.0 "silt/vf"  "silt/vf"  "Distal_flood_plain"                                                                                "LOWER_DELTA_PLAIN_WIYH_CUT-AND-FILL_RIBBONS"
