~Version
VERS  .                                 3.0 : CWLS LAS ASCII Standard - Version 3.0
WRAP  . NO                                  : One line per depth step
DLM   . SPACE                               : Column data section delimiter
SOURCE. Converted to LAS by Log Studio 4.76 : GeoProvider

~Well
STRT.         2129.0 : Start depth
STOP.         2460.3 : Stop depth
STEP.              1 : Step
NULL.        -999.25 : No-value
COMP.                : Company
WELL. 6507/7-6       : Well
FLD .                : Field
LOC .                : Location
LATI.                : Latitude
LONG.                : Longitude
GDAT.                : Geodetic datum
CNTY.                : County
STAT.                : State
CTRY.                : Country
SRVC. GeoProvider AS : Service company
DATE.                : Date
API .                : API number
RUN .                : Run number

~Parameters
WellboreName.  : Wellbore name
RigName     .  : Rig name
StartDate   .  : Start date

~Curves
DEPTH.m            .  : null {F}Depth mMD
Hole_ID.-          .  : null {S}Hole ID
GR.API             .  : null {F}Gamma Ray
Lithology1.-       .  : null {S}Lithology 1
Lithology2.-       .  : null {S}Lithology 2
Lithology3.-       .  : null {S}Lithology 3
Lithology1.%       .  : null {F}Lithology 1 percentage
Lithology2.%       .  : null {F}Lithology 2 percentage
Lithology3.%       .  : null {F}Lithology 3 percentage
Grain_size_Top.-   .  : null {S}Grain size at the top 
Grain_size_Base.-  .  : null {S}Grain size at the bottom
Sub_Environment.-  .  : null {S}Sub Environment
Gross_Environment.-.  : null {S}Gross Environment

~Ascii
# ...
2142.2 "6507_7_6"  75.3900 "Shale"   -999.25   -999.25 100.0000      0.0      0.0 "silt/vf"  "silt/vf"  -999.25                                                                                             "APEN_MARIN_PRODELTA"                       
2142.3 "6507_7_6"  75.3900 "Shale"   -999.25   -999.25 100.0000      0.0      0.0 "silt/vf"  "silt/vf"  "Lower_shoreface_"                                                                                  "DELTA_FRONT"                               
2142.4 "6507_7_6"  75.3900 "Sandstone" "Shale"   -999.25  92.0000  8.00000      0.0 "vc"       "m"        "Lower_shoreface_"                                                                                  "DELTA_FRONT"                               
2142.5 "6507_7_6"  75.3900 "Sandstone" "Shale"   -999.25  92.0000  8.00000      0.0 "vc"       "m"        "Lower_shoreface_"                                                                                  "DELTA_FRONT"                               
2142.6 "6507_7_6"  75.9100 "Sandstone" "Shale"   -999.25  92.0000  8.00000      0.0 "vc"       "m"        "Lower_shoreface_"                                                                                  "DELTA_FRONT"                               
2142.7 "6507_7_6"  77.5700 "Sandstone" "Shale"   -999.25  92.0000  8.00000      0.0 "vc"       "m"        "Lower_shoreface_"                                                                                  "DELTA_FRONT"                               
2142.8 "6507_7_6"  80.3100 "Sandstone" "Shale"   -999.25  92.0000  8.00000      0.0 "vc"       "m"        "Lower_shoreface_"                                                                                  "DELTA_FRONT"                               
2142.9 "6507_7_6"  83.0400 "Sandstone" "Shale"   -999.25  92.0000  8.00000      0.0 "vc"       "m"        "Lower_shoreface_"                                                                                  "DELTA_FRONT"                               
2143.0 "6507_7_6"  85.7800 "Sandstone" "Shale"   -999.25  92.0000  8.00000      0.0 "vc"       "m"        "Lower_shoreface_"                                                                                  "DELTA_FRONT"                               
2143.1 "6507_7_6"  86.7200 "Sandstone" "Shale"   -999.25  92.0000  8.00000      0.0 "vc"       "m"        "Lower_shoreface_"                                                                                  "DELTA_FRONT"                               
2143.2 "6507_7_6"  87.2000 "Sandstone" "Shale"   -999.25  92.0000  8.00000      0.0 "vc"       "m"        "Lower_shoreface_"                                                                                  "DELTA_FRONT"                               
2143.3 "6507_7_6"  86.8100 "Sandstone" "Shale"   -999.25  92.0000  8.00000      0.0 "vc"       "m"        "Lower_shoreface_"                                                                                  "DELTA_FRONT"                               
2143.4 "6507_7_6"  86.4200 "Sandstone" "Shale"   -999.25  92.0000  8.00000      0.0 "vc"       "m"        "Lower_shoreface_"                                                                                  "DELTA_FRONT"                               
2143.5 "6507_7_6"  86.1400 "Sandstone" "Shale"   -999.25  92.0000  8.00000      0.0 "vc"       "m"        "Lower_shoreface_"                                                                                  "DELTA_FRONT"                               
2143.6 "6507_7_6"  85.9000 "Sandstone" "Shale"   -999.25  92.0000  8.00000      0.0 "vc"       "m"        "Lower_shoreface_"                                                                                  "DELTA_FRONT"                               
2143.7 "6507_7_6"  87.7700 "Sandstone" "Shale"   -999.25  92.0000  8.00000      0.0 "vc"       "m"        "Lower_shoreface_"                                                                                  "DELTA_FRONT"                               
2143.8 "6507_7_6"  90.8900 "Sandstone" "Shale"   -999.25  92.0000  8.00000      0.0 "vc"       "m"        "Lower_shoreface_"                                                                                  "DELTA_FRONT"                               
2143.9 "6507_7_6"  94.0000 "Sandstone" "Shale"   -999.25  92.0000  8.00000      0.0 "vc"       "m"        "Lower_shoreface_"                                                                                  "DELTA_FRONT"                               
2144.0 "6507_7_6"  96.2000 "Sandstone" "Shale"   -999.25  92.0000  8.00000      0.0 "vc"       "m"        "Lower_shoreface_"                                                                                  "DELTA_FRONT"                               
2144.1 "6507_7_6"  95.6500 "Sandstone" "Shale"   -999.25  92.0000  8.00000      0.0 "vc"       "m"        "TRANSGRESSION"                                                                                     "DELTA_FRONT"                               
2144.2 "6507_7_6"  94.0400 "Sandstone" "Shale"   -999.25  92.0000  8.00000      0.0 "vc"       "m"        "TRANSGRESSION"                                                                                     "DELTA_FRONT"                               
2144.3 "6507_7_6"  91.6900 "Sandstone" "Shale"   -999.25  92.0000  8.00000      0.0 "vc"       "m"        "TRANSGRESSION"                                                                                     "DELTA_FRONT"                               
2144.4 "6507_7_6"  89.3400 "Sandstone" "Shale"   -999.25  92.0000  8.00000      0.0 "vc"       "m"        "TRANSGRESSION"                                                                                     "DELTA_FRONT"                               
2144.5 "6507_7_6"  86.3800 "Sandstone" "Shale"   -999.25  92.0000  8.00000      0.0 "vc"       "m"        "TRANSGRESSION"                                                                                     "DELTA_FRONT"                               
2144.6 "6507_7_6"  83.1000 "Sandstone" "Shale"   -999.25  92.0000  8.00000      0.0 "vc"       "m"        "TRANSGRESSION"                                                                                     "DELTA_FRONT"                               
2144.7 "6507_7_6"  79.8300 "Sandstone" "Shale"   -999.25  92.0000  8.00000      0.0 "vc"       "m"        "TRANSGRESSION"                                                                                     "DELTA_FRONT"                               
2144.8 "6507_7_6"  77.3100 "Sandstone" "Shale"   -999.25  92.0000  8.00000      0.0 "vc"       "m"        "TRANSGRESSION"                                                                                     "DELTA_FRONT"                               
2144.9 "6507_7_6"  80.2100 "Sandstone" "Shale"   -999.25  92.0000  8.00000      0.0 "vc"       "m"        "TRANSGRESSION"                                                                                     "DELTA_FRONT"                               
2145.0 "6507_7_6"  86.1700 "Sandstone" "Shale"   -999.25  92.0000  8.00000      0.0 "vc"       "m"        "TRANSGRESSION"                                                                                     "DELTA_FRONT"                               
2145.1 "6507_7_6"  92.3600 "Sandstone" "Shale"   -999.25  92.0000  8.00000      0.0 "vc"       "m"        "TRANSGRESSION"                                                                                     "DELTA_FRONT"                               
2145.2 "6507_7_6"  98.5500 "Sandstone" "Shale"   -999.25  92.0000  8.00000      0.0 "vc"       "m"        "TRANSGRESSION"                                                                                     "DELTA_FRONT"                               
2145.3 "6507_7_6" 104.2100 "Sandstone" "Shale"   -999.25  92.0000  8.00000      0.0 "vc"       "m"        "Upper_shoreface_with_subtidal_channels"                                                            "DELTA_FRONT"                               
